{"type": "FeatureCollection", "features": [{"type": "Feature", "geometry": {"type": "Point", "coordinates": [100.57693652537299, 13.714557517171764]}, "properties": {"id": 318, "name": "โรงพยาบาลเทพธารินทร์", "district": "คลองเตย", "snapDistanceMeters": 28.87}}, {"type": "Feature", "geometry": {"type": "Point", "coordinates": [100.44070345500323, 13.568841357916591]}, "properties": {"id": 300, "name": "ศูนย์บริการสาธารณสุข 42 เมฆสุวรรณ", "district": "บางขุนเทียน", "snapDistanceMeters": 15.75}}, {"type": "Feature", "geometry": {"type": "Point", "coordinates": [100.63901426133467, 13.760695370036307]}, "properties": {"id": 1070, "name": "ศูนย์บริการสาธารณสุข 35 หัวหมาก", "district": "บางกะปิ", "snapDistanceMeters": 35.59}}, {"type": "Feature", "geometry": {"type": "Point", "coordinates": [100.50964077718918, 13.74715937377402]}, "properties": {"id": 1096, "name": "โรงพยาบาลกลาง", "district": "ป้อมปราบศัตรูพ่าย", "snapDistanceMeters": 57.89}}, {"type": "Feature", "geometry": {"type": "Point", "coordinates": [100.57988508936646, 13.732457760943273]}, "properties": {"id": 21556, "name": "ที่จอดรถโรงพยาบาลสมิติเวช", "district": "วัฒนา", "snapDistanceMeters": 43.61}}, {"type": "Feature", "geometry": {"type": "Point", "coordinates": [100.63171076652353, 13.713230269147799]}, "properties": {"id": 22173, "name": "สถานรับเลี้ยงเด็กกลางวันศูนย์บริการสาธารณสุข 22", "district": "สวนหลวง", "snapDistanceMeters": 14.06}}, {"type": "Feature", "geometry": {"type": "Point", "coordinates": [100.63150449776609, 13.713260052936224]}, "properties": {"id": 22175, "name": "ชมรมผู้สูงอายุศูนย์บริการสาธารณสุข 22 วัดปากบ่อ", "district": "สวนหลวง", "snapDistanceMeters": 29.41}}, {"type": "Feature", "geometry": {"type": "Point", "coordinates": [100.49666875504688, 13.697551628556564]}, "properties": {"id": 21703, "name": "ศูนย์ล้างไตทางช่องท้องโรงพยาบาลบ้านแพ้ว (องค์กรมหาชน)", "district": "บางคอแหลม", "snapDistanceMeters": 42.76}}, {"type": "Feature", "geometry": {"type": "Point", "coordinates": [100.5224102988598, 13.807194042051622]}, "properties": {"id": 16115, "name": "อาคารจอดรถโรงพยาบาลบางโพ", "district": "บางซื่อ", "snapDistanceMeters": 22.62}}, {"type": "Feature", "geometry": {"type": "Point", "coordinates": [100.54022919218733, 13.770705532812297]}, "properties": {"id": 92917, "name": "อาคาร 2 โรงพยาบาลพญาไท 2", "district": "พญาไท", "snapDistanceMeters": 35.83}}, {"type": "Feature", "geometry": {"type": "Point", "coordinates": [100.43009563815117, 13.668552339391573]}, "properties": {"id": 90858, "name": "ศูนย์บริการสาธารณสุข 65 สาขาม่วงศิริ", "district": "บางบอน", "snapDistanceMeters": 11.16}}, {"type": "Feature", "geometry": {"type": "Point", "coordinates": [100.46975838786686, 13.699004588858259]}, "properties": {"id": 90753, "name": "โรงพยาบาลทั่วไปขนาดเล็กบางขุนเทียน 1", "district": "จอมทอง", "snapDistanceMeters": 17.52}}, {"type": "Feature", "geometry": {"type": "Point", "coordinates": [100.47048228352098, 13.787740166367323]}, "properties": {"id": 91146, "name": "โรงพยาบาลตาหูคอจมูก", "district": "บางพลัด", "snapDistanceMeters": 27.07}}, {"type": "Feature", "geometry": {"type": "Point", "coordinates": [100.63564553334565, 13.665811796790052]}, "properties": {"id": 91359, "name": "อาคารจอดรถโรงพยาบาลบางนา", "district": "บางนา", "snapDistanceMeters": 16.89}}, {"type": "Feature", "geometry": {"type": "Point", "coordinates": [100.60406522785478, 13.679628930748645]}, "properties": {"id": 15451, "name": "อาคารผู้สูงอายุโรงพยาบาลกล้วยน้ำไท", "district": "บางนา", "snapDistanceMeters": 15.85}}, {"type": "Feature", "geometry": {"type": "Point", "coordinates": [100.68352378488395, 13.799683554261396]}, "properties": {"id": 29941, "name": "อาคารศูนย์บริการสาธารณสุข 70 (คันนายาว)", "district": "คันนายาว", "snapDistanceMeters": 14.71}}, {"type": "Feature", "geometry": {"type": "Point", "coordinates": [100.51130646722827, 13.611367405985426]}, "properties": {"id": 29937, "name": "คลินิกโรงพยาบาลกรุงเทพ", "district": "ทุ่งครุ", "snapDistanceMeters": 22.34}}, {"type": "Feature", "geometry": {"type": "Point", "coordinates": [100.53493916327739, 13.73301909050247]}, "properties": {"id": 132826, "name": "ศูนย์อาหารโรงพยาบาลจุฬาลงกรณ์", "district": "ปทุมวัน", "snapDistanceMeters": 28.14}}, {"type": "Feature", "geometry": {"type": "Point", "coordinates": [100.5300679040114, 13.771510578856816]}, "properties": {"id": 37734, "name": "ลานจอดรถโรงพยาบาลรามาธิบดี", "district": "ราขเทวี", "snapDistanceMeters": 18.42}}, {"type": "Feature", "geometry": {"type": "Point", "coordinates": [100.68617178919298, 13.873143841074343]}, "properties": {"id": 35669, "name": "ศูนย์บริการสาธารณสุข 64", "district": "คลองสามวา", "snapDistanceMeters": 12.77}}, {"type": "Feature", "geometry": {"type": "Point", "coordinates": [100.54993678235604, 13.792494605809159]}, "properties": {"id": 35809, "name": "โรงพยาบาลเปาโลเมโมเรียล", "district": "พญาไท", "snapDistanceMeters": 70.09}}, {"type": "Feature", "geometry": {"type": "Point", "coordinates": [100.67243894414642, 13.853374358868166]}, "properties": {"id": 36141, "name": "ศูนย์บริการสาธารณสุข 64 สาขาคู้บอน", "district": "คลองสามวา", "snapDistanceMeters": 11.65}}, {"type": "Feature", "geometry": {"type": "Point", "coordinates": [100.50099711809766, 13.723290267923606]}, "properties": {"id": 56148, "name": "หอพักโรงพยาบาลกรุงธน", "district": "คลองสาน", "snapDistanceMeters": 14.58}}, {"type": "Feature", "geometry": {"type": "Point", "coordinates": [100.60680665757616, 13.888721462576479]}, "properties": {"id": 56788, "name": "โรงพยาบาลซีจีเอช สะพานใหม่", "district": "บางเขน", "snapDistanceMeters": 38.91}}, {"type": "Feature", "geometry": {"type": "Point", "coordinates": [100.75360903662924, 13.750549007718684]}, "properties": {"id": 131992, "name": "ศูนย์บริการสาธารณสุข 4 สาขาคลองสามประเวศน์", "district": "ลาดกระบัง", "snapDistanceMeters": 11.47}}, {"type": "Feature", "geometry": {"type": "Point", "coordinates": [100.47495875344289, 13.719737621096373]}, "properties": {"id": 55820, "name": "โรงพยาบาลเยาวรักษ์", "district": "ธนบุรี", "snapDistanceMeters": 21.65}}, {"type": "Feature", "geometry": {"type": "Point", "coordinates": [100.4119443799452, 13.790131743647393]}, "properties": {"id": 132067, "name": "ศูนย์บริการสาธารณสุข 49", "district": "ตลิ่งชัน", "snapDistanceMeters": 21.43}}, {"type": "Feature", "geometry": {"type": "Point", "coordinates": [100.63600221334421, 13.759373857890349]}, "properties": {"id": 130916, "name": "บริษัท โรงพยาบาลรามคำแหง จำกัด (มหาชน)", "district": "บางกะปิ", "snapDistanceMeters": 18.9}}, {"type": "Feature", "geometry": {"type": "Point", "coordinates": [100.47303078268872, 13.782228041790498]}, "properties": {"id": 130178, "name": "โรงพยาบาลผิวหนังอโศก สาขาปิ่นเกล้า", "district": "บางกอกน้อย", "snapDistanceMeters": 19.68}}, {"type": "Feature", "geometry": {"type": "Point", "coordinates": [100.51221742061634, 13.799548788956196]}, "properties": {"id": 55060, "name": "โรงพยาบาลยันฮี", "district": "บางพลัด", "snapDistanceMeters": 9.04}}, {"type": "Feature", "geometry": {"type": "Point", "coordinates": [100.40496368852136, 13.598251476470075]}, "properties": {"id": 78039, "name": "ศูนย์บริการสาธารณสุข 42 บางกระดี่", "district": "บางขุนเทียน", "snapDistanceMeters": 18.93}}, {"type": "Feature", "geometry": {"type": "Point", "coordinates": [100.52008876298511, 13.730512161219815]}, "properties": {"id": 78255, "name": "ศูนย์บริการสาธารณสุข 23 สี่พระยา", "district": "บางรัก", "snapDistanceMeters": 25.37}}, {"type": "Feature", "geometry": {"type": "Point", "coordinates": [100.504016348209, 13.729567800662]}, "properties": {"id": 129045, "name": "ชุมชนหลังโรงพยาบาลบ้านสมเด็จเจ้าพระยา", "district": "คลองสาน", "snapDistanceMeters": 20.43}}, {"type": "Feature", "geometry": {"type": "Point", "coordinates": [100.73203441612914, 13.850766784411684]}, "properties": {"id": 129050, "name": "ศูนย์บริการสาธารณสุข 64 สาขาวัดบัวแก้ว", "district": "คลองสามวา", "snapDistanceMeters": 19.09}}, {"type": "Feature", "geometry": {"type": "Point", "coordinates": [100.83320240882367, 13.768754045068716]}, "properties": {"id": 129066, "name": "ศูนย์บริการสาธารณสุข 44 สาขาลำพะอง", "district": "หนองจอก", "snapDistanceMeters": 19.71}}, {"type": "Feature", "geometry": {"type": "Point", "coordinates": [100.52756239652985, 13.7616349798178]}, "properties": {"id": 54228, "name": "อาคารมูลนิธิโรงพยาบาลสงฆ์", "district": "ราขเทวี", "snapDistanceMeters": 30.09}}, {"type": "Feature", "geometry": {"type": "Point", "coordinates": [100.51046919092197, 13.747015796705647]}, "properties": {"id": 129033, "name": "ตู้ควบคุมสัญญาณไฟจราจรแยกโรงพยาบาลกลาง", "district": "ป้อมปราบศัตรูพ่าย", "snapDistanceMeters": 17.03}}, {"type": "Feature", "geometry": {"type": "Point", "coordinates": [100.48130070214427, 13.721674810972798]}, "properties": {"id": 54940, "name": "ศูนย์บริการสาธารณสุข 27 จันทร์ ฉิมไพบูลย์", "district": "ธนบุรี", "snapDistanceMeters": 19.65}}, {"type": "Feature", "geometry": {"type": "Point", "coordinates": [100.43916661166425, 13.74870871711397]}, "properties": {"id": 54548, "name": "ศูนย์บริการสาธารณสุข 49 สาขาวัดสะพาน", "district": "ตลิ่งชัน", "snapDistanceMeters": 23.61}}, {"type": "Feature", "geometry": {"type": "Point", "coordinates": [100.48959589706936, 13.714082463042828]}, "properties": {"id": 55184, "name": "โรงพยาบาลสมิติเวชธนบุรี", "district": "ธนบุรี", "snapDistanceMeters": 21.98}}, {"type": "Feature", "geometry": {"type": "Point", "coordinates": [100.53483249434746, 13.7674311071349]}, "properties": {"id": 54485, "name": "โรงพยาบาลพระมงกุฎเกล้า", "district": "ราขเทวี", "snapDistanceMeters": 42.12}}, {"type": "Feature", "geometry": {"type": "Point", "coordinates": [100.5077602790328, 13.78058837685991]}, "properties": {"id": 55248, "name": "โรงพยาบาลวชิรพยาบาล", "district": "ดุสิต", "snapDistanceMeters": 77.67}}, {"type": "Feature", "geometry": {"type": "Point", "coordinates": [100.33401073579549, 13.801598266442527]}, "properties": {"id": 55378, "name": "ศูนย์บริการสาธารณสุข 67 สาขาศาลาธรรมสพน์", "district": "ทวีวัฒนา", "snapDistanceMeters": 26.06}}, {"type": "Feature", "geometry": {"type": "Point", "coordinates": [100.7837722451565, 13.7224090241331]}, "properties": {"id": 55735, "name": "โรงพยาบาลลาดกระบังกรุงเทพมหานคร", "district": "ลาดกระบัง", "snapDistanceMeters": 33.3}}, {"type": "Feature", "geometry": {"type": "Point", "coordinates": [100.60713829373593, 13.794755608717796]}, "properties": {"id": 54828, "name": "โรงพยาบาลภัสรพิบาลเนอสซิ่งโฮม", "district": "วังทองหลาง", "snapDistanceMeters": 16.0}}, {"type": "Feature", "geometry": {"type": "Point", "coordinates": [100.48097843236057, 13.721579523498939]}, "properties": {"id": 54936, "name": "สถานรับเลี้ยงเด็กกลางวันศูนย์บริการสาธารณสุข 27 จันทร์ ฉิมไพบูลย์", "district": "ธนบุรี", "snapDistanceMeters": 18.91}}, {"type": "Feature", "geometry": {"type": "Point", "coordinates": [100.42129313540583, 13.5275407754337]}, "properties": {"id": 55132, "name": "ศูนย์บริการสาธารณสุข 42 พิทยาลงกรณ์", "district": "บางขุนเทียน", "snapDistanceMeters": 60.37}}, {"type": "Feature", "geometry": {"type": "Point", "coordinates": [100.71715903181791, 13.811134461412365]}, "properties": {"id": 32861, "name": "โรงพยาบาลเสรีรักษ์", "district": "มีนบุรี", "snapDistanceMeters": 20.21}}, {"type": "Feature", "geometry": {"type": "Point", "coordinates": [100.52657826418015, 13.827366483627085]}, "properties": {"id": 32863, "name": "ศูนย์บริการสาธารณสุข 19 วงศ์สว่าง", "district": "บางซื่อ", "snapDistanceMeters": 16.63}}, {"type": "Feature", "geometry": {"type": "Point", "coordinates": [100.58116248527439, 13.84951674768361]}, "properties": {"id": 32224, "name": "ศูนย์บริการสาธารณสุข 24 บางเขน", "district": "จตุจักร", "snapDistanceMeters": 35.36}}, {"type": "Feature", "geometry": {"type": "Point", "coordinates": [100.58077811026945, 13.849683650956921]}, "properties": {"id": 32226, "name": "สถานรับเลี้ยงเด็กกลางวันศูนย์บริการสาธารณสุข 24 บางเขน", "district": "จตุจักร", "snapDistanceMeters": 15.98}}, {"type": "Feature", "geometry": {"type": "Point", "coordinates": [100.72365459301831, 13.8117711816873]}, "properties": {"id": 32282, "name": "โรงพยาบาลนวมินทร์ 9", "district": "มีนบุรี", "snapDistanceMeters": 14.37}}, {"type": "Feature", "geometry": {"type": "Point", "coordinates": [100.34510087054237, 13.655732843026769]}, "properties": {"id": 129134, "name": "โรงพยาบาลหลวงพ่อทวีศักดิ์ชุตินัธโรอุทิศ", "district": "หนองแขม", "snapDistanceMeters": 20.83}}, {"type": "Feature", "geometry": {"type": "Point", "coordinates": [100.43469068578196, 13.66135108887009]}, "properties": {"id": 128270, "name": "ศูนย์บริการสาธารณสุข 42 ถนอม ทองสิมา", "district": "บางขุนเทียน", "snapDistanceMeters": 34.18}}, {"type": "Feature", "geometry": {"type": "Point", "coordinates": [100.3686229005549, 13.768138991557121]}, "properties": {"id": 128438, "name": "ศูนย์บริการสาธารณสุข 67 ทวีวัฒนา สาขา พล.ต. บุษป์-ประดับ โกมุท", "district": "ทวีวัฒนา", "snapDistanceMeters": 26.7}}, {"type": "Feature", "geometry": {"type": "Point", "coordinates": [100.55448029470877, 13.724872764193949]}, "properties": {"id": 128883, "name": "โรงพยาบาลสวนเบญจกิติเฉลิมพระเกียรติ 84 พรรษา", "district": "คลองเตย", "snapDistanceMeters": 60.66}}, {"type": "Feature", "geometry": {"type": "Point", "coordinates": [100.48083514088687, 13.611701398433443]}, "properties": {"id": 128311, "name": "ศูนย์บริการสาธารณสุข 59 ทุ่งครุ สาขาวัดบัวผัน", "district": "บางขุนเทียน", "snapDistanceMeters": 28.91}}, {"type": "Feature", "geometry": {"type": "Point", "coordinates": [100.7219984417374, 13.723527837970183]}, "properties": {"id": 31135, "name": "ศูนย์บริการสาธารณสุข 46 กันตารัติอุทิศ", "district": "ลาดกระบัง", "snapDistanceMeters": 17.61}}, {"type": "Feature", "geometry": {"type": "Point", "coordinates": [100.60761615839377, 13.743231015099264]}, "properties": {"id": 31080, "name": "โรงพยาบาลแพทย์ปัญญา", "district": "สวนหลวง", "snapDistanceMeters": 40.26}}, {"type": "Feature", "geometry": {"type": "Point", "coordinates": [100.76951097821677, 13.802761908825905]}, "properties": {"id": 31117, "name": "ศูนย์บริการสาธารณสุข 43 สาขาคลอง 4", "district": "มีนบุรี", "snapDistanceMeters": 25.87}}, {"type": "Feature", "geometry": {"type": "Point", "coordinates": [100.50616556618272, 13.607312517400128]}, "properties": {"id": 83494, "name": "ศูนย์บริการสาธารณสุข 59 ทุ่งครุ", "district": "ทุ่งครุ", "snapDistanceMeters": 32.83}}, {"type": "Feature", "geometry": {"type": "Point", "coordinates": [100.61526863645713, 13.677221515073239]}, "properties": {"id": 83488, "name": "ศูนย์บริการสาธารณสุข 8 บุญรอดรุ่งเรือง", "district": "บางนา", "snapDistanceMeters": 24.55}}, {"type": "Feature", "geometry": {"type": "Point", "coordinates": [100.80118401881255, 13.780619306628568]}, "properties": {"id": 24214, "name": "ศูนย์บริการสาธารณสุข 46 สาขาลำปลาทิว", "district": "ลาดกระบัง", "snapDistanceMeters": 20.2}}, {"type": "Feature", "geometry": {"type": "Point", "coordinates": [100.54651563872198, 13.839354247535114]}, "properties": {"id": 17855, "name": "สถานรับเลี้ยงเด็กกลางวันศูนย์บริการสาธารณสุข 17 ประชานิเวศน์", "district": "จตุจักร", "snapDistanceMeters": 30.66}}, {"type": "Feature", "geometry": {"type": "Point", "coordinates": [100.54814900544166, 13.68240501142174]}, "properties": {"id": 25008, "name": "ศูนย์บริการสาธารณสุข 55 สมาคมเตชะสัมพันธ์", "district": "ยานนาวา", "snapDistanceMeters": 17.57}}, {"type": "Feature", "geometry": {"type": "Point", "coordinates": [100.46411613916321, 13.723287948386846]}, "properties": {"id": 32414, "name": "โรงพยาบาลพญาไท 3", "district": "ภาษีเจริญ", "snapDistanceMeters": 37.68}}, {"type": "Feature", "geometry": {"type": "Point", "coordinates": [100.3865554470955, 13.593446142700458]}, "properties": {"id": 32665, "name": "ศูนย์บริการสาธารณสุข 42", "district": "บางขุนเทียน", "snapDistanceMeters": 19.92}}, {"type": "Feature", "geometry": {"type": "Point", "coordinates": [100.90540534290514, 13.887594098784257]}, "properties": {"id": 31792, "name": "ศูนย์บริการสาธารณสุข 44 สาขาวัดใหม่เจริญราษฎร์", "district": "หนองจอก", "snapDistanceMeters": 21.64}}, {"type": "Feature", "geometry": {"type": "Point", "coordinates": [100.46494339193697, 13.725376342210652]}, "properties": {"id": 32014, "name": "โรงพยาบาลบางไผ่", "district": "ภาษีเจริญ", "snapDistanceMeters": 30.43}}, {"type": "Feature", "geometry": {"type": "Point", "coordinates": [100.76705320542149, 13.829764797578424]}, "properties": {"id": 31525, "name": "ศูนย์บริการสาธารณสุข 43 มีนบุรี สาขาอัลอิดซ์ฮาดร์", "district": "มีนบุรี", "snapDistanceMeters": 24.86}}, {"type": "Feature", "geometry": {"type": "Point", "coordinates": [100.58836164226315, 13.943962256703301]}, "properties": {"id": 31608, "name": "ศูนย์บริการสาธารณสุข 60 สาขาแขวงสีกัน", "district": "ดอนเมือง", "snapDistanceMeters": 12.33}}, {"type": "Feature", "geometry": {"type": "Point", "coordinates": [100.62388070013309, 13.778696832706165]}, "properties": {"id": 23472, "name": "โรงพยาบาลลาดพร้าว", "district": "วังทองหลาง", "snapDistanceMeters": 17.7}}, {"type": "Feature", "geometry": {"type": "Point", "coordinates": [100.57375917834574, 13.733436525740192]}, "properties": {"id": 24330, "name": "โรงพยาบาลบ้านแพ้ว สาขาพร้อมมิตร", "district": "วัฒนา", "snapDistanceMeters": 18.13}}, {"type": "Feature", "geometry": {"type": "Point", "coordinates": [100.63218193969752, 13.78379789619423]}, "properties": {"id": 24545, "name": "ศูนย์บริการสาธารณสุข 35 สาขากาญจนาวาศ", "district": "บางกะปิ", "snapDistanceMeters": 36.26}}, {"type": "Feature", "geometry": {"type": "Point", "coordinates": [100.93726186589053, 13.813425514619368]}, "properties": {"id": 23427, "name": "ศูนย์บริการสาธารณสุข 44 สาขากระทุ่มราย", "district": "หนองจอก", "snapDistanceMeters": 72.96}}, {"type": "Feature", "geometry": {"type": "Point", "coordinates": [100.68794122409884, 13.815955125273604]}, "properties": {"id": 23549, "name": "อาคารเฉลิมพระเกียรติ (โรงพยาบาลนพรัตนราชธานี)", "district": "คันนายาว", "snapDistanceMeters": 47.34}}, {"type": "Feature", "geometry": {"type": "Point", "coordinates": [100.37449790686638, 13.72260036493449]}, "properties": {"id": 98874, "name": "ศูนย์บริการสาธารณสุข 40 สาขาหนู-ไล้จีนประสาน", "district": "บางแค", "snapDistanceMeters": 12.32}}, {"type": "Feature", "geometry": {"type": "Point", "coordinates": [100.47043608305852, 13.780387490519722]}, "properties": {"id": 99835, "name": "โรงพยาบาลเจ้าพระยา", "district": "บางกอกน้อย", "snapDistanceMeters": 19.34}}, {"type": "Feature", "geometry": {"type": "Point", "coordinates": [100.4915839626338, 13.637002947201157]}, "properties": {"id": 98655, "name": "ศูนย์บริการสาธารณสุข 59 ทุ่งครุ 2", "district": "ทุ่งครุ", "snapDistanceMeters": 24.63}}, {"type": "Feature", "geometry": {"type": "Point", "coordinates": [100.53569965825739, 13.756340407752653]}, "properties": {"id": 24039, "name": "โรงพยาบาลเดชา", "district": "ราขเทวี", "snapDistanceMeters": 46.5}}, {"type": "Feature", "geometry": {"type": "Point", "coordinates": [100.55043285648362, 13.727247218588229]}, "properties": {"id": 24123, "name": "ศูนย์บริการสาธารณสุข 16 ลุมพินี", "district": "ปทุมวัน", "snapDistanceMeters": 13.17}}, {"type": "Feature", "geometry": {"type": "Point", "coordinates": [100.36993469718678, 13.690810090285801]}, "properties": {"id": 24419, "name": "ศูนย์บริการสาธารณสุข 48 (นาควัชระอุทิศ)", "district": "หนองแขม", "snapDistanceMeters": 16.2}}, {"type": "Feature", "geometry": {"type": "Point", "coordinates": [100.51046709775089, 13.618814912527174]}, "properties": {"id": 24421, "name": "ศูนย์บริการสาธารณสุข 59 สาขาทุ่งครุ 1", "district": "ทุ่งครุ", "snapDistanceMeters": 20.16}}, {"type": "Feature", "geometry": {"type": "Point", "coordinates": [100.53164653283208, 13.759260184013902]}, "properties": {"id": 24666, "name": "มูลนิธิเพื่อโรงพยาบาลธรรมศาสตร์เฉลิมพระเกียรติ", "district": "ราขเทวี", "snapDistanceMeters": 36.58}}, {"type": "Feature", "geometry": {"type": "Point", "coordinates": [100.85905676407967, 13.856445787096355]}, "properties": {"id": 60107, "name": "โรงพยาบาลเวชการุณย์รัศมิ์", "district": "หนองจอก", "snapDistanceMeters": 47.26}}, {"type": "Feature", "geometry": {"type": "Point", "coordinates": [100.40079929656021, 13.723179471224999]}, "properties": {"id": 59436, "name": "ศูนย์บริการสาธารณสุข 40 สาขาแย้มเหย็นหนูเสเกกุล", "district": "บางแค", "snapDistanceMeters": 16.6}}, {"type": "Feature", "geometry": {"type": "Point", "coordinates": [100.46629782772982, 13.776012184429254]}, "properties": {"id": 99419, "name": "ศูนย์บริการสาธารณสุข 30 วัดเจ้าอาม", "district": "บางกอกน้อย", "snapDistanceMeters": 27.1}}, {"type": "Feature", "geometry": {"type": "Point", "coordinates": [100.63883983294353, 13.668921799688922]}, "properties": {"id": 65874, "name": "ที่จอดรถชั่วคราวโรงพยาบาลไทยนครินทร์", "district": "บางนา", "snapDistanceMeters": 55.35}}, {"type": "Feature", "geometry": {"type": "Point", "coordinates": [100.52626853714658, 13.761865081650345]}, "properties": {"id": 65301, "name": "โรงพยาบาลสงฆ์", "district": "ราขเทวี", "snapDistanceMeters": 29.09}}, {"type": "Feature", "geometry": {"type": "Point", "coordinates": [100.62493726918241, 13.943502298167282]}, "properties": {"id": 59692, "name": "โรงพยาบาลบี. แคร์เมดิคอลเซ็นเตอร์", "district": "สายไหม", "snapDistanceMeters": 25.46}}, {"type": "Feature", "geometry": {"type": "Point", "coordinates": [100.4831556495609, 13.751906117015267]}, "properties": {"id": 61957, "name": "หอพักโรงพยาบาลธนบุรี (7)", "district": "บางกอกน้อย", "snapDistanceMeters": 25.74}}, {"type": "Feature", "geometry": {"type": "Point", "coordinates": [100.55985825779803, 13.846034332454462]}, "properties": {"id": 86194, "name": "ที่จอดรถโรงพยาบาลวิภาวดี", "district": "จตุจักร", "snapDistanceMeters": 54.16}}, {"type": "Feature", "geometry": {"type": "Point", "coordinates": [100.70385840864974, 13.858446688865078]}, "properties": {"id": 65297, "name": "ศูนย์บริการสาธารณสุข 64", "district": "คลองสามวา", "snapDistanceMeters": 42.61}}, {"type": "Feature", "geometry": {"type": "Point", "coordinates": [100.58783782027099, 13.713768889079907]}, "properties": {"id": 86792, "name": "ลานจอดรถโรงพยาบาลกล้วยน้ำไท", "district": "คลองเตย", "snapDistanceMeters": 28.32}}, {"type": "Feature", "geometry": {"type": "Point", "coordinates": [100.57710586535515, 13.714262008914016]}, "properties": {"id": 86875, "name": "อาคารที่จอดรถโรงพยาบาลเทพธารินทร์", "district": "คลองเตย", "snapDistanceMeters": 22.38}}, {"type": "Feature", "geometry": {"type": "Point", "coordinates": [100.57723442263479, 13.714237208513653]}, "properties": {"id": 86876, "name": "ลานที่จอดรถโรงพยาบาลเทพธารินทร์", "district": "คลองเตย", "snapDistanceMeters": 26.36}}, {"type": "Feature", "geometry": {"type": "Point", "coordinates": [100.50419354110096, 13.729517850443596]}, "properties": {"id": 87093, "name": "ที่จอดรถโรงพยาบาลสมเด็จเจ้าพระยา", "district": "คลองสาน", "snapDistanceMeters": 64.16}}, {"type": "Feature", "geometry": {"type": "Point", "coordinates": [100.49471463803, 13.694754250879392]}, "properties": {"id": 87184, "name": "ตึกอุบัติเหตุ โรงพยาบาลเจริญกรุงประชารักษ์", "district": "บางคอแหลม", "snapDistanceMeters": 14.86}}, {"type": "Feature", "geometry": {"type": "Point", "coordinates": [100.49407782260657, 13.69322055966803]}, "properties": {"id": 87186, "name": "อาคาร 2 โรงพยาบาลเจริญกรุงประชารักษ์", "district": "บางคอแหลม", "snapDistanceMeters": 14.96}}, {"type": "Feature", "geometry": {"type": "Point", "coordinates": [100.49371130098882, 13.692470121757646]}, "properties": {"id": 87250, "name": "อาคาร 1 โรงพยาบาลเจริญกรุงประชารักษ์", "district": "บางคอแหลม", "snapDistanceMeters": 23.1}}, {"type": "Feature", "geometry": {"type": "Point", "coordinates": [100.49317666993, 13.692973877309038]}, "properties": {"id": 87251, "name": "อาคาร 3 โรงพยาบาลเจริญกรุงประชารักษ์", "district": "บางคอแหลม", "snapDistanceMeters": 49.04}}, {"type": "Feature", "geometry": {"type": "Point", "coordinates": [100.58719370549133, 13.670192473196508]}, "properties": {"id": 48284, "name": "โรงพยาบาลทหารเรือกรุงเทพ", "district": "บางนา", "snapDistanceMeters": 53.11}}, {"type": "Feature", "geometry": {"type": "Point", "coordinates": [100.46115646126121, 13.692740840033458]}, "properties": {"id": 47502, "name": "โรงพยาบาลตำรวจ", "district": "จอมทอง", "snapDistanceMeters": 16.85}}, {"type": "Feature", "geometry": {"type": "Point", "coordinates": [100.5878670098276, 13.713501430549844]}, "properties": {"id": 86030, "name": "อาคาร 72 พรรษาโรงพยาบาลกล้วยน้ำไท", "district": "คลองเตย", "snapDistanceMeters": 39.09}}, {"type": "Feature", "geometry": {"type": "Point", "coordinates": [100.5859050434792, 13.746424408098742]}, "properties": {"id": 85717, "name": "อาคารจอดรถเจ้าหน้าที่โรงพยาบาลกรุงเทพ 4", "district": "ห้วยขวาง", "snapDistanceMeters": 11.71}}, {"type": "Feature", "geometry": {"type": "Point", "coordinates": [100.60087473284514, 13.922291409389622]}, "properties": {"id": 46517, "name": "ศูนย์บริการสาธารณสุข 60 สาขาวัดดอนเมือง", "district": "ดอนเมือง", "snapDistanceMeters": 30.18}}, {"type": "Feature", "geometry": {"type": "Point", "coordinates": [100.49546059927756, 13.692600643486895]}, "properties": {"id": 46217, "name": "ชุมชนหลังโรงพยาบาลเจริญกรุง", "district": "บางคอแหลม", "snapDistanceMeters": 15.16}}, {"type": "Feature", "geometry": {"type": "Point", "coordinates": [100.87263967743671, 13.781883984573012]}, "properties": {"id": 46821, "name": "ศูนย์บริการสาธารณสุข 44 สาขาวัดใหม่กระทุ่มล้ม", "district": "หนองจอก", "snapDistanceMeters": 16.6}}, {"type": "Feature", "geometry": {"type": "Point", "coordinates": [100.58344371945952, 13.74769794357667]}, "properties": {"id": 46683, "name": "โรงพยาบาลหัวใจกรุงเทพ", "district": "ห้วยขวาง", "snapDistanceMeters": 28.95}}, {"type": "Feature", "geometry": {"type": "Point", "coordinates": [100.38873383894747, 13.731524511073102]}, "properties": {"id": 63999, "name": "ศูนย์บริการสาธารณสุข 47 บางไผ่", "district": "บางแค", "snapDistanceMeters": 22.01}}, {"type": "Feature", "geometry": {"type": "Point", "coordinates": [100.45999731389033, 13.744141319552496]}, "properties": {"id": 63981, "name": "ศูนย์บริการสาธารณสุข 49 สาขาบางเชือกหนัง", "district": "ตลิ่งชัน", "snapDistanceMeters": 12.07}}, {"type": "Feature", "geometry": {"type": "Point", "coordinates": [100.82554371679042, 13.826674356626022]}, "properties": {"id": 64101, "name": "ศูนย์บริการสาธารณสุข สาขาลำแบนใหญ่", "district": "หนองจอก", "snapDistanceMeters": 11.72}}, {"type": "Feature", "geometry": {"type": "Point", "coordinates": [100.53372214980345, 13.765936385080154]}, "properties": {"id": 63733, "name": "โรงพยาบาลเวชศาสตร์เขตร้อน", "district": "ราขเทวี", "snapDistanceMeters": 26.45}}, {"type": "Feature", "geometry": {"type": "Point", "coordinates": [100.55184173390464, 13.752144025833957]}, "properties": {"id": 63705, "name": "โรงพยาบาลบุรฉัตรไชยากร (โรงพยาบาลรถไฟ)", "district": "ราขเทวี", "snapDistanceMeters": 22.37}}, {"type": "Feature", "geometry": {"type": "Point", "coordinates": [100.57064886372976, 13.753214861150289]}, "properties": {"id": 64302, "name": "โรงพยาบาลพระรามเก้า", "district": "ห้วยขวาง", "snapDistanceMeters": 29.51}}, {"type": "Feature", "geometry": {"type": "Point", "coordinates": [100.77631230450719, 13.765419154446565]}, "properties": {"id": 63604, "name": "ศูนย์บริการสาธารณสุข 45 วัดบึงบัว", "district": "ลาดกระบัง", "snapDistanceMeters": 13.63}}, {"type": "Feature", "geometry": {"type": "Point", "coordinates": [100.674021981147, 13.684511096164412]}, "properties": {"id": 63419, "name": "ศูนย์บริการสาธารณสุข 57 สาขาดอกไม้", "district": "ประเวศ", "snapDistanceMeters": 28.27}}, {"type": "Feature", "geometry": {"type": "Point", "coordinates": [100.68684553797982, 13.769077075775447]}, "properties": {"id": 64412, "name": "ศูนย์บริการสาธารณสุข 68 สะพานสูง", "district": "สะพานสูง", "snapDistanceMeters": 19.97}}, {"type": "Feature", "geometry": {"type": "Point", "coordinates": [100.5537672084244, 13.746630593521862]}, "properties": {"id": 64374, "name": "โรงพยาบาลบำรุงราษฎร์ฮอสพิทอลิตี้สวีท", "district": "วัฒนา", "snapDistanceMeters": 38.22}}, {"type": "Feature", "geometry": {"type": "Point", "coordinates": [100.59602157770206, 13.84015141132112]}, "properties": {"id": 63009, "name": "ศูนย์บริการสาธารณสุข 66 สาขาจรเข้บัว", "district": "ลาดพร้าว", "snapDistanceMeters": 10.97}}, {"type": "Feature", "geometry": {"type": "Point", "coordinates": [100.59936314953562, 13.709571057422865]}, "properties": {"id": 62912, "name": "ศูนย์บริการสาธารณสุข 21 สาขาพระโขนง", "district": "วัฒนา", "snapDistanceMeters": 17.04}}, {"type": "Feature", "geometry": {"type": "Point", "coordinates": [100.81110088902751, 13.900868320823022]}, "properties": {"id": 63001, "name": "ศูนย์บริการสาธารณสุข 44 สาขาคลองสิบ", "district": "หนองจอก", "snapDistanceMeters": 35.61}}, {"type": "Feature", "geometry": {"type": "Point", "coordinates": [100.43356498900117, 13.660676468945843]}, "properties": {"id": 81807, "name": "อาคารฉุกเฉิน โรงพยาบาลนครธน", "district": "บางขุนเทียน", "snapDistanceMeters": 43.95}}, {"type": "Feature", "geometry": {"type": "Point", "coordinates": [100.6056038325899, 13.889423825561455]}, "properties": {"id": 82378, "name": "ลานจอดรถโรงพยาบาลซีจีเอช สะพานใหม่", "district": "บางเขน", "snapDistanceMeters": 24.98}}, {"type": "Feature", "geometry": {"type": "Point", "coordinates": [100.43356498900117, 13.660676468945843]}, "properties": {"id": 81711, "name": "อาคารจอดรถโรงพยาบาลนครธน", "district": "บางขุนเทียน", "snapDistanceMeters": 85.43}}, {"type": "Feature", "geometry": {"type": "Point", "coordinates": [100.58294587828297, 13.748804306382267]}, "properties": {"id": 63123, "name": "โรงพยาบาลกรุงเทพ", "district": "ห้วยขวาง", "snapDistanceMeters": 23.91}}, {"type": "Feature", "geometry": {"type": "Point", "coordinates": [100.53859749464623, 13.74305493469768]}, "properties": {"id": 80336, "name": "โรงพยาบาลตำรวจศูนย์เลสิก", "district": "ปทุมวัน", "snapDistanceMeters": 36.35}}, {"type": "Feature", "geometry": {"type": "Point", "coordinates": [100.59441484504553, 13.741675125537132]}, "properties": {"id": 74266, "name": "โรงพยาบาลคลองตัน", "district": "ห้วยขวาง", "snapDistanceMeters": 22.16}}, {"type": "Feature", "geometry": {"type": "Point", "coordinates": [100.58268360713171, 13.748466064697613]}, "properties": {"id": 72792, "name": "โรงพยาบาลกรุงเทพอินเตอร์เนชั่นแนล", "district": "ห้วยขวาง", "snapDistanceMeters": 34.98}}, {"type": "Feature", "geometry": {"type": "Point", "coordinates": [100.4862614395608, 13.71019180343237]}, "properties": {"id": 68656, "name": "อาคารพิเคราะห์และบำบัดโรค โรงพยาบาลสมเด็จพระปิ่นเกล้า", "district": "ธนบุรี", "snapDistanceMeters": 33.52}}, {"type": "Feature", "geometry": {"type": "Point", "coordinates": [100.57743418831414, 13.789582791623198]}, "properties": {"id": 74074, "name": "โรงพยาบาลโกลเด้นเยียส์", "district": "ห้วยขวาง", "snapDistanceMeters": 20.52}}, {"type": "Feature", "geometry": {"type": "Point", "coordinates": [100.55175639759958, 13.751180054835705]}, "properties": {"id": 68032, "name": "ลานกีฬาอเนกประสงค์ชุมชนโรงพยาบาลบุรฉัตรไชยากร", "district": "ราขเทวี", "snapDistanceMeters": 29.67}}, {"type": "Feature", "geometry": {"type": "Point", "coordinates": [100.46829527512207, 13.705225845957226]}, "properties": {"id": 74201, "name": "ศูนย์บริการสาธารณสุข 29 (ช่วงนุชเนตร)", "district": "จอมทอง", "snapDistanceMeters": 6.97}}, {"type": "Feature", "geometry": {"type": "Point", "coordinates": [100.43366786202651, 13.75870948672083]}, "properties": {"id": 74802, "name": "ศูนย์บริการสาธารณสุข 49 สาขาจันทคุณาภรณ์", "district": "ตลิ่งชัน", "snapDistanceMeters": 19.17}}, {"type": "Feature", "geometry": {"type": "Point", "coordinates": [100.57978849895746, 13.776863720063794]}, "properties": {"id": 74648, "name": "ศูนย์บริการสาธารณสุข 25 ห้วยขวาง", "district": "ห้วยขวาง", "snapDistanceMeters": 26.69}}, {"type": "Feature", "geometry": {"type": "Point", "coordinates": [100.5768941087567, 13.734468150097783]}, "properties": {"id": 73697, "name": "โรงพยาบาลสมิติเวชสุขุมวิท", "district": "วัฒนา", "snapDistanceMeters": 47.87}}, {"type": "Feature", "geometry": {"type": "Point", "coordinates": [100.57412275477522, 13.835190164816016]}, "properties": {"id": 73657, "name": "โรงพยาบาลเปาโล", "district": "จตุจักร", "snapDistanceMeters": 19.1}}, {"type": "Feature", "geometry": {"type": "Point", "coordinates": [100.51073300411191, 13.787997371882321]}, "properties": {"id": 72778, "name": "โรงพยาบาลชลประทาน", "district": "ดุสิต", "snapDistanceMeters": 35.95}}, {"type": "Feature", "geometry": {"type": "Point", "coordinates": [100.49867034126554, 13.67756856723246]}, "properties": {"id": 74150, "name": "โรงพยาบาลประชาพัฒน์", "district": "ราษฎร์บูรณะ", "snapDistanceMeters": 15.0}}, {"type": "Feature", "geometry": {"type": "Point", "coordinates": [100.5401302279183, 13.694194429842995]}, "properties": {"id": 74155, "name": "ศูนย์บริการสาธารณสุข 55 สาขาช่องนนทรี", "district": "ยานนาวา", "snapDistanceMeters": 12.39}}, {"type": "Feature", "geometry": {"type": "Point", "coordinates": [100.50109327050465, 13.675838142983936]}, "properties": {"id": 74547, "name": "โรงพยาบาลสุขสวัสดิ์", "district": "ราษฎร์บูรณะ", "snapDistanceMeters": 20.6}}, {"type": "Feature", "geometry": {"type": "Point", "coordinates": [100.4985587332663, 13.678748012594271]}, "properties": {"id": 72677, "name": "โรงพยาบาลบางปะกอก 1", "district": "ราษฎร์บูรณะ", "snapDistanceMeters": 34.64}}, {"type": "Feature", "geometry": {"type": "Point", "coordinates": [100.5901109539564, 13.804955845632266]}, "properties": {"id": 72678, "name": "โรงพยาบาลสัตวแพทย์ 50", "district": "ลาดพร้าว", "snapDistanceMeters": 21.62}}, {"type": "Feature", "geometry": {"type": "Point", "coordinates": [100.59642839128121, 13.801819462321983]}, "properties": {"id": 72619, "name": "โรงพยาบาลเปาโลเมโมเรียลโชคชัย 4", "district": "ลาดพร้าว", "snapDistanceMeters": 40.85}}, {"type": "Feature", "geometry": {"type": "Point", "coordinates": [100.36758324783317, 13.79864849570674]}, "properties": {"id": 73454, "name": "ศูนย์บริการสาธารณสุข 67 ทวีวัฒนา สาขาพัน-วงศ์ สาทิม", "district": "ทวีวัฒนา", "snapDistanceMeters": 14.17}}, {"type": "Feature", "geometry": {"type": "Point", "coordinates": [100.35524072115133, 13.64299005737437]}, "properties": {"id": 73270, "name": "ศูนย์บริการสาธารณสุข 65 สาขาล้อมสุขา", "district": "บางบอน", "snapDistanceMeters": 20.17}}, {"type": "Feature", "geometry": {"type": "Point", "coordinates": [100.43428165970232, 13.799428019068726]}, "properties": {"id": 73385, "name": "ศูนย์บริการสาธารณสุข 49 สาขาบ้านคลองสะพานผัก", "district": "ตลิ่งชัน", "snapDistanceMeters": 12.3}}, {"type": "Feature", "geometry": {"type": "Point", "coordinates": [100.54651563872198, 13.839354247535114]}, "properties": {"id": 72800, "name": "ศูนย์บริการสาธารณสุข 17 ประชานิเวศน์", "district": "จตุจักร", "snapDistanceMeters": 16.83}}, {"type": "Feature", "geometry": {"type": "Point", "coordinates": [100.50991904185514, 13.786708097446915]}, "properties": {"id": 73548, "name": "โรงพยาบาลการไฟฟ้านครหลวง", "district": "ดุสิต", "snapDistanceMeters": 40.86}}, {"type": "Feature", "geometry": {"type": "Point", "coordinates": [100.42308061021134, 13.572708546975605]}, "properties": {"id": 135782, "name": "โรงพยาบาลผู้สูงอายุบางขุนเทียน (อาคารผู้ป่วยนอก)", "district": "บางขุนเทียน", "snapDistanceMeters": 12.96}}, {"type": "Feature", "geometry": {"type": "Point", "coordinates": [100.53858709242337, 13.742960529214873]}, "properties": {"id": 89935, "name": "โรงพยาบาลตำรวจ", "district": "ปทุมวัน", "snapDistanceMeters": 35.74}}, {"type": "Feature", "geometry": {"type": "Point", "coordinates": [100.48861063631007, 13.73923009689109]}, "properties": {"id": 88856, "name": "ศูนย์บริการสาธารณสุข 33 บางกอกใหญ่", "district": "บางกอกใหญ่", "snapDistanceMeters": 21.25}}, {"type": "Feature", "geometry": {"type": "Point", "coordinates": [100.66633782169201, 13.833744768347756]}, "properties": {"id": 4842, "name": "โรงพยาบาลเด็กสินแพทย์", "district": "คันนายาว", "snapDistanceMeters": 23.99}}, {"type": "Feature", "geometry": {"type": "Point", "coordinates": [100.46819241840417, 13.794888163966656]}, "properties": {"id": 89184, "name": "ศูนย์บริการสาธารณสุข 49 วัดชัยพฤกษมาลา", "district": "ตลิ่งชัน", "snapDistanceMeters": 22.88}}, {"type": "Feature", "geometry": {"type": "Point", "coordinates": [100.42162433281963, 13.651499516969071]}, "properties": {"id": 89560, "name": "โรงพยาบาลพระราม 2", "district": "บางขุนเทียน", "snapDistanceMeters": 53.19}}, {"type": "Feature", "geometry": {"type": "Point", "coordinates": [100.6553396823965, 13.773208282409069]}, "properties": {"id": 89852, "name": "ศูนย์บริการสาธารณสุข 50 บึงกุ่ม", "district": "บึงกุ่ม", "snapDistanceMeters": 38.85}}, {"type": "Feature", "geometry": {"type": "Point", "coordinates": [100.53524596496796, 13.764440616332019]}, "properties": {"id": 4485, "name": "ร้านค้าสวัสดิการโรงพยาบาลราชวิถี", "district": "ราขเทวี", "snapDistanceMeters": 52.85}}, {"type": "Feature", "geometry": {"type": "Point", "coordinates": [100.43356498900117, 13.660676468945843]}, "properties": {"id": 90082, "name": "โรงพยาบาลนครธน", "district": "บางขุนเทียน", "snapDistanceMeters": 36.73}}, {"type": "Feature", "geometry": {"type": "Point", "coordinates": [100.39131760853464, 13.698279303158868]}, "properties": {"id": 59259, "name": "ศูนย์บริการสาธารณสุข 40 สาขาวิจิตรา", "district": "บางแค", "snapDistanceMeters": 24.33}}, {"type": "Feature", "geometry": {"type": "Point", "coordinates": [100.68374663481939, 13.923932299569445]}, "properties": {"id": 58402, "name": "โรงพยาบาลซีจีเอช สายไหม", "district": "สายไหม", "snapDistanceMeters": 45.91}}, {"type": "Feature", "geometry": {"type": "Point", "coordinates": [100.63679457796619, 13.837129071389166]}, "properties": {"id": 2895, "name": "ศูนย์บริการสาธารณสุข 56 ทับเจริญ", "district": "บึงกุ่ม", "snapDistanceMeters": 14.47}}, {"type": "Feature", "geometry": {"type": "Point", "coordinates": [100.50805727622533, 13.730579696902339]}, "properties": {"id": 2876, "name": "โรงพยาบาลตากสิน", "district": "คลองสาน", "snapDistanceMeters": 39.26}}, {"type": "Feature", "geometry": {"type": "Point", "coordinates": [100.78377781927999, 13.721848232262058]}, "properties": {"id": 56903, "name": "โรงพยาบาลจุฬารัตน์ 8 สาขาลาดกระบัง", "district": "ลาดกระบัง", "snapDistanceMeters": 52.46}}, {"type": "Feature", "geometry": {"type": "Point", "coordinates": [100.44564020414754, 13.738749477388426]}, "properties": {"id": 57771, "name": "ศูนย์บริการสาธารณสุข 47 คลองขวาง", "district": "ภาษีเจริญ", "snapDistanceMeters": 20.59}}, {"type": "Feature", "geometry": {"type": "Point", "coordinates": [100.52311041421517, 13.807179307861816]}, "properties": {"id": 57602, "name": "โรงพยาบาลบางโพ", "district": "บางซื่อ", "snapDistanceMeters": 27.88}}, {"type": "Feature", "geometry": {"type": "Point", "coordinates": [100.43453033756568, 13.694083546738725]}, "properties": {"id": 57361, "name": "ศูนย์บริการสาธารณสุข 62 (ตวงรัชฏ์ ศศะนาวิน-ภักดี ฐานปัญญา)", "district": "ภาษีเจริญ", "snapDistanceMeters": 29.75}}, {"type": "Feature", "geometry": {"type": "Point", "coordinates": [100.52653173560496, 13.700355229421195]}, "properties": {"id": 57865, "name": "ศูนย์บริการสาธารณสุข 18 มงคลวอนวังตาล", "district": "บางคอแหลม", "snapDistanceMeters": 17.39}}, {"type": "Feature", "geometry": {"type": "Point", "coordinates": [100.4887753435832, 13.650207344616625]}, "properties": {"id": 57301, "name": "ศูนย์บริการสาธารณสุข 54 (ทัศน์เอี่ยม)", "district": "ทุ่งครุ", "snapDistanceMeters": 23.97}}, {"type": "Feature", "geometry": {"type": "Point", "coordinates": [100.51253879856864, 13.738269562184534]}, "properties": {"id": 75440, "name": "โรงพยาบาลเทียนฟ้า", "district": "สัมพันธวงค์", "snapDistanceMeters": 37.1}}, {"type": "Feature", "geometry": {"type": "Point", "coordinates": [100.57995134314382, 13.90243148161678]}, "properties": {"id": 58952, "name": "ศูนย์บริการสาธารณสุข 53 ทุ่งสองห้อง", "district": "หลักสี่", "snapDistanceMeters": 27.28}}, {"type": "Feature", "geometry": {"type": "Point", "coordinates": [100.4434175821017, 13.724382618310193]}, "properties": {"id": 57074, "name": "ศูนย์บริการสาธารณสุข 47 สาขายายทวดมากตันศิริอนุสรณ์", "district": "ภาษีเจริญ", "snapDistanceMeters": 23.2}}, {"type": "Feature", "geometry": {"type": "Point", "coordinates": [100.50268600690393, 13.678197460239854]}, "properties": {"id": 58491, "name": "โรงพยาบาลราษฎร์บูรณะ", "district": "ราษฎร์บูรณะ", "snapDistanceMeters": 23.2}}, {"type": "Feature", "geometry": {"type": "Point", "coordinates": [100.5614338704523, 13.893621546053728]}, "properties": {"id": 58140, "name": "โรงพยาบาลมงกุฎวัฒนะ", "district": "หลักสี่", "snapDistanceMeters": 38.59}}, {"type": "Feature", "geometry": {"type": "Point", "coordinates": [100.63861708027584, 13.749266999840616]}, "properties": {"id": 59204, "name": "โรงพยาบาลสมิติเวชศรีนครินทร์", "district": "สวนหลวง", "snapDistanceMeters": 44.57}}, {"type": "Feature", "geometry": {"type": "Point", "coordinates": [100.69532809113332, 13.741118112461049]}, "properties": {"id": 58946, "name": "ศูนย์บริการสาธารณสุข 68 สาขาหมู่บ้านนักกีฬาแหลมทอง", "district": "สะพานสูง", "snapDistanceMeters": 19.88}}, {"type": "Feature", "geometry": {"type": "Point", "coordinates": [100.5391829042901, 13.744277399070178]}, "properties": {"id": 136655, "name": "ร้านยามูลนิธิโรงพยาบาลตำรวจ", "district": "ปทุมวัน", "snapDistanceMeters": 33.05}}, {"type": "Feature", "geometry": {"type": "Point", "coordinates": [100.62051280976655, 13.90915500459293]}, "properties": {"id": 137154, "name": "สวนริมน้ำ 60 ปีโรงพยาบาลภูมิพลอดุลยเดช", "district": "สายไหม", "snapDistanceMeters": 53.27}}, {"type": "Feature", "geometry": {"type": "Point", "coordinates": [100.80502097744609, 13.853505069704028]}, "properties": {"id": 76285, "name": "ศูนย์บริการสาธารณสุข 44 สาขาคู้ฝั่งเหนือ", "district": "หนองจอก", "snapDistanceMeters": 16.24}}, {"type": "Feature", "geometry": {"type": "Point", "coordinates": [100.51183126640221, 13.800783941672222]}, "properties": {"id": 5679, "name": "ที่จอดรถโรงพยาบาลยันฮี", "district": "บางพลัด", "snapDistanceMeters": 33.77}}, {"type": "Feature", "geometry": {"type": "Point", "coordinates": [100.50638659049133, 13.732273239410334]}, "properties": {"id": 1282, "name": "บ้านพักข้าราชการโรงพยาบาลบ้านสมเด็จ", "district": "คลองสาน", "snapDistanceMeters": 22.4}}, {"type": "Feature", "geometry": {"type": "Point", "coordinates": [100.45259632463448, 13.667379209757582]}, "properties": {"id": 45290, "name": "ศูนย์บริการสาธารณสุข 42 สาขางามเจริญ", "district": "บางขุนเทียน", "snapDistanceMeters": 23.17}}, {"type": "Feature", "geometry": {"type": "Point", "coordinates": [100.66543501919065, 13.90292162440553]}, "properties": {"id": 1363, "name": "ศูนย์บริการสาธารณสุข 61 ออเงิน", "district": "สายไหม", "snapDistanceMeters": 17.84}}, {"type": "Feature", "geometry": {"type": "Point", "coordinates": [100.51550827905116, 13.751057819200419]}, "properties": {"id": 45162, "name": "อาคารจอดรถโรงพยาบาลหัวเฉียว", "district": "ป้อมปราบศัตรูพ่าย", "snapDistanceMeters": 35.72}}, {"type": "Feature", "geometry": {"type": "Point", "coordinates": [100.51346706893955, 13.749209732396023]}, "properties": {"id": 44263, "name": "ศูนย์บริการสาธารณสุข 20 ป้อมปราบศัตรูพ่าย", "district": "ป้อมปราบศัตรูพ่าย", "snapDistanceMeters": 22.21}}, {"type": "Feature", "geometry": {"type": "Point", "coordinates": [100.55258643430668, 13.81581941795012]}, "properties": {"id": 43667, "name": "โรงพยาบาลมิราเคิลออฟไลฟ์", "district": "จตุจักร", "snapDistanceMeters": 20.26}}, {"type": "Feature", "geometry": {"type": "Point", "coordinates": [100.68060173414206, 13.714372438259279]}, "properties": {"id": 50535, "name": "เตาเผาขยะติดเชื้อโรงพยาบาล", "district": "ประเวศ", "snapDistanceMeters": 29.98}}, {"type": "Feature", "geometry": {"type": "Point", "coordinates": [100.53306604092462, 13.781139857218713]}, "properties": {"id": 44389, "name": "โรงพยาบาลการแพทย์วิชัยยุทธ", "district": "พญาไท", "snapDistanceMeters": 49.9}}, {"type": "Feature", "geometry": {"type": "Point", "coordinates": [100.53550501896127, 13.734617994422285]}, "properties": {"id": 43996, "name": "ศูนย์อาหารโรงพยาบาลจุฬาลงกรณ์", "district": "ปทุมวัน", "snapDistanceMeters": 20.57}}, {"type": "Feature", "geometry": {"type": "Point", "coordinates": [100.519193510083, 13.757989983541707]}, "properties": {"id": 45504, "name": "โรงพยาบาลมิชชั่น", "district": "ดุสิต", "snapDistanceMeters": 13.44}}, {"type": "Feature", "geometry": {"type": "Point", "coordinates": [100.63775549656592, 13.735997538337076]}, "properties": {"id": 46012, "name": "ศูนย์บริการสาธารณสุข 37 (ประสงค์-สุดสาคร ตู้จินดา)", "district": "สวนหลวง", "snapDistanceMeters": 27.01}}, {"type": "Feature", "geometry": {"type": "Point", "coordinates": [100.61937906471366, 13.907562515332952]}, "properties": {"id": 45740, "name": "โรงพยาบาลภูมิพลอดุลยเดช", "district": "สายไหม", "snapDistanceMeters": 59.96}}, {"type": "Feature", "geometry": {"type": "Point", "coordinates": [100.57542025225666, 13.8358591616892]}, "properties": {"id": 50444, "name": "ที่จอดรถโรงพยาบาลเปาโล", "district": "จตุจักร", "snapDistanceMeters": 26.76}}, {"type": "Feature", "geometry": {"type": "Point", "coordinates": [100.57853094660854, 13.836805146766842]}, "properties": {"id": 50445, "name": "ลานจอดรถโรงพยาบาลเปาโล 2", "district": "จตุจักร", "snapDistanceMeters": 22.48}}, {"type": "Feature", "geometry": {"type": "Point", "coordinates": [100.53949166330972, 13.75648819224983]}, "properties": {"id": 46046, "name": "โรงพยาบาลพญาไท 1", "district": "ราขเทวี", "snapDistanceMeters": 42.13}}, {"type": "Feature", "geometry": {"type": "Point", "coordinates": [100.72842849951662, 13.760931393589743]}, "properties": {"id": 35376, "name": "ศูนย์บริการสาธารณสุขร่มเกล้า", "district": "ลาดกระบัง", "snapDistanceMeters": 30.94}}, {"type": "Feature", "geometry": {"type": "Point", "coordinates": [100.49471463803, 13.694754250879392]}, "properties": {"id": 35309, "name": "โรงพยาบาลเจริญกรุงประชารักษ์", "district": "บางคอแหลม", "snapDistanceMeters": 27.72}}, {"type": "Feature", "geometry": {"type": "Point", "coordinates": [100.68807368567205, 13.818250463513666]}, "properties": {"id": 35411, "name": "ศูนย์อาหารโรงพยาบาลนพรัตน์ราชธานี", "district": "คันนายาว", "snapDistanceMeters": 43.08}}, {"type": "Feature", "geometry": {"type": "Point", "coordinates": [100.61799054818631, 13.849044099367308]}, "properties": {"id": 34849, "name": "ศูนย์บริการสาธารณสุข 24 สาขาวัดไตรรัตนาราม", "district": "บางเขน", "snapDistanceMeters": 9.51}}, {"type": "Feature", "geometry": {"type": "Point", "coordinates": [100.52898478952768, 13.705840377341582]}, "properties": {"id": 33817, "name": "คลินิกอบอุ่นโรงพยาบาลเลิดสิน", "district": "ยานนาวา", "snapDistanceMeters": 17.77}}, {"type": "Feature", "geometry": {"type": "Point", "coordinates": [100.53124952439, 13.680582277959646]}, "properties": {"id": 35161, "name": "ศูนย์บริการสาธารณสุข 7 บุญมี ปุรุราชรังสรรค์", "district": "ยานนาวา", "snapDistanceMeters": 12.58}}, {"type": "Feature", "geometry": {"type": "Point", "coordinates": [100.8383880048912, 13.73185233288894]}, "properties": {"id": 35020, "name": "ศูนย์บริการสาธารณสุข 46 สาขาทับยาว", "district": "ลาดกระบัง", "snapDistanceMeters": 19.46}}, {"type": "Feature", "geometry": {"type": "Point", "coordinates": [100.38470719951545, 13.705023544148697]}, "properties": {"id": 44366, "name": "ศูนย์บริการสาธารณสุข 40 สาขาบางแคเหนือ", "district": "บางแค", "snapDistanceMeters": 17.86}}, {"type": "Feature", "geometry": {"type": "Point", "coordinates": [100.65707154246988, 13.825538983946085]}, "properties": {"id": 35035, "name": "โรงพยาบาลพญาไทนวมินทร์", "district": "บึงกุ่ม", "snapDistanceMeters": 55.1}}, {"type": "Feature", "geometry": {"type": "Point", "coordinates": [100.53459001308349, 13.768892703232629]}, "properties": {"id": 50814, "name": "บ่อสูบน้ำโรงพยาบาลพระมงกุฎเกล้า", "district": "ราขเทวี", "snapDistanceMeters": 23.49}}, {"type": "Feature", "geometry": {"type": "Point", "coordinates": [100.5949368163585, 13.742930991432715]}, "properties": {"id": 34729, "name": "โรงพยาบาลเพชรเวช", "district": "ห้วยขวาง", "snapDistanceMeters": 15.65}}, {"type": "Feature", "geometry": {"type": "Point", "coordinates": [100.42385398090968, 13.743169943685421]}, "properties": {"id": 34232, "name": "ศูนย์บริการสาธารณสุข 47 คลองขวาง", "district": "ภาษีเจริญ", "snapDistanceMeters": 22.46}}, {"type": "Feature", "geometry": {"type": "Point", "coordinates": [100.56485184004967, 13.857383295366311]}, "properties": {"id": 33753, "name": "ศูนย์บริการสาธารณสุข 53 สาขาตลาดบางเขน", "district": "หลักสี่", "snapDistanceMeters": 65.11}}, {"type": "Feature", "geometry": {"type": "Point", "coordinates": [100.60191336978099, 13.66518030766096]}, "properties": {"id": 33432, "name": "โรงพยาบาลมนารมย์", "district": "บางนา", "snapDistanceMeters": 31.35}}, {"type": "Feature", "geometry": {"type": "Point", "coordinates": [100.85313049494259, 13.700455157983077]}, "properties": {"id": 32914, "name": "ศูนย์บริการสาธารณสุข 46 สาขาขุมทอง", "district": "ลาดกระบัง", "snapDistanceMeters": 22.55}}, {"type": "Feature", "geometry": {"type": "Point", "coordinates": [100.59490547632537, 13.810197093789213]}, "properties": {"id": 33925, "name": "ศูนย์บริการสาธารณสุข 66", "district": "ลาดพร้าว", "snapDistanceMeters": 45.04}}, {"type": "Feature", "geometry": {"type": "Point", "coordinates": [100.53694432076304, 13.764439425161001]}, "properties": {"id": 33573, "name": "โรงพยาบาลราชวิถี", "district": "ราขเทวี", "snapDistanceMeters": 56.03}}, {"type": "Feature", "geometry": {"type": "Point", "coordinates": [100.5799520820667, 13.753706064417615]}, "properties": {"id": 35316, "name": "โรงพยาบาลปิยะเวท", "district": "ห้วยขวาง", "snapDistanceMeters": 26.48}}, {"type": "Feature", "geometry": {"type": "Point", "coordinates": [100.53318867092408, 13.78024196628175]}, "properties": {"id": 93777, "name": "อาคารฉุกเฉิน โรงพยาบาลการแพทย์วิชัยยุทธ", "district": "พญาไท", "snapDistanceMeters": 33.24}}, {"type": "Feature", "geometry": {"type": "Point", "coordinates": [100.53625275036845, 13.729976524456509]}, "properties": {"id": 93117, "name": "สถานีปันปั่นโรงพยาบาลจุฬาลงกรณ์", "district": "ปทุมวัน", "snapDistanceMeters": 25.14}}, {"type": "Feature", "geometry": {"type": "Point", "coordinates": [100.54023434245836, 13.744240643020909]}, "properties": {"id": 93119, "name": "สถานีปันปั่นโรงพยาบาลตำรวจ", "district": "ปทุมวัน", "snapDistanceMeters": 40.23}}, {"type": "Feature", "geometry": {"type": "Point", "coordinates": [100.5284672101915, 13.76911701787743]}, "properties": {"id": 27013, "name": "คณะแพทยศาสตร์โรงพยาบาลรามาธิบดี มหาวิทยาลัยมหิดล", "district": "ราขเทวี", "snapDistanceMeters": 49.85}}, {"type": "Feature", "geometry": {"type": "Point", "coordinates": [100.58094319962731, 13.925419871815873]}, "properties": {"id": 33299, "name": "ศูนย์บริการสาธารณสุข 60 รสสุคนธ์ มโนชญากรณ์", "district": "ดอนเมือง", "snapDistanceMeters": 31.73}}, {"type": "Feature", "geometry": {"type": "Point", "coordinates": [100.37813568194673, 13.642735446857449]}, "properties": {"id": 33701, "name": "ศูนย์บริการสาธารณสุข 65 รักษาศุขบางบอน", "district": "บางบอน", "snapDistanceMeters": 40.74}}, {"type": "Feature", "geometry": {"type": "Point", "coordinates": [100.78882158792828, 13.879830068640329]}, "properties": {"id": 25284, "name": "ศูนย์บริการสาธารณสุข 44 สาขาลำแบนชะโด", "district": "หนองจอก", "snapDistanceMeters": 17.06}}, {"type": "Feature", "geometry": {"type": "Point", "coordinates": [100.55252181970175, 13.746142556674418]}, "properties": {"id": 25571, "name": "โรงพยาบาลบำรุงราษฎร์", "district": "วัฒนา", "snapDistanceMeters": 47.02}}, {"type": "Feature", "geometry": {"type": "Point", "coordinates": [100.48519180826656, 13.708604112277927]}, "properties": {"id": 25890, "name": "ที่จอดรถโรงพยาบาลพระปิ่นเกล้า", "district": "ธนบุรี", "snapDistanceMeters": 6.49}}, {"type": "Feature", "geometry": {"type": "Point", "coordinates": [100.48405877063867, 13.709648557818632]}, "properties": {"id": 25892, "name": "อาคารจอดรถโรงพยาบาลพระปิ่นเกล้า", "district": "ธนบุรี", "snapDistanceMeters": 29.7}}, {"type": "Feature", "geometry": {"type": "Point", "coordinates": [100.61992871845074, 13.908502365532556]}, "properties": {"id": 196918, "name": "อาคารจอดรถโรงพยาบาลภูมิพลอดุลยเดช", "district": "สายไหม", "snapDistanceMeters": 43.42}}, {"type": "Feature", "geometry": {"type": "Point", "coordinates": [100.61841309892516, 13.90819982920056]}, "properties": {"id": 196919, "name": "อาคารจอดรถโรงพยาบาลภูมิพลอดุลยเดช", "district": "สายไหม", "snapDistanceMeters": 52.09}}, {"type": "Feature", "geometry": {"type": "Point", "coordinates": [100.48458375291804, 13.711393010998286]}, "properties": {"id": 25895, "name": "ที่จอดรถโรงพยาบาลพระปิ่นเกล้า", "district": "ธนบุรี", "snapDistanceMeters": 24.89}}, {"type": "Feature", "geometry": {"type": "Point", "coordinates": [100.78322828170381, 13.722538100052056]}, "properties": {"id": 197531, "name": "ตึกอำนวยการโรงพยาบาลลาดกระบังกรุงเทพมหานคร", "district": "ลาดกระบัง", "snapDistanceMeters": 21.4}}, {"type": "Feature", "geometry": {"type": "Point", "coordinates": [100.78438182529432, 13.722867447760963]}, "properties": {"id": 197532, "name": "อาคารกายภาพบำบัดโรงพยาบาลลาดกระบังกรุงเทพมหานคร", "district": "ลาดกระบัง", "snapDistanceMeters": 18.87}}, {"type": "Feature", "geometry": {"type": "Point", "coordinates": [100.78377187327185, 13.723112691799347]}, "properties": {"id": 197533, "name": "อาคารศูนย์เด็กเล็กโรงพยาบาลลาดกระบังกรุงเทพมหานคร", "district": "ลาดกระบัง", "snapDistanceMeters": 27.25}}, {"type": "Feature", "geometry": {"type": "Point", "coordinates": [100.8637246778877, 13.913227844302964]}, "properties": {"id": 170727, "name": "ศูนย์บริการสาธารณสุข 44", "district": "หนองจอก", "snapDistanceMeters": 37.99}}, {"type": "Feature", "geometry": {"type": "Point", "coordinates": [100.6120622240521, 13.773463468884316]}, "properties": {"id": 172105, "name": "โรงพยาบาลศัลยกรรมตกแต่งกมล", "district": "วังทองหลาง", "snapDistanceMeters": 34.78}}, {"type": "Feature", "geometry": {"type": "Point", "coordinates": [100.56242135577841, 13.84599778290995]}, "properties": {"id": 169396, "name": "โรงพยาบาลวิภาวดี", "district": "จตุจักร", "snapDistanceMeters": 19.6}}, {"type": "Feature", "geometry": {"type": "Point", "coordinates": [100.45716841370557, 13.69114805017633]}, "properties": {"id": 170452, "name": "ศูนย์บริการสาธารณสุข 29 สาขาวัดไทร", "district": "จอมทอง", "snapDistanceMeters": 51.49}}, {"type": "Feature", "geometry": {"type": "Point", "coordinates": [100.8280490506691, 13.853692150986225]}, "properties": {"id": 165173, "name": "ศูนย์บริการสาธารณสุข 4", "district": "หนองจอก", "snapDistanceMeters": 26.3}}, {"type": "Feature", "geometry": {"type": "Point", "coordinates": [100.65908863010692, 13.928646494624456]}, "properties": {"id": 162911, "name": "มูลนิธิผู้สูงอายุเพื่อสนับสนุนศูนย์บริการสาธารณสุข 61", "district": "สายไหม", "snapDistanceMeters": 29.07}}, {"type": "Feature", "geometry": {"type": "Point", "coordinates": [100.59784418891883, 13.696069097223335]}, "properties": {"id": 101257, "name": "ศูนย์บริการสาธารณสุข 34 โพธิ์ศรี", "district": "พระโขนง", "snapDistanceMeters": 17.1}}, {"type": "Feature", "geometry": {"type": "Point", "coordinates": [100.55173935277324, 13.772514483539908]}, "properties": {"id": 101248, "name": "โรงพยาบาลทหารผ่านศึก", "district": "พญาไท", "snapDistanceMeters": 29.48}}, {"type": "Feature", "geometry": {"type": "Point", "coordinates": [100.54831304989251, 13.795479289673947]}, "properties": {"id": 101921, "name": "ศูนย์บริการสาธารณสุข 51 วัดไผ่ตัน", "district": "พญาไท", "snapDistanceMeters": 13.06}}, {"type": "Feature", "geometry": {"type": "Point", "coordinates": [100.66716781902595, 13.833763691696916]}, "properties": {"id": 186625, "name": "ที่จอดรถโรงพยาบาลสินแพทย์", "district": "คันนายาว", "snapDistanceMeters": 28.9}}, {"type": "Feature", "geometry": {"type": "Point", "coordinates": [100.53694432076304, 13.764439425161001]}, "properties": {"id": 189919, "name": "มูลนิธิโรงพยาบาลราชวิถี", "district": "ราขเทวี", "snapDistanceMeters": 63.81}}, {"type": "Feature", "geometry": {"type": "Point", "coordinates": [100.51469523847695, 13.70963786612448]}, "properties": {"id": 100711, "name": "ศูนย์บริการสาธารณสุข 14 แก้ว สีบุญเรือง", "district": "บางคอแหลม", "snapDistanceMeters": 35.47}}, {"type": "Feature", "geometry": {"type": "Point", "coordinates": [100.45577559238997, 13.777268704038756]}, "properties": {"id": 100773, "name": "ศูนย์บริการสาธารณสุข 49 สาขาตลิ่งชัน", "district": "ตลิ่งชัน", "snapDistanceMeters": 12.71}}, {"type": "Feature", "geometry": {"type": "Point", "coordinates": [100.53999608125476, 13.770334017082966]}, "properties": {"id": 101591, "name": "โรงพยาบาลพญาไท 2", "district": "พญาไท", "snapDistanceMeters": 63.53}}, {"type": "Feature", "geometry": {"type": "Point", "coordinates": [100.53577001443301, 13.730637638352192]}, "properties": {"id": 164379, "name": "ศาลาทินฑัต โรงพยาบาลจุฬาลงกรณ์", "district": "ปทุมวัน", "snapDistanceMeters": 21.35}}, {"type": "Feature", "geometry": {"type": "Point", "coordinates": [100.34510087054237, 13.655732843026769]}, "properties": {"id": 189639, "name": "มูลนิธิเพื่อโรงพยาบาลหลวงพ่อทวีศักดิ์ชุตินธโรอุทิศ", "district": "หนองแขม", "snapDistanceMeters": 28.54}}, {"type": "Feature", "geometry": {"type": "Point", "coordinates": [100.53506767495074, 13.759765659676154]}, "properties": {"id": 186059, "name": "โรงพยาบาลสถาบันโรคไตภูมิราชนครินทร์", "district": "ราขเทวี", "snapDistanceMeters": 32.33}}, {"type": "Feature", "geometry": {"type": "Point", "coordinates": [100.6265811420326, 13.772064024725253]}, "properties": {"id": 52867, "name": "หอพักพนักงานโรงพยาบาลลาดพร้าว", "district": "วังทองหลาง", "snapDistanceMeters": 39.88}}, {"type": "Feature", "geometry": {"type": "Point", "coordinates": [100.53179978945471, 13.764604311446059]}, "properties": {"id": 54109, "name": "บ้านพักข้าราชการโรงพยาบาลพระมงกุฎเกล้า", "district": "ราขเทวี", "snapDistanceMeters": 28.85}}, {"type": "Feature", "geometry": {"type": "Point", "coordinates": [100.68709457033741, 13.816494957148079]}, "properties": {"id": 53557, "name": "โรงพยาบาลนพรัตนราชธานี", "district": "คันนายาว", "snapDistanceMeters": 69.36}}, {"type": "Feature", "geometry": {"type": "Point", "coordinates": [100.60568074254067, 13.684807818842348]}, "properties": {"id": 53336, "name": "ศูนย์บริการสาธารณสุข 32 มาริษ ตินตมุสิก", "district": "พระโขนง", "snapDistanceMeters": 20.79}}, {"type": "Feature", "geometry": {"type": "Point", "coordinates": [100.51668681019656, 13.749868055026703]}, "properties": {"id": 52714, "name": "อาคารแพทย์จีน โรงพยาบาลหัวเฉียว", "district": "ป้อมปราบศัตรูพ่าย", "snapDistanceMeters": 24.07}}, {"type": "Feature", "geometry": {"type": "Point", "coordinates": [100.59504009206226, 13.742414313605797]}, "properties": {"id": 172168, "name": "ที่จอดรถโรงพยาบาลคลองตัน", "district": "ห้วยขวาง", "snapDistanceMeters": 36.22}}, {"type": "Feature", "geometry": {"type": "Point", "coordinates": [100.52683499019926, 13.765986926033438]}, "properties": {"id": 168191, "name": "โรงพยาบาลรามาธิบดี", "district": "ราขเทวี", "snapDistanceMeters": 64.14}}, {"type": "Feature", "geometry": {"type": "Point", "coordinates": [100.52488216594362, 13.766080671802154]}, "properties": {"id": 170827, "name": "บ่อสูบน้ำหลังโรงพยาบาลรามาธิบดี", "district": "ราขเทวี", "snapDistanceMeters": 11.59}}, {"type": "Feature", "geometry": {"type": "Point", "coordinates": [100.36839093476003, 13.732236567771738]}, "properties": {"id": 191262, "name": "ชุมชนข้างโรงพยาบาลราชพิพัฒน์", "district": "บางแค", "snapDistanceMeters": 15.12}}, {"type": "Feature", "geometry": {"type": "Point", "coordinates": [100.4646988835878, 13.67921792902859]}, "properties": {"id": 168550, "name": "ศูนย์บริการสาธารณสุข 29 สาขาบางมด", "district": "จอมทอง", "snapDistanceMeters": 98.01}}, {"type": "Feature", "geometry": {"type": "Point", "coordinates": [100.58419674299175, 13.750303343644433]}, "properties": {"id": 171460, "name": "แผนกบริการยานพาหนะโรงพยาบาลกรุงเทพ", "district": "ห้วยขวาง", "snapDistanceMeters": 25.47}}, {"type": "Feature", "geometry": {"type": "Point", "coordinates": [100.7216904022059, 13.810797236174361]}, "properties": {"id": 169494, "name": "โรงพยาบาลนวมินทร์", "district": "มีนบุรี", "snapDistanceMeters": 51.28}}, {"type": "Feature", "geometry": {"type": "Point", "coordinates": [100.55767328783796, 13.769470777897967]}, "properties": {"id": 168984, "name": "ศูนย์บริการสาธารณสุข 4 ดินแดง", "district": "ดินแดง", "snapDistanceMeters": 50.01}}, {"type": "Feature", "geometry": {"type": "Point", "coordinates": [100.45691664775687, 13.671484027936199]}, "properties": {"id": 169001, "name": "โรงพยาบาลบางมด", "district": "จอมทอง", "snapDistanceMeters": 52.25}}, {"type": "Feature", "geometry": {"type": "Point", "coordinates": [100.5700033072831, 13.77786309433416]}, "properties": {"id": 168336, "name": "ศูนย์บริการสาธารณสุข 52 สามเสนนอก", "district": "ดินแดง", "snapDistanceMeters": 49.38}}, {"type": "Feature", "geometry": {"type": "Point", "coordinates": [100.50066505727104, 13.720695688279868]}, "properties": {"id": 168961, "name": "ศูนย์บริการสาธารณสุข 28 กรุงธนบุรี", "district": "คลองสาน", "snapDistanceMeters": 33.06}}, {"type": "Feature", "geometry": {"type": "Point", "coordinates": [100.62493726918241, 13.943502298167282]}, "properties": {"id": 256100, "name": "ศูนย์สุขภาพเด็ก โรงพยาบาลบี. แคร์เมดิคอลเซ็นเตอร์", "district": "สายไหม", "snapDistanceMeters": 33.25}}, {"type": "Feature", "geometry": {"type": "Point", "coordinates": [100.62493726918241, 13.943502298167282]}, "properties": {"id": 256101, "name": "ศูนย์พัฒนาการและการเรียนรู้สำหรับเด็ก โรงพยาบาลบี. แคร์เมดิคอลเซ็นเตอร์", "district": "สายไหม", "snapDistanceMeters": 33.25}}, {"type": "Feature", "geometry": {"type": "Point", "coordinates": [100.62493726918241, 13.943502298167282]}, "properties": {"id": 256102, "name": "ศูนย์รักษาโรคทางอายุรกรรม โรงพยาบาลบี. แคร์เมดิคอลเซ็นเตอร์", "district": "สายไหม", "snapDistanceMeters": 33.25}}, {"type": "Feature", "geometry": {"type": "Point", "coordinates": [100.62493726918241, 13.943502298167282]}, "properties": {"id": 256103, "name": "ศูนย์รักษาโรคทางศัลยกรรม โรงพยาบาลบี. แคร์เมดิคอลเซ็นเตอร์", "district": "สายไหม", "snapDistanceMeters": 33.25}}, {"type": "Feature", "geometry": {"type": "Point", "coordinates": [100.62493726918241, 13.943502298167282]}, "properties": {"id": 256104, "name": "ศูนย์รักษาโรคเฉพาะทางอื่นๆ โรงพยาบาลบี. แคร์เมดิคอลเซนเตอร์", "district": "สายไหม", "snapDistanceMeters": 33.25}}, {"type": "Feature", "geometry": {"type": "Point", "coordinates": [100.66622156016123, 13.834601013806951]}, "properties": {"id": 256105, "name": "แผนกหูคอจมูก โรงพยาบาลสินแพทย์", "district": "คันนายาว", "snapDistanceMeters": 37.33}}, {"type": "Feature", "geometry": {"type": "Point", "coordinates": [100.66622156016123, 13.834601013806951]}, "properties": {"id": 256106, "name": "แผนกตา โรงพยาบาลสินแพทย์", "district": "คันนายาว", "snapDistanceMeters": 37.33}}, {"type": "Feature", "geometry": {"type": "Point", "coordinates": [100.66622156016123, 13.834601013806951]}, "properties": {"id": 256107, "name": "แผนกกายภาพบำบัดและฟื้นฟูสมรรถภาพหัวใจ โรงพยาบาลสินแพทย์", "district": "คันนายาว", "snapDistanceMeters": 37.33}}, {"type": "Feature", "geometry": {"type": "Point", "coordinates": [100.66622156016123, 13.834601013806951]}, "properties": {"id": 256108, "name": "แผนกอายุรกรรมหัวใจ โรงพยาบาลสินแพทย์", "district": "คันนายาว", "snapDistanceMeters": 37.33}}, {"type": "Feature", "geometry": {"type": "Point", "coordinates": [100.53999608125476, 13.770334017082966]}, "properties": {"id": 190293, "name": "สหกรณ์ออมทรัพย์เครือโรงพยาบาลพญาไท", "district": "พญาไท", "snapDistanceMeters": 59.97}}, {"type": "Feature", "geometry": {"type": "Point", "coordinates": [100.51524161351523, 13.750433520824371]}, "properties": {"id": 190296, "name": "สหกรณ์ออมทรัพย์โรงพยาบาลหัวเฉียว", "district": "ป้อมปราบศัตรูพ่าย", "snapDistanceMeters": 49.03}}, {"type": "Feature", "geometry": {"type": "Point", "coordinates": [100.66622156016123, 13.834601013806951]}, "properties": {"id": 256109, "name": "แผนกจิตเวช โรงพยาบาลสินแพทย์", "district": "คันนายาว", "snapDistanceMeters": 37.33}}, {"type": "Feature", "geometry": {"type": "Point", "coordinates": [100.66622156016123, 13.834601013806951]}, "properties": {"id": 256110, "name": "แผนกนิติเวช โรงพยาบาลสินแพทย์", "district": "คันนายาว", "snapDistanceMeters": 37.33}}, {"type": "Feature", "geometry": {"type": "Point", "coordinates": [100.66622156016123, 13.834601013806951]}, "properties": {"id": 256112, "name": "แผนกผิวหนังศัลยกรรมเลเซอร์ โรงพยาบาลสินแพทย์", "district": "คันนายาว", "snapDistanceMeters": 37.33}}, {"type": "Feature", "geometry": {"type": "Point", "coordinates": [100.66622156016123, 13.834601013806951]}, "properties": {"id": 256113, "name": "แผนกตรวจสุขภาพ โรงพยาบาลสินแพทย์", "district": "คันนายาว", "snapDistanceMeters": 37.33}}, {"type": "Feature", "geometry": {"type": "Point", "coordinates": [100.66622156016123, 13.834601013806951]}, "properties": {"id": 256114, "name": "แผนกกุมารเวช โรงพยาบาลสินแพทย์", "district": "คันนายาว", "snapDistanceMeters": 37.33}}, {"type": "Feature", "geometry": {"type": "Point", "coordinates": [100.53708737619392, 13.731316032034877]}, "properties": {"id": 71929, "name": "โรงพยาบาลจุฬาลงกรณ์", "district": "ปทุมวัน", "snapDistanceMeters": 57.67}}, {"type": "Feature", "geometry": {"type": "Point", "coordinates": [100.63176746550067, 13.712997117890358]}, "properties": {"id": 71558, "name": "ศูนย์บริการสาธารณสุข 22 วัดปากบ่อ", "district": "สวนหลวง", "snapDistanceMeters": 17.3}}, {"type": "Feature", "geometry": {"type": "Point", "coordinates": [100.44740570767436, 13.638584883750056]}, "properties": {"id": 71561, "name": "ศูนย์บริการสาธารณสุข 42 สาขาท่าข้าม (หนู-หรั่งเป๋าอยู่)", "district": "บางขุนเทียน", "snapDistanceMeters": 51.68}}, {"type": "Feature", "geometry": {"type": "Point", "coordinates": [100.52486582799811, 13.712178317554146]}, "properties": {"id": 71562, "name": "ศูนย์บริการสาธารณสุข 63 สมาคมแต้จิ๋วแห่งประเทศไทย", "district": "สาทร", "snapDistanceMeters": 22.47}}, {"type": "Feature", "geometry": {"type": "Point", "coordinates": [100.34921079276779, 13.704888951699903]}, "properties": {"id": 72416, "name": "ศูนย์บริการสาธารณสุข 48 สาขาปิติวรรณ", "district": "หนองแขม", "snapDistanceMeters": 18.16}}, {"type": "Feature", "geometry": {"type": "Point", "coordinates": [100.65924727383796, 13.928884136450163]}, "properties": {"id": 71901, "name": "ศูนย์บริการสาธารณสุข 61 สังวาลย์ ทัศนารมย์", "district": "สายไหม", "snapDistanceMeters": 23.51}}, {"type": "Feature", "geometry": {"type": "Point", "coordinates": [100.50683348551033, 13.681308403350112]}, "properties": {"id": 71654, "name": "ศูนย์บริการสาธารณสุข 39 ราษฎร์บูรณะ", "district": "ราษฎร์บูรณะ", "snapDistanceMeters": 38.85}}, {"type": "Feature", "geometry": {"type": "Point", "coordinates": [100.48617709051278, 13.756426217361518]}, "properties": {"id": 235763, "name": "หน่วยไตเทียมมูลนิธิโรคไตแห่งประเทศไทยณตึกกัลยาณิวัฒนาโรงพยาบาลสงฆ์", "district": "บางกอกน้อย", "snapDistanceMeters": 33.91}}, {"type": "Feature", "geometry": {"type": "Point", "coordinates": [100.73911831350053, 13.908303718951686]}, "properties": {"id": 71297, "name": "ศูนย์บริการสาธารณสุข 64", "district": "คลองสามวา", "snapDistanceMeters": 11.91}}, {"type": "Feature", "geometry": {"type": "Point", "coordinates": [100.34510087054237, 13.655732843026769]}, "properties": {"id": 140667, "name": "ชมรมผู้สูงอายุโรงพยาบาลหลวงพ่อทวีศักดิ์ชุตินธโรอุทิศ", "district": "หนองแขม", "snapDistanceMeters": 28.54}}, {"type": "Feature", "geometry": {"type": "Point", "coordinates": [100.51722579159117, 13.722307014142466]}, "properties": {"id": 255760, "name": "วินหน้าโรงพยาบาลเลิศสิน", "district": "บางรัก", "snapDistanceMeters": 20.62}}, {"type": "Feature", "geometry": {"type": "Point", "coordinates": [100.51469523847695, 13.70963786612448]}, "properties": {"id": 140299, "name": "ชมรมอาสาสมัครสาธารณสุขศูนย์บริการสาธารณสุข 14", "district": "บางคอแหลม", "snapDistanceMeters": 32.31}}, {"type": "Feature", "geometry": {"type": "Point", "coordinates": [100.66622156016123, 13.834601013806951]}, "properties": {"id": 255827, "name": "แผนกอายุรกรรมระบบทางเดินอาหารและตับ โรงพยาบาลสินแพทย์", "district": "คันนายาว", "snapDistanceMeters": 37.33}}, {"type": "Feature", "geometry": {"type": "Point", "coordinates": [100.42162433281963, 13.651499516969071]}, "properties": {"id": 256063, "name": "แผนกผู้ป่วยนอก โรงพยาบาลพระราม 2", "district": "บางขุนเทียน", "snapDistanceMeters": 45.27}}, {"type": "Feature", "geometry": {"type": "Point", "coordinates": [100.42162433281963, 13.651499516969071]}, "properties": {"id": 256064, "name": "แผนกห้องปฏิบัติการ โรงพยาบาลพระราม 2", "district": "บางขุนเทียน", "snapDistanceMeters": 45.27}}, {"type": "Feature", "geometry": {"type": "Point", "coordinates": [100.42162433281963, 13.651499516969071]}, "properties": {"id": 256065, "name": "แผนกโสต ศอ นาสิก โรงพยาบาลพระราม 2", "district": "บางขุนเทียน", "snapDistanceMeters": 45.27}}, {"type": "Feature", "geometry": {"type": "Point", "coordinates": [100.42162433281963, 13.651499516969071]}, "properties": {"id": 256066, "name": "ห้องวิกฤตไอซียู โรงพยาบาลพระราม 2", "district": "บางขุนเทียน", "snapDistanceMeters": 45.27}}, {"type": "Feature", "geometry": {"type": "Point", "coordinates": [100.42162433281963, 13.651499516969071]}, "properties": {"id": 256067, "name": "แผนกห้องฉุกเฉินรถพยาบาลฉุกเฉิน โรงพยาบาลพระราม 2", "district": "บางขุนเทียน", "snapDistanceMeters": 45.27}}, {"type": "Feature", "geometry": {"type": "Point", "coordinates": [100.64547181301387, 13.734623764376234]}, "properties": {"id": 256068, "name": "คลินิกโลหิตวิทยา โรงพยาบาลวิภาราม", "district": "สวนหลวง", "snapDistanceMeters": 19.6}}, {"type": "Feature", "geometry": {"type": "Point", "coordinates": [100.64547181301387, 13.734623764376234]}, "properties": {"id": 256069, "name": "แผนกรังสีวิทยา โรงพยาบาลวิภาราม", "district": "สวนหลวง", "snapDistanceMeters": 19.6}}, {"type": "Feature", "geometry": {"type": "Point", "coordinates": [100.64547181301387, 13.734623764376234]}, "properties": {"id": 256070, "name": "คลินิกภูมิแพ้และไขข้อ โรงพยาบาลวิภาราม", "district": "สวนหลวง", "snapDistanceMeters": 19.6}}, {"type": "Feature", "geometry": {"type": "Point", "coordinates": [100.64547181301387, 13.734623764376234]}, "properties": {"id": 256071, "name": "คลินิกผิวหนัง โรงพยาบาลวิภาราม", "district": "สวนหลวง", "snapDistanceMeters": 19.6}}, {"type": "Feature", "geometry": {"type": "Point", "coordinates": [100.5329887401948, 13.78116754076565]}, "properties": {"id": 255813, "name": "คลินิกโรคระบบต่อมไร้ท่อและเบาหวาน โรงพยาบาลการแพทย์วิชัยยุทธ", "district": "พญาไท", "snapDistanceMeters": 49.77}}, {"type": "Feature", "geometry": {"type": "Point", "coordinates": [100.5329887401948, 13.78116754076565]}, "properties": {"id": 255814, "name": "คลินิกโรคระบบทางเดินหายใจและปอด โรงพยาบาลการแพทย์วิชัยยุทธ", "district": "พญาไท", "snapDistanceMeters": 49.77}}, {"type": "Feature", "geometry": {"type": "Point", "coordinates": [100.5329887401948, 13.78116754076565]}, "properties": {"id": 255815, "name": "คลินิกโรคหัวใจและหลอดเลือด โรงพยาบาลการแพทย์วิชัยยุทธ", "district": "พญาไท", "snapDistanceMeters": 49.77}}, {"type": "Feature", "geometry": {"type": "Point", "coordinates": [100.5329887401948, 13.78116754076565]}, "properties": {"id": 255816, "name": "คลินิกโลหิตวิทยาและเคมีบำบัด โรงพยาบาลการแพทย์วิชัยยุทธ", "district": "พญาไท", "snapDistanceMeters": 49.77}}, {"type": "Feature", "geometry": {"type": "Point", "coordinates": [100.66622156016123, 13.834601013806951]}, "properties": {"id": 255817, "name": "คลินิกทางเดินหายใจในเด็ก โรงพยาบาลสินแพทย์", "district": "คันนายาว", "snapDistanceMeters": 37.33}}, {"type": "Feature", "geometry": {"type": "Point", "coordinates": [100.66622156016123, 13.834601013806951]}, "properties": {"id": 255818, "name": "คลินิกอายุวัฒนะ โรงพยาบาลสินแพทย์", "district": "คันนายาว", "snapDistanceMeters": 37.33}}, {"type": "Feature", "geometry": {"type": "Point", "coordinates": [100.66622156016123, 13.834601013806951]}, "properties": {"id": 255819, "name": "ศูนย์ผู้มีบุตรยาก โรงพยาบาลสินแพทย์", "district": "คันนายาว", "snapDistanceMeters": 37.33}}, {"type": "Feature", "geometry": {"type": "Point", "coordinates": [100.66622156016123, 13.834601013806951]}, "properties": {"id": 255820, "name": "ศูนย์สมอง โรงพยาบาลสินแพทย์", "district": "คันนายาว", "snapDistanceMeters": 37.33}}, {"type": "Feature", "geometry": {"type": "Point", "coordinates": [100.66622156016123, 13.834601013806951]}, "properties": {"id": 255821, "name": "ศูนย์หัวใจ โรงพยาบาลสินแพทย์", "district": "คันนายาว", "snapDistanceMeters": 37.33}}, {"type": "Feature", "geometry": {"type": "Point", "coordinates": [100.48607039816878, 13.710190316942496]}, "properties": {"id": 252264, "name": "ศูนย์สุขภาพโรงพยาบาลสมเด็จพระปิ่นเกล้า", "district": "ธนบุรี", "snapDistanceMeters": 56.71}}, {"type": "Feature", "geometry": {"type": "Point", "coordinates": [100.66622156016123, 13.834601013806951]}, "properties": {"id": 255822, "name": "ศูนย์โรคปวดท้อง โรงพยาบาลสินแพทย์", "district": "คันนายาว", "snapDistanceMeters": 37.33}}, {"type": "Feature", "geometry": {"type": "Point", "coordinates": [100.66622156016123, 13.834601013806951]}, "properties": {"id": 255823, "name": "คลินิกทารกแรกเกิด โรงพยาบาลสินแพทย์", "district": "คันนายาว", "snapDistanceMeters": 37.33}}, {"type": "Feature", "geometry": {"type": "Point", "coordinates": [100.66622156016123, 13.834601013806951]}, "properties": {"id": 255824, "name": "คลินิกเบาหวาน โรงพยาบาลสินแพทย์", "district": "คันนายาว", "snapDistanceMeters": 37.33}}, {"type": "Feature", "geometry": {"type": "Point", "coordinates": [100.66622156016123, 13.834601013806951]}, "properties": {"id": 255825, "name": "คลินิกโรคข้อโรครูมาตอยด์โรคเอสแอลอีและภูมิแพ้ โรงพยาบาลสินแพทย์", "district": "คันนายาว", "snapDistanceMeters": 37.33}}, {"type": "Feature", "geometry": {"type": "Point", "coordinates": [100.50146846259365, 13.769039983271192]}, "properties": {"id": 252266, "name": "ศูนย์บริการสาธารณสุขธนาคารแห่งประเทศไทย", "district": "พระนคร", "snapDistanceMeters": 102.02}}, {"type": "Feature", "geometry": {"type": "Point", "coordinates": [100.61924312701036, 13.759366615527043]}, "properties": {"id": 252267, "name": "ศูนย์บริการสาธารณสุขการส่งเสริมกีฬาแห่งประเทศไทย", "district": "บางกะปิ", "snapDistanceMeters": 30.27}}, {"type": "Feature", "geometry": {"type": "Point", "coordinates": [100.55138328430978, 13.879175636000685]}, "properties": {"id": 252268, "name": "ศูนย์บริการสาธารณสุขกองบริการทางการแพทย์การประปานครหลวง", "district": "หลักสี่", "snapDistanceMeters": 34.58}}, {"type": "Feature", "geometry": {"type": "Point", "coordinates": [100.57320627353317, 13.765926508502242]}, "properties": {"id": 252269, "name": "ศูนย์บริการสาธารณสุของค์การขนส่งมวลชนกรุงเทพ", "district": "ห้วยขวาง", "snapDistanceMeters": 32.63}}, {"type": "Feature", "geometry": {"type": "Point", "coordinates": [100.55219637510763, 13.743234658178396]}, "properties": {"id": 252270, "name": "ศูนย์บริการสาธารณสุขธนาคารกรุงไทย", "district": "วัฒนา", "snapDistanceMeters": 33.37}}, {"type": "Feature", "geometry": {"type": "Point", "coordinates": [100.64547181301387, 13.734623764376234]}, "properties": {"id": 255770, "name": "ศูนย์ศัลยกรรม โรงพยาบาลวิภาราม", "district": "สวนหลวง", "snapDistanceMeters": 19.6}}, {"type": "Feature", "geometry": {"type": "Point", "coordinates": [100.64547181301387, 13.734623764376234]}, "properties": {"id": 255772, "name": "ศูนย์สุขภาพและอาชีวอนามัย โรงพยาบาลวิภาราม", "district": "สวนหลวง", "snapDistanceMeters": 19.6}}, {"type": "Feature", "geometry": {"type": "Point", "coordinates": [100.64547181301387, 13.734623764376234]}, "properties": {"id": 255773, "name": "ศูนย์ศัลยกรรมกระดูกและข้อ โรงพยาบาลวิภาราม", "district": "สวนหลวง", "snapDistanceMeters": 19.6}}, {"type": "Feature", "geometry": {"type": "Point", "coordinates": [100.64547181301387, 13.734623764376234]}, "properties": {"id": 255774, "name": "คลินิกสูติ-นรีเวช โรงพยาบาลวิภาราม", "district": "สวนหลวง", "snapDistanceMeters": 19.6}}, {"type": "Feature", "geometry": {"type": "Point", "coordinates": [100.64547181301387, 13.734623764376234]}, "properties": {"id": 255775, "name": "คลินิกกุมารเวช โรงพยาบาลวิภาราม", "district": "สวนหลวง", "snapDistanceMeters": 19.6}}, {"type": "Feature", "geometry": {"type": "Point", "coordinates": [100.64547181301387, 13.734623764376234]}, "properties": {"id": 255776, "name": "ศูนย์ส่องกล้องทางเดินอาหาร โรงพยาบาลวิภาราม", "district": "สวนหลวง", "snapDistanceMeters": 19.6}}, {"type": "Feature", "geometry": {"type": "Point", "coordinates": [100.64547181301387, 13.734623764376234]}, "properties": {"id": 255777, "name": "คลินิกจักษุ โรงพยาบาลวิภาราม", "district": "สวนหลวง", "snapDistanceMeters": 19.6}}, {"type": "Feature", "geometry": {"type": "Point", "coordinates": [100.64547181301387, 13.734623764376234]}, "properties": {"id": 255778, "name": "คลินิกเบาหวานและต่อมไร้ท่อ โรงพยาบาลวิภาราม", "district": "สวนหลวง", "snapDistanceMeters": 19.6}}, {"type": "Feature", "geometry": {"type": "Point", "coordinates": [100.64547181301387, 13.734623764376234]}, "properties": {"id": 255779, "name": "กายภาพบำบัด โรงพยาบาลวิภาราม", "district": "สวนหลวง", "snapDistanceMeters": 19.6}}, {"type": "Feature", "geometry": {"type": "Point", "coordinates": [100.64547181301387, 13.734623764376234]}, "properties": {"id": 255780, "name": "คลินิกหูคอจมูก โรงพยาบาลวิภาราม", "district": "สวนหลวง", "snapDistanceMeters": 19.6}}, {"type": "Feature", "geometry": {"type": "Point", "coordinates": [100.64547181301387, 13.734623764376234]}, "properties": {"id": 255781, "name": "คลินิกจิตรเวช โรงพยาบาลวิภาราม", "district": "สวนหลวง", "snapDistanceMeters": 19.6}}, {"type": "Feature", "geometry": {"type": "Point", "coordinates": [100.36072676523193, 13.707474322459248]}, "properties": {"id": 256115, "name": "ศูนย์กระดูกและข้อ โรงพยาบาลวิชัยเวชอินเตอร์เนชั่นแนลหนองแขม", "district": "หนองแขม", "snapDistanceMeters": 13.65}}, {"type": "Feature", "geometry": {"type": "Point", "coordinates": [100.36072676523193, 13.707474322459248]}, "properties": {"id": 256116, "name": "ศูนย์อุบัติเหตุ-ฉุกเฉิน โรงพยาบาลวิชัยเวชอินเตอร์เนชั่นแนลหนองแขม", "district": "หนองแขม", "snapDistanceMeters": 13.65}}, {"type": "Feature", "geometry": {"type": "Point", "coordinates": [100.42162433281963, 13.651499516969071]}, "properties": {"id": 255783, "name": "แผนกห้องคลอดและเด็กอ่อน โรงพยาบาลพระราม 2", "district": "บางขุนเทียน", "snapDistanceMeters": 45.27}}, {"type": "Feature", "geometry": {"type": "Point", "coordinates": [100.42162433281963, 13.651499516969071]}, "properties": {"id": 255784, "name": "แผนกหัวใจ โรงพยาบาลพระราม 2", "district": "บางขุนเทียน", "snapDistanceMeters": 45.27}}, {"type": "Feature", "geometry": {"type": "Point", "coordinates": [100.42162433281963, 13.651499516969071]}, "properties": {"id": 255785, "name": "ห้องผ่าตัด โรงพยาบาลพระราม 2", "district": "บางขุนเทียน", "snapDistanceMeters": 45.27}}, {"type": "Feature", "geometry": {"type": "Point", "coordinates": [100.42162433281963, 13.651499516969071]}, "properties": {"id": 255786, "name": "แผนกผู้ป่วยใน โรงพยาบาลพระราม 2", "district": "บางขุนเทียน", "snapDistanceMeters": 45.27}}, {"type": "Feature", "geometry": {"type": "Point", "coordinates": [100.50805727622533, 13.730579696902339]}, "properties": {"id": 255787, "name": "คลินิกประสาทวิทยา โรงพยาบาลตากสิน", "district": "คลองสาน", "snapDistanceMeters": 31.41}}, {"type": "Feature", "geometry": {"type": "Point", "coordinates": [100.50805727622533, 13.730579696902339]}, "properties": {"id": 255788, "name": "คลินิกโรคหัวใจ โรงพยาบาลตากสิน", "district": "คลองสาน", "snapDistanceMeters": 31.41}}, {"type": "Feature", "geometry": {"type": "Point", "coordinates": [100.50805727622533, 13.730579696902339]}, "properties": {"id": 255789, "name": "คลินิกผิวหนัง โรงพยาบาลตากสิน", "district": "คลองสาน", "snapDistanceMeters": 31.41}}, {"type": "Feature", "geometry": {"type": "Point", "coordinates": [100.50805727622533, 13.730579696902339]}, "properties": {"id": 255790, "name": "คลินิกโลหิตวิทยา โรงพยาบาลตากสิน", "district": "คลองสาน", "snapDistanceMeters": 31.41}}, {"type": "Feature", "geometry": {"type": "Point", "coordinates": [100.50805727622533, 13.730579696902339]}, "properties": {"id": 255791, "name": "คลินิกสูงอายุ โรงพยาบาลตากสิน", "district": "คลองสาน", "snapDistanceMeters": 31.41}}, {"type": "Feature", "geometry": {"type": "Point", "coordinates": [100.50805727622533, 13.730579696902339]}, "properties": {"id": 255798, "name": "คลินิกมะเร็ง โรงพยาบาลตากสิน", "district": "คลองสาน", "snapDistanceMeters": 31.41}}, {"type": "Feature", "geometry": {"type": "Point", "coordinates": [100.5768941087567, 13.734468150097783]}, "properties": {"id": 255799, "name": "คลินิกโรคตาเด็ก โรงพยาบาลสมิติเวชสุขุมวิท", "district": "วัฒนา", "snapDistanceMeters": 45.67}}, {"type": "Feature", "geometry": {"type": "Point", "coordinates": [100.5768941087567, 13.734468150097783]}, "properties": {"id": 255800, "name": "คลินิกโรคติดเชื้อในเด็ก โรงพยาบาลสมิติเวชสุขุมวิท", "district": "วัฒนา", "snapDistanceMeters": 45.67}}, {"type": "Feature", "geometry": {"type": "Point", "coordinates": [100.5768941087567, 13.734468150097783]}, "properties": {"id": 255801, "name": "คลินิกโรคทางด้านไต โรงพยาบาลสมิติเวชสุขุมวิท", "district": "วัฒนา", "snapDistanceMeters": 45.67}}, {"type": "Feature", "geometry": {"type": "Point", "coordinates": [100.70659174535416, 13.717976278782826]}, "properties": {"id": 255802, "name": "คลินิกเวชกรรมฟื้นฟู โรงพยาบาลสิรินธร", "district": "ประเวศ", "snapDistanceMeters": 61.46}}, {"type": "Feature", "geometry": {"type": "Point", "coordinates": [100.70659174535416, 13.717976278782826]}, "properties": {"id": 255803, "name": "คลินิกอายุรกรรม โรงพยาบาลสิรินธร", "district": "ประเวศ", "snapDistanceMeters": 61.46}}, {"type": "Feature", "geometry": {"type": "Point", "coordinates": [100.70659174535416, 13.717976278782826]}, "properties": {"id": 255804, "name": "คลินิกเบาหวานและต่อมไร้ท่อ โรงพยาบาลสิรินธร", "district": "ประเวศ", "snapDistanceMeters": 61.46}}, {"type": "Feature", "geometry": {"type": "Point", "coordinates": [100.70659174535416, 13.717976278782826]}, "properties": {"id": 255805, "name": "คลินิกพิเศษโรคหัวใจ โรงพยาบาลสิรินธร", "district": "ประเวศ", "snapDistanceMeters": 61.46}}, {"type": "Feature", "geometry": {"type": "Point", "coordinates": [100.70659174535416, 13.717976278782826]}, "properties": {"id": 255806, "name": "คลินิกจิตเวช โรงพยาบาลสิรินธร", "district": "ประเวศ", "snapDistanceMeters": 61.46}}, {"type": "Feature", "geometry": {"type": "Point", "coordinates": [100.70659174535416, 13.717976278782826]}, "properties": {"id": 255807, "name": "คลินิกจักษุ โรงพยาบาลสิรินธร", "district": "ประเวศ", "snapDistanceMeters": 61.46}}, {"type": "Feature", "geometry": {"type": "Point", "coordinates": [100.5329887401948, 13.78116754076565]}, "properties": {"id": 255808, "name": "คลินิกโรคไตและไตเทียม โรงพยาบาลการแพทย์วิชัยยุทธ", "district": "พญาไท", "snapDistanceMeters": 49.77}}, {"type": "Feature", "geometry": {"type": "Point", "coordinates": [100.56508373869748, 13.882987110450577]}, "properties": {"id": 251955, "name": "ศูนย์แพทย์ชุมชนธนบุรีโรงพยาบาลบ้านแพ้ว (องค์การมหาชน)", "district": "หลักสี่", "snapDistanceMeters": 141.54}}, {"type": "Feature", "geometry": {"type": "Point", "coordinates": [100.36072676523193, 13.707474322459248]}, "properties": {"id": 256117, "name": "ศูนย์เวชศาสตร์การกีฬา โรงพยาบาลวิชัยเวชอินเตอร์เนชั่นแนลหนองแขม", "district": "หนองแขม", "snapDistanceMeters": 13.65}}, {"type": "Feature", "geometry": {"type": "Point", "coordinates": [100.36072676523193, 13.707474322459248]}, "properties": {"id": 256118, "name": "ศูนย์ตรวจสุขภาพ โรงพยาบาลวิชัยเวชอินเตอร์เนชั่นแนลหนองแขม", "district": "หนองแขม", "snapDistanceMeters": 13.65}}, {"type": "Feature", "geometry": {"type": "Point", "coordinates": [100.56242135577841, 13.84599778290995]}, "properties": {"id": 256119, "name": "แผนกประสาทศัลยศาสตร์ โรงพยาบาลวิภาวดี", "district": "จตุจักร", "snapDistanceMeters": 27.22}}, {"type": "Feature", "geometry": {"type": "Point", "coordinates": [100.48575802994718, 13.759471050934282]}, "properties": {"id": 256120, "name": "ศูนย์มะเร็ง โรงพยาบาลศิริราชปิยมหาราชการุณย์", "district": "บางกอกน้อย", "snapDistanceMeters": 38.72}}, {"type": "Feature", "geometry": {"type": "Point", "coordinates": [100.48575802994718, 13.759471050934282]}, "properties": {"id": 256121, "name": "ศูนย์โรคไต โรงพยาบาลศิริราชปิยมหาราชการุณย์", "district": "บางกอกน้อย", "snapDistanceMeters": 38.72}}, {"type": "Feature", "geometry": {"type": "Point", "coordinates": [100.48575802994718, 13.759471050934282]}, "properties": {"id": 256122, "name": "ศูนย์เด็ก โรงพยาบาลศิริราชปิยมหาราชการุณย์", "district": "บางกอกน้อย", "snapDistanceMeters": 38.72}}, {"type": "Feature", "geometry": {"type": "Point", "coordinates": [100.47293439920391, 13.782076745472022]}, "properties": {"id": 256123, "name": "แผนกผิวพรรณและความงาม โรงพยาบาลผิวหนังอโศก สาขาปิ่นเกล้า", "district": "บางกอกน้อย", "snapDistanceMeters": 18.67}}, {"type": "Feature", "geometry": {"type": "Point", "coordinates": [100.47293439920391, 13.782076745472022]}, "properties": {"id": 256124, "name": "แผนกโรคผิวหนังเรื้อรัง โรงพยาบาลผิวหนังอโศก สาขาปิ่นเกล้า", "district": "บางกอกน้อย", "snapDistanceMeters": 18.67}}, {"type": "Feature", "geometry": {"type": "Point", "coordinates": [100.47293439920391, 13.782076745472022]}, "properties": {"id": 256125, "name": "แผนกศัลยกรรมผิวหนัง โรงพยาบาลผิวหนังอโศก สาขาปิ่นเกล้า", "district": "บางกอกน้อย", "snapDistanceMeters": 18.67}}, {"type": "Feature", "geometry": {"type": "Point", "coordinates": [100.47293439920391, 13.782076745472022]}, "properties": {"id": 256126, "name": "แผนกโรคผิวหนังทั่วไป โรงพยาบาลผิวหนังอโศก สาขาปิ่นเกล้า", "district": "บางกอกน้อย", "snapDistanceMeters": 18.67}}, {"type": "Feature", "geometry": {"type": "Point", "coordinates": [100.50805727622533, 13.730579696902339]}, "properties": {"id": 255792, "name": "คลินิกความดันโลหิตสูง โรงพยาบาลตากสิน", "district": "คลองสาน", "snapDistanceMeters": 31.41}}, {"type": "Feature", "geometry": {"type": "Point", "coordinates": [100.50805727622533, 13.730579696902339]}, "properties": {"id": 255793, "name": "คลินิกต่อมไร้ท่อ โรงพยาบาลตากสิน", "district": "คลองสาน", "snapDistanceMeters": 31.41}}, {"type": "Feature", "geometry": {"type": "Point", "coordinates": [100.50805727622533, 13.730579696902339]}, "properties": {"id": 255794, "name": "คลินิกศัลยกรรมทั่วไป โรงพยาบาลตากสิน", "district": "คลองสาน", "snapDistanceMeters": 31.41}}, {"type": "Feature", "geometry": {"type": "Point", "coordinates": [100.50805727622533, 13.730579696902339]}, "properties": {"id": 255795, "name": "คลินิกศัลยกรรมตกแต่ง โรงพยาบาลตากสิน", "district": "คลองสาน", "snapDistanceMeters": 31.41}}, {"type": "Feature", "geometry": {"type": "Point", "coordinates": [100.50805727622533, 13.730579696902339]}, "properties": {"id": 255796, "name": "คลินิกศัลยกรรมทางเดินปัสสาวะ โรงพยาบาลตากสิน", "district": "คลองสาน", "snapDistanceMeters": 31.41}}, {"type": "Feature", "geometry": {"type": "Point", "coordinates": [100.50805727622533, 13.730579696902339]}, "properties": {"id": 255797, "name": "คลินิกศัลยกรรมประสาท โรงพยาบาลตากสิน", "district": "คลองสาน", "snapDistanceMeters": 31.41}}, {"type": "Feature", "geometry": {"type": "Point", "coordinates": [100.5329887401948, 13.78116754076565]}, "properties": {"id": 255809, "name": "คลินิกโรคกระดูกและข้อ โรงพยาบาลการแพทย์วิชัยยุทธ", "district": "พญาไท", "snapDistanceMeters": 49.77}}, {"type": "Feature", "geometry": {"type": "Point", "coordinates": [100.53860456118684, 13.708390609062612]}, "properties": {"id": 252261, "name": "โรงพยาบาลบ้านแพ้ว (องค์การมหาชน)", "district": "สาทร", "snapDistanceMeters": 57.06}}, {"type": "Feature", "geometry": {"type": "Point", "coordinates": [100.5329887401948, 13.78116754076565]}, "properties": {"id": 255810, "name": "คลินิกโรคทางระบบประสาท โรงพยาบาลการแพทย์วิชัยยุทธ", "district": "พญาไท", "snapDistanceMeters": 49.77}}, {"type": "Feature", "geometry": {"type": "Point", "coordinates": [100.5329887401948, 13.78116754076565]}, "properties": {"id": 255811, "name": "คลินิกโรคภูมิแพ้ โรงพยาบาลการแพทย์วิชัยยุทธ", "district": "พญาไท", "snapDistanceMeters": 49.77}}, {"type": "Feature", "geometry": {"type": "Point", "coordinates": [100.5329887401948, 13.78116754076565]}, "properties": {"id": 255812, "name": "คลินิกโรคผิวหนังและศัลยกรรมตกแต่ง โรงพยาบาลการแพทยืวิชัยยุทธ", "district": "พญาไท", "snapDistanceMeters": 49.77}}, {"type": "Feature", "geometry": {"type": "Point", "coordinates": [100.42308061021134, 13.572708546975605]}, "properties": {"id": 256127, "name": "แผนกอุบัติเหตุฉุกเฉิน โรงพยาบาลผู้สูงอายุบางขุนเทียน (อาคารผู้ป่วยนอก)", "district": "บางขุนเทียน", "snapDistanceMeters": 7.96}}, {"type": "Feature", "geometry": {"type": "Point", "coordinates": [100.42308061021134, 13.572708546975605]}, "properties": {"id": 256128, "name": "แผนกเวชปฏิบัติทั่วไป โรงพยาบาลผู้สูงอายุบางขุนเทียน (อาคารผู้ป่วยนอก)", "district": "บางขุนเทียน", "snapDistanceMeters": 7.96}}, {"type": "Feature", "geometry": {"type": "Point", "coordinates": [100.42308061021134, 13.572708546975605]}, "properties": {"id": 256129, "name": "คลินิกอายุรกรรม โรงพยาบาลผู้สูงอายุบางขุนเทียน (อาคารผู้ป่วยนอก)", "district": "บางขุนเทียน", "snapDistanceMeters": 7.96}}, {"type": "Feature", "geometry": {"type": "Point", "coordinates": [100.6207648454952, 13.7389604364128]}, "properties": {"id": 252914, "name": "ศูนย์ล้างไตทางช่องท้องโรงพยาบาลบ้านแพ้วสาขาพัฒนาการ", "district": "สวนหลวง", "snapDistanceMeters": 24.69}}, {"type": "Feature", "geometry": {"type": "Point", "coordinates": [100.55529377713765, 13.849596881779789]}, "properties": {"id": 252915, "name": "ศูนย์บริการสาธารณสุขทัณฑสถานบำบัดพิเศษกลาง", "district": "จตุจักร", "snapDistanceMeters": 296.68}}, {"type": "Feature", "geometry": {"type": "Point", "coordinates": [100.5768941087567, 13.734468150097783]}, "properties": {"id": 256087, "name": "ศูนย์ศัลยกรรมเด็กและทารกแรกเกิดครบวงจร โรงพยาบาลสมิติเวชสุขุมวิท", "district": "วัฒนา", "snapDistanceMeters": 45.67}}, {"type": "Feature", "geometry": {"type": "Point", "coordinates": [100.5768941087567, 13.734468150097783]}, "properties": {"id": 256088, "name": "ศูนย์ศัลยกรรมโรคสมองและระบบประสาทในเด็ก โรงพยาบาลสมิติเวชสุขุมวิท", "district": "วัฒนา", "snapDistanceMeters": 45.67}}, {"type": "Feature", "geometry": {"type": "Point", "coordinates": [100.5768941087567, 13.734468150097783]}, "properties": {"id": 256089, "name": "ศูนย์เด็กพิเศษ โรงพยาบาลสมิติเวชสุขุมวิท", "district": "วัฒนา", "snapDistanceMeters": 45.67}}, {"type": "Feature", "geometry": {"type": "Point", "coordinates": [100.5768941087567, 13.734468150097783]}, "properties": {"id": 256090, "name": "หอทารกแรกเกิดทารกภาวะวิกฤตและผู้ป่วยเด็กวิกฤต โรงพยาบาลสมิติเวชสุขุมวิท", "district": "วัฒนา", "snapDistanceMeters": 45.67}}, {"type": "Feature", "geometry": {"type": "Point", "coordinates": [100.5768941087567, 13.734468150097783]}, "properties": {"id": 256091, "name": "หอผู้ป่วยทารกแรกเกิดวิกฤต โรงพยาบาลสมิติเวชสุขุมวิท", "district": "วัฒนา", "snapDistanceMeters": 45.67}}, {"type": "Feature", "geometry": {"type": "Point", "coordinates": [100.5329887401948, 13.78116754076565]}, "properties": {"id": 256092, "name": "คลินิกโรคตา โรงพยาบาลการแพทย์วิชัยยุทธ", "district": "พญาไท", "snapDistanceMeters": 49.77}}, {"type": "Feature", "geometry": {"type": "Point", "coordinates": [100.5329887401948, 13.78116754076565]}, "properties": {"id": 256094, "name": "คลินิกโรคทางเดินอาหารและโรคตับ โรงพยาบาลการแพทย์วิชัยยุทธ", "district": "พญาไท", "snapDistanceMeters": 49.77}}, {"type": "Feature", "geometry": {"type": "Point", "coordinates": [100.5329887401948, 13.78116754076565]}, "properties": {"id": 256095, "name": "คลินิกโรคหูคอจมูก โรงพยาบาลการแพทย์วิชัยยุทธ", "district": "พญาไท", "snapDistanceMeters": 49.77}}, {"type": "Feature", "geometry": {"type": "Point", "coordinates": [100.5329887401948, 13.78116754076565]}, "properties": {"id": 256096, "name": "คลินิกสุขภาพและอายุรศาสตร์ โรงพยาบาลการแพทย์วิชัยยุทธ", "district": "พญาไท", "snapDistanceMeters": 49.77}}, {"type": "Feature", "geometry": {"type": "Point", "coordinates": [100.5329887401948, 13.78116754076565]}, "properties": {"id": 256097, "name": "คลินิกโรคระบบทางเดินปัสสาวะ โรงพยาบาลการแพทย์วิชัยยุทธ", "district": "พญาไท", "snapDistanceMeters": 49.77}}, {"type": "Feature", "geometry": {"type": "Point", "coordinates": [100.5329887401948, 13.78116754076565]}, "properties": {"id": 256098, "name": "คลินิกสุขภาพสตรี โรงพยาบาลการแพทย์วิชัยยุทธ", "district": "พญาไท", "snapDistanceMeters": 49.77}}, {"type": "Feature", "geometry": {"type": "Point", "coordinates": [100.62493726918241, 13.943502298167282]}, "properties": {"id": 256099, "name": "ศูนย์สุขภาพสตรี โรงพยาบาลบี. แคร์เมดิคอลเซ็นเตอร์", "district": "สายไหม", "snapDistanceMeters": 33.25}}, {"type": "Feature", "geometry": {"type": "Point", "coordinates": [100.57103964815023, 13.883090322348748]}, "properties": {"id": 252274, "name": "ศูนย์บริการสาธารณสุขไปรษณีย์ไทย", "district": "หลักสี่", "snapDistanceMeters": 50.3}}, {"type": "Feature", "geometry": {"type": "Point", "coordinates": [100.5290600575235, 13.766248313649218]}, "properties": {"id": 252275, "name": "ศูนย์บริการสาธารณสุของ์การเภสัชกรรม", "district": "ราขเทวี", "snapDistanceMeters": 49.84}}, {"type": "Feature", "geometry": {"type": "Point", "coordinates": [100.64547181301387, 13.734623764376234]}, "properties": {"id": 256072, "name": "คลินิกโรคระบบทางเดินหายใจ โรงพยาบาลวิภาราม", "district": "สวนหลวง", "snapDistanceMeters": 19.6}}, {"type": "Feature", "geometry": {"type": "Point", "coordinates": [100.64547181301387, 13.734623764376234]}, "properties": {"id": 256073, "name": "คลินิกผิวพรรณ โรงพยาบาลวิภาราม", "district": "สวนหลวง", "snapDistanceMeters": 19.6}}, {"type": "Feature", "geometry": {"type": "Point", "coordinates": [100.66622156016123, 13.834601013806951]}, "properties": {"id": 255828, "name": "แผนกอายุรกรรม โรงพยาบาลสินแพทย์", "district": "คันนายาว", "snapDistanceMeters": 37.33}}, {"type": "Feature", "geometry": {"type": "Point", "coordinates": [100.66622156016123, 13.834601013806951]}, "properties": {"id": 255829, "name": "แผนกศัลยกรรม โรงพยาบาลสินแพทย์", "district": "คันนายาว", "snapDistanceMeters": 37.33}}, {"type": "Feature", "geometry": {"type": "Point", "coordinates": [100.66622156016123, 13.834601013806951]}, "properties": {"id": 255830, "name": "แผนกศัลยกรรมกระดูกและข้อ โรงพยาบาลสินแพทย์", "district": "คันนายาว", "snapDistanceMeters": 37.33}}, {"type": "Feature", "geometry": {"type": "Point", "coordinates": [100.66622156016123, 13.834601013806951]}, "properties": {"id": 255831, "name": "แผนกศัลยกรรมระบบประสาทและไขสันหลัง โรงพยาบาลสินแพทย์", "district": "คันนายาว", "snapDistanceMeters": 37.33}}, {"type": "Feature", "geometry": {"type": "Point", "coordinates": [100.66622156016123, 13.834601013806951]}, "properties": {"id": 255832, "name": "แผนกสูตินรีเวช โรงพยาบาลสินแพทย์", "district": "คันนายาว", "snapDistanceMeters": 37.33}}, {"type": "Feature", "geometry": {"type": "Point", "coordinates": [100.56242135577841, 13.84599778290995]}, "properties": {"id": 255834, "name": "คลินิกศัลยกรรมเด็ก โรงพยาบาลวิภาวดี", "district": "จตุจักร", "snapDistanceMeters": 27.22}}, {"type": "Feature", "geometry": {"type": "Point", "coordinates": [100.56242135577841, 13.84599778290995]}, "properties": {"id": 255835, "name": "ศูนย์พัฒนาศักยภาพเด็กวิภาวดี โรงพยาบาลวิภาวดี", "district": "จตุจักร", "snapDistanceMeters": 27.22}}, {"type": "Feature", "geometry": {"type": "Point", "coordinates": [100.56242135577841, 13.84599778290995]}, "properties": {"id": 255836, "name": "ศูนย์อายุรกรรม โรงพยาบาลวิภาวดี", "district": "จตุจักร", "snapDistanceMeters": 27.22}}, {"type": "Feature", "geometry": {"type": "Point", "coordinates": [100.56242135577841, 13.84599778290995]}, "properties": {"id": 255837, "name": "ศูนย์จักษุ โรงพยาบาลวิภาวดี", "district": "จตุจักร", "snapDistanceMeters": 27.22}}, {"type": "Feature", "geometry": {"type": "Point", "coordinates": [100.56242135577841, 13.84599778290995]}, "properties": {"id": 255838, "name": "ศูนย์รวมแพทย์ผู้เชี่ยวชาญด้านอายุรกรรม โรงพยาบาลวิภาวดี", "district": "จตุจักร", "snapDistanceMeters": 27.22}}, {"type": "Feature", "geometry": {"type": "Point", "coordinates": [100.56242135577841, 13.84599778290995]}, "properties": {"id": 255839, "name": "ศูนย์สร้างเสริมภูมิคุ้มกันด้วยวัคซีน โรงพยาบาลวิภาวดี", "district": "จตุจักร", "snapDistanceMeters": 27.22}}, {"type": "Feature", "geometry": {"type": "Point", "coordinates": [100.56242135577841, 13.84599778290995]}, "properties": {"id": 255840, "name": "ศูนย์ผิวหนัง โรงพยาบาลวิภาวดี", "district": "จตุจักร", "snapDistanceMeters": 27.22}}, {"type": "Feature", "geometry": {"type": "Point", "coordinates": [100.56242135577841, 13.84599778290995]}, "properties": {"id": 255841, "name": "ศูนย์หัวใจ โรงพยาบาลวิภาวดี", "district": "จตุจักร", "snapDistanceMeters": 27.22}}, {"type": "Feature", "geometry": {"type": "Point", "coordinates": [100.56242135577841, 13.84599778290995]}, "properties": {"id": 255842, "name": "คลินิกอายุรกรรมโรคติดเชื้อ โรงพยาบาลวิภาวดี", "district": "จตุจักร", "snapDistanceMeters": 27.22}}, {"type": "Feature", "geometry": {"type": "Point", "coordinates": [100.56242135577841, 13.84599778290995]}, "properties": {"id": 255843, "name": "ศูนย์โรคระบบการหายใจ โรงพยาบาลวิภาวดี", "district": "จตุจักร", "snapDistanceMeters": 27.22}}, {"type": "Feature", "geometry": {"type": "Point", "coordinates": [100.64547181301387, 13.734623764376234]}, "properties": {"id": 256074, "name": "คลินิกมะเร็งวิทยา โรงพยาบาลวิภาราม", "district": "สวนหลวง", "snapDistanceMeters": 19.6}}, {"type": "Feature", "geometry": {"type": "Point", "coordinates": [100.53483249434746, 13.7674311071349]}, "properties": {"id": 256075, "name": "ศูนย์บริหารงานทรัพยากรบุคคล โรงพยาบาลพระมงกุฎเกล้า", "district": "ราขเทวี", "snapDistanceMeters": 47.81}}, {"type": "Feature", "geometry": {"type": "Point", "coordinates": [100.53483249434746, 13.7674311071349]}, "properties": {"id": 256076, "name": "ศูนย์บริหารยุทธศาสตร์ โรงพยาบาลพระมงกุฎเกล้า", "district": "ราขเทวี", "snapDistanceMeters": 47.81}}, {"type": "Feature", "geometry": {"type": "Point", "coordinates": [100.53483249434746, 13.7674311071349]}, "properties": {"id": 256077, "name": "ศูนย์บริหารงานวิชาการและวิเทศสัมพันธ์ โรงพยาบาลพระมงกุฎเกล้า", "district": "ราขเทวี", "snapDistanceMeters": 47.81}}, {"type": "Feature", "geometry": {"type": "Point", "coordinates": [100.53483249434746, 13.7674311071349]}, "properties": {"id": 256078, "name": "ศูนย์ประสานงานรับและส่งต่อผู้ป่วย โรงพยาบาลพระมงกุฎเกล้า", "district": "ราขเทวี", "snapDistanceMeters": 47.81}}, {"type": "Feature", "geometry": {"type": "Point", "coordinates": [100.5768941087567, 13.734468150097783]}, "properties": {"id": 256079, "name": "คลินิกโรคทางเดินหายใจเด็ก โรงพยาบาลสมิติเวชสุขุมวิท", "district": "วัฒนา", "snapDistanceMeters": 45.67}}, {"type": "Feature", "geometry": {"type": "Point", "coordinates": [100.5768941087567, 13.734468150097783]}, "properties": {"id": 256080, "name": "คลินิกโรคผิวหนัง โรงพยาบาลสมิติเวชสุขุมวิท", "district": "วัฒนา", "snapDistanceMeters": 45.67}}, {"type": "Feature", "geometry": {"type": "Point", "coordinates": [100.5768941087567, 13.734468150097783]}, "properties": {"id": 256081, "name": "คลินิกโรคพันธุกรรม โรงพยาบาลสมิติเวชสุขุมวิท", "district": "วัฒนา", "snapDistanceMeters": 45.67}}, {"type": "Feature", "geometry": {"type": "Point", "coordinates": [100.5768941087567, 13.734468150097783]}, "properties": {"id": 256082, "name": "คลินิกโรคหัวใจในเด็ก โรงพยาบาลสมิติเวชสุขุมวิท", "district": "วัฒนา", "snapDistanceMeters": 45.67}}, {"type": "Feature", "geometry": {"type": "Point", "coordinates": [100.5768941087567, 13.734468150097783]}, "properties": {"id": 256083, "name": "ศูนย์การเจริญเติบโตต่อมไร้ท่อและเบาหวานในเด็ก โรงพยาบาลสมิติเวชสุขุมวิท", "district": "วัฒนา", "snapDistanceMeters": 45.67}}, {"type": "Feature", "geometry": {"type": "Point", "coordinates": [100.5768941087567, 13.734468150097783]}, "properties": {"id": 256084, "name": "ศูนย์ความบกพร่องในการเรียนรู้ โรงพยาบาลสมิติเวชสุขุมวิท", "district": "วัฒนา", "snapDistanceMeters": 45.67}},