{"type": "FeatureCollection", "features": [{"type": "Feature", "geometry": {"type": "Point", "coordinates": [100.5641548674199, 13.716880508750465]}, "properties": {"id": 1076, "name": "ลานกีฬากรุงเทพมหานคร (ชุมชนพัฒนาใหม่ (ลาน 3))", "district": "คลองเตย", "snapDistanceMeters": 45.17}}, {"type": "Feature", "geometry": {"type": "Point", "coordinates": [100.61647614440678, 13.940455299070933]}, "properties": {"id": 20318, "name": "ลานกีฬาต้านยาเสพติดชุมชนศุภลักษณ์", "district": "ดอนเมือง", "snapDistanceMeters": 21.05}}, {"type": "Feature", "geometry": {"type": "Point", "coordinates": [100.75229701246863, 13.791842200268794]}, "properties": {"id": 20725, "name": "ลานกีฬาชุมชนอัลฮูดา", "district": "มีนบุรี", "snapDistanceMeters": 20.7}}, {"type": "Feature", "geometry": {"type": "Point", "coordinates": [100.3455977176127, 13.690894441862122]}, "properties": {"id": 29393, "name": "ลานกีฬากรุงเทพมหานครชุมชนหรรษา 1", "district": "หนองแขม", "snapDistanceMeters": 16.4}}, {"type": "Feature", "geometry": {"type": "Point", "coordinates": [100.53758433925539, 13.830417502922463]}, "properties": {"id": 90455, "name": "ลานกีฬาประชานุกูล", "district": "บางซื่อ", "snapDistanceMeters": 18.3}}, {"type": "Feature", "geometry": {"type": "Point", "coordinates": [100.65488965345386, 13.75500736157144]}, "properties": {"id": 16479, "name": "ลานกีฬาชุมชนมัจฉา", "district": "บางกะปิ", "snapDistanceMeters": 21.14}}, {"type": "Feature", "geometry": {"type": "Point", "coordinates": [100.64978656351413, 13.746758935179733]}, "properties": {"id": 16900, "name": "สนามเด็กเล่นชุมชนซอยคาราบาว", "district": "บางกะปิ", "snapDistanceMeters": 10.6}}, {"type": "Feature", "geometry": {"type": "Point", "coordinates": [100.46730532761987, 13.792191280116489]}, "properties": {"id": 15306, "name": "ลานกีฬาชุมชนวัดน้อยใน", "district": "ตลิ่งชัน", "snapDistanceMeters": 43.63}}, {"type": "Feature", "geometry": {"type": "Point", "coordinates": [100.44133630472125, 13.773724125007476]}, "properties": {"id": 15545, "name": "ลานกีฬาชุมชนวัดทองบางระมาด", "district": "ตลิ่งชัน", "snapDistanceMeters": 8.99}}, {"type": "Feature", "geometry": {"type": "Point", "coordinates": [100.73715688933471, 13.762095672170782]}, "properties": {"id": 30134, "name": "ลานกีฬากรุงเทพมหานครเคหะชุมชนร่มเกล้าระยะ 2 โซน 9", "district": "ลาดกระบัง", "snapDistanceMeters": 14.07}}, {"type": "Feature", "geometry": {"type": "Point", "coordinates": [100.73134971564944, 13.768274911367028]}, "properties": {"id": 30199, "name": "ลานกีฬากรุงเทพมหานครเคหะชุมชนร่มเกล้าโซน 3", "district": "ลาดกระบัง", "snapDistanceMeters": 18.72}}, {"type": "Feature", "geometry": {"type": "Point", "coordinates": [100.60801986209744, 13.828159127823781]}, "properties": {"id": 15256, "name": "สนามเด็กเล่น", "district": "ลาดพร้าว", "snapDistanceMeters": 64.93}}, {"type": "Feature", "geometry": {"type": "Point", "coordinates": [100.7361614063667, 13.760596443585504]}, "properties": {"id": 30191, "name": "ลานกีฬากรุงเทพมหานครชุมชนฟื้นนครร่มเกล้าระยะ 4 โซน 10", "district": "ลาดกระบัง", "snapDistanceMeters": 12.34}}, {"type": "Feature", "geometry": {"type": "Point", "coordinates": [100.73160498813498, 13.770764925252381]}, "properties": {"id": 30282, "name": "ลานกีฬากรุงเทพมหานครเคหะชุมชนร่มเกล้าโซน 2", "district": "ลาดกระบัง", "snapDistanceMeters": 20.01}}, {"type": "Feature", "geometry": {"type": "Point", "coordinates": [100.73696146879772, 13.768744427307688]}, "properties": {"id": 30049, "name": "ลานกีฬากรุงเทพมหานครชุมชนฟื้นนครร่มเกล้าระยะ 5 โซน 11", "district": "ลาดกระบัง", "snapDistanceMeters": 38.1}}, {"type": "Feature", "geometry": {"type": "Point", "coordinates": [100.5047912141732, 13.606828895569091]}, "properties": {"id": 30084, "name": "ลานกีฬากรุงเทพมหานครแฟลตทุ่งครุ", "district": "ทุ่งครุ", "snapDistanceMeters": 14.36}}, {"type": "Feature", "geometry": {"type": "Point", "coordinates": [100.49427948019307, 13.747722043710423]}, "properties": {"id": 36565, "name": "สวนสาธารณะ", "district": "พระนคร", "snapDistanceMeters": 16.63}}, {"type": "Feature", "geometry": {"type": "Point", "coordinates": [100.51984071337627, 13.700221923545724]}, "properties": {"id": 36615, "name": "ลานกีฬาอเนกประสงค์เมืองอยู่ดี", "district": "บางคอแหลม", "snapDistanceMeters": 2.44}}, {"type": "Feature", "geometry": {"type": "Point", "coordinates": [100.6009359302713, 13.778399274764611]}, "properties": {"id": 36251, "name": "สนามเด็กเล่น", "district": "วังทองหลาง", "snapDistanceMeters": 10.62}}, {"type": "Feature", "geometry": {"type": "Point", "coordinates": [100.6437144067772, 13.78317799786344]}, "properties": {"id": 56613, "name": "ลานกีฬาอเนกประสงค์", "district": "บางกะปิ", "snapDistanceMeters": 22.49}}, {"type": "Feature", "geometry": {"type": "Point", "coordinates": [100.50662293559104, 13.757224072747817]}, "properties": {"id": 131575, "name": "ลานกีฬากรุงเทพมหานคร", "district": "ป้อมปราบศัตรูพ่าย", "snapDistanceMeters": 20.23}}, {"type": "Feature", "geometry": {"type": "Point", "coordinates": [100.62974852332114, 13.789320573158662]}, "properties": {"id": 131694, "name": "ลานกีฬาต้านยาเสพติดชุมชนโครงการร่วมกันสร้าง", "district": "บางกะปิ", "snapDistanceMeters": 10.93}}, {"type": "Feature", "geometry": {"type": "Point", "coordinates": [100.61470325586599, 13.688373997351315]}, "properties": {"id": 78315, "name": "ลานกีฬากรุงเทพมหานครวัดธรรมมงคล", "district": "พระโขนง", "snapDistanceMeters": 30.83}}, {"type": "Feature", "geometry": {"type": "Point", "coordinates": [100.59289790092176, 13.884609108981941]}, "properties": {"id": 84798, "name": "สนามเด็กเล่นสดใสซอย 4", "district": "บางเขน", "snapDistanceMeters": 26.37}}, {"type": "Feature", "geometry": {"type": "Point", "coordinates": [100.49218009049663, 13.709110490867628]}, "properties": {"id": 55256, "name": "ลานกีฬากรุงเทพมหานครโรงเรียนวัดราชวรินทร์", "district": "ธนบุรี", "snapDistanceMeters": 1.43}}, {"type": "Feature", "geometry": {"type": "Point", "coordinates": [100.79576199012274, 13.846965937489989]}, "properties": {"id": 54846, "name": "ลานกีฬาชุมชนคู้ล่างสร้างสรรค์", "district": "มีนบุรี", "snapDistanceMeters": 10.48}}, {"type": "Feature", "geometry": {"type": "Point", "coordinates": [100.68490928086457, 13.89123104664787]}, "properties": {"id": 83618, "name": "ลานกีฬาชุมชนวัชรพล 3", "district": "สายไหม", "snapDistanceMeters": 14.56}}, {"type": "Feature", "geometry": {"type": "Point", "coordinates": [100.65973384330074, 13.687359729312371]}, "properties": {"id": 32476, "name": "สนามเด็กเล่นโรงเรียนมาแตร์เดอี", "district": "ประเวศ", "snapDistanceMeters": 36.18}}, {"type": "Feature", "geometry": {"type": "Point", "coordinates": [100.59628470499709, 13.944940637278021]}, "properties": {"id": 31618, "name": "ลานกีฬาชุมชนอยู่เจริญ-บุญมา", "district": "ดอนเมือง", "snapDistanceMeters": 22.13}}, {"type": "Feature", "geometry": {"type": "Point", "coordinates": [100.61271119820515, 13.942141246572612]}, "properties": {"id": 31630, "name": "สนามเด็กเล่น", "district": "ดอนเมือง", "snapDistanceMeters": 48.47}}, {"type": "Feature", "geometry": {"type": "Point", "coordinates": [100.47538545596056, 13.738519661963869]}, "properties": {"id": 130521, "name": "ลานกีฬากรุงเทพมหานครชุมชนโค้งกระเทียม", "district": "บางกอกใหญ่", "snapDistanceMeters": 17.93}}, {"type": "Feature", "geometry": {"type": "Point", "coordinates": [100.48100408408271, 13.758539798845112]}, "properties": {"id": 129437, "name": "ลานกีฬาวัดวิเศษ-วัดฉิม", "district": "บางกอกน้อย", "snapDistanceMeters": 12.54}}, {"type": "Feature", "geometry": {"type": "Point", "coordinates": [100.60974430395201, 13.948270737687722]}, "properties": {"id": 30854, "name": "สนามเด็กเล่นและสวนสุขภาพ", "district": "ดอนเมือง", "snapDistanceMeters": 20.58}}, {"type": "Feature", "geometry": {"type": "Point", "coordinates": [100.68894367158708, 13.790046391325435]}, "properties": {"id": 31076, "name": "ลานกีฬาชุมชนสุเหร่าแดง", "district": "คันนายาว", "snapDistanceMeters": 11.47}}, {"type": "Feature", "geometry": {"type": "Point", "coordinates": [100.54171438573343, 13.826338505136492]}, "properties": {"id": 84284, "name": "ลานกีฬาแฟลต บก. สูงสุด", "district": "จตุจักร", "snapDistanceMeters": 14.15}}, {"type": "Feature", "geometry": {"type": "Point", "coordinates": [100.61871943955995, 13.903138921793044]}, "properties": {"id": 84819, "name": "สนามเด็กเล่นชุมชน กสบ.", "district": "สายไหม", "snapDistanceMeters": 16.6}}, {"type": "Feature", "geometry": {"type": "Point", "coordinates": [100.58914697363727, 13.704725544143578]}, "properties": {"id": 24759, "name": "ลานกีฬาหิมะทองคำ", "district": "คลองเตย", "snapDistanceMeters": 2.05}}, {"type": "Feature", "geometry": {"type": "Point", "coordinates": [100.7111706773083, 13.702441709106019]}, "properties": {"id": 25039, "name": "กลุ่มงานขยายพันธุ์ไม้ สำนักงานสวนสาธารณะ", "district": "ประเวศ", "snapDistanceMeters": 35.42}}, {"type": "Feature", "geometry": {"type": "Point", "coordinates": [100.60497368615854, 13.746487257656039]}, "properties": {"id": 31529, "name": "ลานกีฬากรุงเทพมหานคร (ชุมชนเยรูซาเล็ม)", "district": "บางกะปิ", "snapDistanceMeters": 3.5}}, {"type": "Feature", "geometry": {"type": "Point", "coordinates": [100.57559136730472, 13.919717376744732]}, "properties": {"id": 32069, "name": "ลานกีฬาต้านยาเสพติดชุมชนศิริสุข", "district": "ดอนเมือง", "snapDistanceMeters": 31.54}}, {"type": "Feature", "geometry": {"type": "Point", "coordinates": [100.58756560653829, 13.944219264867728]}, "properties": {"id": 31606, "name": "ลานกีฬาร่วมใจพัฒนา", "district": "ดอนเมือง", "snapDistanceMeters": 27.48}}, {"type": "Feature", "geometry": {"type": "Point", "coordinates": [100.50192854597569, 13.75493221955821]}, "properties": {"id": 98884, "name": "ฝ่ายรักษาความสะอาดและสวนสาธารณะสำนักงานเขตพระนคร", "district": "พระนคร", "snapDistanceMeters": 27.57}}, {"type": "Feature", "geometry": {"type": "Point", "coordinates": [100.35622165977438, 13.693308121091126]}, "properties": {"id": 99207, "name": "ลานกีฬากรุงเทพมหานครชุมชนสวัสดิการหนองแขม", "district": "หนองแขม", "snapDistanceMeters": 16.03}}, {"type": "Feature", "geometry": {"type": "Point", "coordinates": [100.85911081176359, 13.852028273785809]}, "properties": {"id": 24916, "name": "สวนสาธารณะหนองจอก", "district": "หนองจอก", "snapDistanceMeters": 7.71}}, {"type": "Feature", "geometry": {"type": "Point", "coordinates": [100.61791735798643, 13.81229628160345]}, "properties": {"id": 59851, "name": "สนามเด็กเล่น", "district": "ลาดพร้าว", "snapDistanceMeters": 17.21}}, {"type": "Feature", "geometry": {"type": "Point", "coordinates": [100.62235842516579, 13.671437743960539]}, "properties": {"id": 99719, "name": "ลานกีฬาอเนกประสงค์", "district": "บางนา", "snapDistanceMeters": 15.83}}, {"type": "Feature", "geometry": {"type": "Point", "coordinates": [100.68386423501617, 13.67552186452573]}, "properties": {"id": 59622, "name": "ลานกีฬากรุงเทพมหานคร", "district": "ประเวศ", "snapDistanceMeters": 38.81}}, {"type": "Feature", "geometry": {"type": "Point", "coordinates": [100.49931231790421, 13.760428722690065]}, "properties": {"id": 99227, "name": "สวนหย่อมถนนสิบสามห้าง", "district": "พระนคร", "snapDistanceMeters": 25.82}}, {"type": "Feature", "geometry": {"type": "Point", "coordinates": [100.63983659373885, 13.851754223419986]}, "properties": {"id": 59876, "name": "ลานกีฬาวัชรพล", "district": "บางเขน", "snapDistanceMeters": 4.54}}, {"type": "Feature", "geometry": {"type": "Point", "coordinates": [100.41859291040622, 13.644892251118057]}, "properties": {"id": 66332, "name": "ลานกีฬาเคหะ 1 ส่วน 5", "district": "บางขุนเทียน", "snapDistanceMeters": 29.16}}, {"type": "Feature", "geometry": {"type": "Point", "coordinates": [100.42210028497789, 13.646688353729356]}, "properties": {"id": 66641, "name": "ลานกีฬาการเคหะธนบุรี 1 ส่วน 1", "district": "บางขุนเทียน", "snapDistanceMeters": 25.94}}, {"type": "Feature", "geometry": {"type": "Point", "coordinates": [100.57944726857745, 13.809857295281606]}, "properties": {"id": 64862, "name": "สนามเด็กเล่น", "district": "จตุจักร", "snapDistanceMeters": 22.08}}, {"type": "Feature", "geometry": {"type": "Point", "coordinates": [100.64203190700916, 13.71094928804433]}, "properties": {"id": 64762, "name": "ลานกีฬากรุงเทพมหานครชุมชนเอื้ออารีย์", "district": "สวนหลวง", "snapDistanceMeters": 39.17}}, {"type": "Feature", "geometry": {"type": "Point", "coordinates": [100.46319933356888, 13.687665149030282]}, "properties": {"id": 64888, "name": "ลานกีฬากรุงเทพมหานครชุมชนรัตนกวี", "district": "จอมทอง", "snapDistanceMeters": 27.85}}, {"type": "Feature", "geometry": {"type": "Point", "coordinates": [100.55715256671135, 13.838240414981104]}, "properties": {"id": 65165, "name": "สวนหย่อมวัดเสมียนนารี", "district": "จตุจักร", "snapDistanceMeters": 38.3}}, {"type": "Feature", "geometry": {"type": "Point", "coordinates": [100.61409419764773, 13.852705594292543]}, "properties": {"id": 65149, "name": "ลานกีฬาชุมชนวัดไตรรัตนาราม", "district": "บางเขน", "snapDistanceMeters": 29.4}}, {"type": "Feature", "geometry": {"type": "Point", "coordinates": [100.56299866379022, 13.904350389719964]}, "properties": {"id": 64743, "name": "ลานกีฬาต้านภัยยาเสพติดสมาคมเมืองทองนิเวศน์", "district": "หลักสี่", "snapDistanceMeters": 16.6}}, {"type": "Feature", "geometry": {"type": "Point", "coordinates": [100.52052379580935, 13.819934954561232]}, "properties": {"id": 87306, "name": "ลานกีฬาอเนกประสงค์", "district": "บางซื่อ", "snapDistanceMeters": 10.4}}, {"type": "Feature", "geometry": {"type": "Point", "coordinates": [100.5138480974949, 13.673459851328325]}, "properties": {"id": 47956, "name": "ลานกีฬาอเนกประสงค์ชุมชนวัดสน", "district": "ราษฎร์บูรณะ", "snapDistanceMeters": 18.45}}, {"type": "Feature", "geometry": {"type": "Point", "coordinates": [100.64704706094993, 13.928982142479676]}, "properties": {"id": 64586, "name": "ลานกีฬาอเนกประสงค์ชุมชนมนชญา 1", "district": "สายไหม", "snapDistanceMeters": 22.19}}, {"type": "Feature", "geometry": {"type": "Point", "coordinates": [100.4590082035008, 13.670120501448807]}, "properties": {"id": 62364, "name": "ลานกีฬากรุงเทพมหานครชุมชนสินทวีวิลล่า", "district": "จอมทอง", "snapDistanceMeters": 16.38}}, {"type": "Feature", "geometry": {"type": "Point", "coordinates": [100.65240849057874, 13.767045439853282]}, "properties": {"id": 81839, "name": "ลานกีฬากรุงเทพมหานครโรงเรียนวัดศรีบุญเรือง", "district": "บางกะปิ", "snapDistanceMeters": 23.56}}, {"type": "Feature", "geometry": {"type": "Point", "coordinates": [100.45923178969456, 13.663005836898247]}, "properties": {"id": 62260, "name": "ลานกีฬาอเนกประสงค์", "district": "จอมทอง", "snapDistanceMeters": 15.85}}, {"type": "Feature", "geometry": {"type": "Point", "coordinates": [100.55370199114694, 13.718159539156852]}, "properties": {"id": 69084, "name": "ลานกีฬาชุมชนริมทางรถไฟสายท่าเรือ", "district": "คลองเตย", "snapDistanceMeters": 3.07}}, {"type": "Feature", "geometry": {"type": "Point", "coordinates": [100.59964716015082, 13.71345588668513]}, "properties": {"id": 68616, "name": "ลานกีฬาแสงทิพย์", "district": "วัฒนา", "snapDistanceMeters": 16.18}}, {"type": "Feature", "geometry": {"type": "Point", "coordinates": [100.55175639759958, 13.751180054835705]}, "properties": {"id": 68032, "name": "ลานกีฬาอเนกประสงค์ชุมชนโรงพยาบาลบุรฉัตรไชยากร", "district": "ราขเทวี", "snapDistanceMeters": 29.67}}, {"type": "Feature", "geometry": {"type": "Point", "coordinates": [100.73474806207189, 13.816848803414654]}, "properties": {"id": 74365, "name": "ฝ่ายรักษาความสะอาดและสวนสาธารณะสำนักงานเขตมีนบุรี", "district": "มีนบุรี", "snapDistanceMeters": 38.02}}, {"type": "Feature", "geometry": {"type": "Point", "coordinates": [100.59314444257188, 13.6771282050434]}, "properties": {"id": 67389, "name": "สนามเด็กเล่นชุมชนไม้อัดไทย", "district": "บางนา", "snapDistanceMeters": 6.93}}, {"type": "Feature", "geometry": {"type": "Point", "coordinates": [100.57399974696494, 13.903571505227017]}, "properties": {"id": 68236, "name": "สวนสาธารณะ", "district": "หลักสี่", "snapDistanceMeters": 22.59}}, {"type": "Feature", "geometry": {"type": "Point", "coordinates": [100.56109020253197, 13.709938700998594]}, "properties": {"id": 72960, "name": "ลานกีฬากรุงเทพมหานคร", "district": "คลองเตย", "snapDistanceMeters": 31.18}}, {"type": "Feature", "geometry": {"type": "Point", "coordinates": [100.47708048004225, 13.680979167898021]}, "properties": {"id": 40166, "name": "ลานกีฬาบางมด", "district": "จอมทอง", "snapDistanceMeters": 19.79}}, {"type": "Feature", "geometry": {"type": "Point", "coordinates": [100.73668573825694, 13.770843306713047]}, "properties": {"id": 38372, "name": "ลานกีฬากรุงเทพมหานครชุมชนฟื้นนครร่มเกล้าระยะ 3 โซน 8", "district": "ลาดกระบัง", "snapDistanceMeters": 29.22}}, {"type": "Feature", "geometry": {"type": "Point", "coordinates": [100.6926257755394, 13.746856580581419]}, "properties": {"id": 38283, "name": "ลานกีฬาอเนกประสงค์", "district": "สะพานสูง", "snapDistanceMeters": 40.9}}, {"type": "Feature", "geometry": {"type": "Point", "coordinates": [100.43767546533901, 13.689142693608357]}, "properties": {"id": 89513, "name": "ลานกีฬาชุมชนสวนผัก", "district": "บางบอน", "snapDistanceMeters": 15.49}}, {"type": "Feature", "geometry": {"type": "Point", "coordinates": [100.76690636708577, 13.830019840660768]}, "properties": {"id": 89314, "name": "ลานกีฬาชุมชนอิดซ์ฮาร์ด", "district": "มีนบุรี", "snapDistanceMeters": 23.54}}, {"type": "Feature", "geometry": {"type": "Point", "coordinates": [100.41802243178716, 13.65165884332045]}, "properties": {"id": 89709, "name": "สวนสาธารณะเคหะชุมชนธนบุรี 3", "district": "บางขุนเทียน", "snapDistanceMeters": 26.29}}, {"type": "Feature", "geometry": {"type": "Point", "coordinates": [100.65693233229149, 13.764808239221054]}, "properties": {"id": 114654, "name": "สนามเด็กเล่นเฉลิมพระเกียรติ", "district": "บางกะปิ", "snapDistanceMeters": 12.04}}, {"type": "Feature", "geometry": {"type": "Point", "coordinates": [100.58622456442527, 13.909602149536793]}, "properties": {"id": 133840, "name": "ลานกีฬาอเนกประสงค์ชุมชนรัตนาวลัย", "district": "ดอนเมือง", "snapDistanceMeters": 25.31}}, {"type": "Feature", "geometry": {"type": "Point", "coordinates": [100.66404950895571, 13.76063710832312]}, "properties": {"id": 114614, "name": "ลานกีฬาอเนกประสงค์", "district": "บางกะปิ", "snapDistanceMeters": 14.65}}, {"type": "Feature", "geometry": {"type": "Point", "coordinates": [100.63929607354068, 13.842850679680069]}, "properties": {"id": 113547, "name": "ลานกีฬาอเนกประสงค์", "district": "บึงกุ่ม", "snapDistanceMeters": 15.31}}, {"type": "Feature", "geometry": {"type": "Point", "coordinates": [100.55484120678013, 13.765481371138385]}, "properties": {"id": 4250, "name": "ลานกีฬากรุงเทพมหานครแฟลต 44-46 เคหะชุมชนดินแดง 2", "district": "ดินแดง", "snapDistanceMeters": 67.06}}, {"type": "Feature", "geometry": {"type": "Point", "coordinates": [100.55397377878825, 13.76462877613472]}, "properties": {"id": 4251, "name": "ลานกีฬากรุงเทพมหานครแฟลตซอย 2 เคหะชุมชนดินแดง 2", "district": "ดินแดง", "snapDistanceMeters": 19.33}}, {"type": "Feature", "geometry": {"type": "Point", "coordinates": [100.5234328930949, 13.754728668700178]}, "properties": {"id": 4308, "name": "ลานกีฬาอุรุพงษ์", "district": "ราขเทวี", "snapDistanceMeters": 17.69}}, {"type": "Feature", "geometry": {"type": "Point", "coordinates": [100.63382090183543, 13.883009164362676]}, "properties": {"id": 89873, "name": "ลานกีฬาชุมชนเพชรสยาม", "district": "บางเขน", "snapDistanceMeters": 17.12}}, {"type": "Feature", "geometry": {"type": "Point", "coordinates": [100.51072483273236, 13.72025240478577]}, "properties": {"id": 2827, "name": "ลานกีฬาต้านยาเสพติด", "district": "คลองสาน", "snapDistanceMeters": 42.23}}, {"type": "Feature", "geometry": {"type": "Point", "coordinates": [100.51970967387737, 13.716758448596567]}, "properties": {"id": 2839, "name": "ลานกีฬากรุงเทพมหานครชุมชนบ้านแบบ", "district": "สาทร", "snapDistanceMeters": 8.58}}, {"type": "Feature", "geometry": {"type": "Point", "coordinates": [100.63718069455884, 13.821026531789025]}, "properties": {"id": 77628, "name": "สนามเด็กเล่น", "district": "บึงกุ่ม", "snapDistanceMeters": 24.7}}, {"type": "Feature", "geometry": {"type": "Point", "coordinates": [100.5511999494802, 13.72786933780069]}, "properties": {"id": 77567, "name": "ลานกีฬาอเนกประสงค์", "district": "ปทุมวัน", "snapDistanceMeters": 45.4}}, {"type": "Feature", "geometry": {"type": "Point", "coordinates": [100.5747806288812, 13.903048887118107]}, "properties": {"id": 57585, "name": "กลุ่ม 305 ลานกีฬาเพื่อสุขภาพ", "district": "หลักสี่", "snapDistanceMeters": 27.53}}, {"type": "Feature", "geometry": {"type": "Point", "coordinates": [100.48463881745104, 13.734035350043351]}, "properties": {"id": 57357, "name": "ลานกีฬากรุงเทพมหานครชุมชนวัดสังข์กระจาย", "district": "บางกอกใหญ่", "snapDistanceMeters": 17.25}}, {"type": "Feature", "geometry": {"type": "Point", "coordinates": [100.65094903062018, 13.75044470499236]}, "properties": {"id": 41112, "name": "ลานกีฬาอเนกประสงค์ชุมชนลำสาลีพัฒนา", "district": "บางกะปิ", "snapDistanceMeters": 28.9}}, {"type": "Feature", "geometry": {"type": "Point", "coordinates": [100.79082570414688, 13.717842371794385]}, "properties": {"id": 75512, "name": "ลานกีฬากรุงเทพมหานครอาคารสงเคราะห์ถนนหลวงแพ่ง", "district": "ลาดกระบัง", "snapDistanceMeters": 27.96}}, {"type": "Feature", "geometry": {"type": "Point", "coordinates": [100.88137222934857, 13.805083116769135]}, "properties": {"id": 75988, "name": "สวนสาธารณะเพ็ญศิริเพลส สุวินทวงศ์-สุวรรณภูมิ", "district": "หนองจอก", "snapDistanceMeters": 17.69}}, {"type": "Feature", "geometry": {"type": "Point", "coordinates": [100.48622614033522, 13.728114659461104]}, "properties": {"id": 75290, "name": "ฝ่ายรักษาความสะอาดและสวนสาธารณะ", "district": "ธนบุรี", "snapDistanceMeters": 9.97}}, {"type": "Feature", "geometry": {"type": "Point", "coordinates": [100.71671569741498, 13.789291903694853]}, "properties": {"id": 76079, "name": "ลานกีฬาอเนกประสงค์", "district": "มีนบุรี", "snapDistanceMeters": 33.25}}, {"type": "Feature", "geometry": {"type": "Point", "coordinates": [100.88948366391374, 13.904806489203342]}, "properties": {"id": 76153, "name": "ลานกีฬากรุงเทพมหานคร", "district": "หนองจอก", "snapDistanceMeters": 15.75}}, {"type": "Feature", "geometry": {"type": "Point", "coordinates": [100.55703323162699, 13.765987092571716]}, "properties": {"id": 57057, "name": "ลานกีฬากรุงเทพมหานครลานกีฬาแฟลต 51-53 เคหะชุมชนดินแดง 2", "district": "ดินแดง", "snapDistanceMeters": 31.82}}, {"type": "Feature", "geometry": {"type": "Point", "coordinates": [100.57157201703944, 13.855745627228373]}, "properties": {"id": 57073, "name": "ลานกีฬาชุมชนโรงสูบ", "district": "จตุจักร", "snapDistanceMeters": 18.75}}, {"type": "Feature", "geometry": {"type": "Point", "coordinates": [100.60030363969831, 13.933618964570547]}, "properties": {"id": 136151, "name": "ลานกีฬาต้านยาเสพติดชุมชนปิ่นเจริญ 2", "district": "ดอนเมือง", "snapDistanceMeters": 43.06}}, {"type": "Feature", "geometry": {"type": "Point", "coordinates": [100.62072147086168, 13.855834308416977]}, "properties": {"id": 136855, "name": "สนามเด็กเล่นพร้อมสุข", "district": "บางเขน", "snapDistanceMeters": 18.72}}, {"type": "Feature", "geometry": {"type": "Point", "coordinates": [100.5190000994815, 13.73594073926521]}, "properties": {"id": 136729, "name": "ลานกีฬาการทางพิเศษฯ", "district": "บางรัก", "snapDistanceMeters": 28.99}}, {"type": "Feature", "geometry": {"type": "Point", "coordinates": [100.57020298332512, 13.949497463846482]}, "properties": {"id": 136737, "name": "ลานกีฬาต้านยาเสพติดเยาวชนปิ่นเจริญ 4", "district": "ดอนเมือง", "snapDistanceMeters": 20.72}}, {"type": "Feature", "geometry": {"type": "Point", "coordinates": [100.84540090973258, 13.701380578321636]}, "properties": {"id": 76357, "name": "ลานกีฬากรุงเทพมหานครชุมชนวัดราชโกษา", "district": "ลาดกระบัง", "snapDistanceMeters": 80.71}}, {"type": "Feature", "geometry": {"type": "Point", "coordinates": [100.40237178654588, 13.74075156277699]}, "properties": {"id": 75679, "name": "ฝ่ายรักษาความสะอาดและสวนสาธารณะ", "district": "บางแค", "snapDistanceMeters": 32.43}}, {"type": "Feature", "geometry": {"type": "Point", "coordinates": [100.81537831762323, 13.852755912542031]}, "properties": {"id": 77029, "name": "ลานกีฬากรุงเทพมหานครชุมชนแผ่นดินทองนูรุสลาม", "district": "หนองจอก", "snapDistanceMeters": 29.3}}, {"type": "Feature", "geometry": {"type": "Point", "coordinates": [100.52111788678775, 13.747922165030527]}, "properties": {"id": 77159, "name": "ลานกีฬาจารุเมือง", "district": "ปทุมวัน", "snapDistanceMeters": 18.27}}, {"type": "Feature", "geometry": {"type": "Point", "coordinates": [100.59512754104179, 13.933273846617054]}, "properties": {"id": 136149, "name": "สนามเด็กเล่นชุมชนปิ่นเจริญ 1", "district": "ดอนเมือง", "snapDistanceMeters": 29.31}}, {"type": "Feature", "geometry": {"type": "Point", "coordinates": [100.61475504486674, 13.904654804762856]}, "properties": {"id": 137247, "name": "สนามเด็กเล่น", "district": "สายไหม", "snapDistanceMeters": 18.31}}, {"type": "Feature", "geometry": {"type": "Point", "coordinates": [100.6993118185535, 13.72194686982907]}, "properties": {"id": 45471, "name": "ลานกีฬา-สวนสุขภาพประเวศ", "district": "ประเวศ", "snapDistanceMeters": 18.06}}, {"type": "Feature", "geometry": {"type": "Point", "coordinates": [100.41285150833764, 13.79522036373786]}, "properties": {"id": 44601, "name": "ลานกีฬาต้านยาเสพติดฉิมพลีหมู่ที่ 7", "district": "ตลิ่งชัน", "snapDistanceMeters": 20.7}}, {"type": "Feature", "geometry": {"type": "Point", "coordinates": [100.51786368210676, 13.704271372865719]}, "properties": {"id": 44047, "name": "สวนหย่อมและลานกีฬาใต้ทางด่วนซอยอยู่ดี", "district": "สาทร", "snapDistanceMeters": 10.5}}, {"type": "Feature", "geometry": {"type": "Point", "coordinates": [100.55282889473031, 13.81175848919282]}, "properties": {"id": 50603, "name": "สนามเด็กเล่นบิ๊กซี 1", "district": "จตุจักร", "snapDistanceMeters": 19.1}}, {"type": "Feature", "geometry": {"type": "Point", "coordinates": [100.61609325873312, 13.732894026866557]}, "properties": {"id": 49019, "name": "ลานกีฬาชุมชนแหลมทองพัฒนา", "district": "สวนหลวง", "snapDistanceMeters": 27.27}}, {"type": "Feature", "geometry": {"type": "Point", "coordinates": [100.72053019779769, 13.876155332930743]}, "properties": {"id": 35286, "name": "ลานกีฬาชุมชน", "district": "คลองสามวา", "snapDistanceMeters": 34.72}}, {"type": "Feature", "geometry": {"type": "Point", "coordinates": [100.47689161125298, 13.722219816639372]}, "properties": {"id": 49093, "name": "ลานกีฬากรุงเทพมหานครใต้สะพานตลาดพลู", "district": "ธนบุรี", "snapDistanceMeters": 11.04}}, {"type": "Feature", "geometry": {"type": "Point", "coordinates": [100.42602470422561, 13.644326321152608]}, "properties": {"id": 34718, "name": "ลานกีฬาการเคหะธนบุรี 1 ส่วน 3", "district": "บางขุนเทียน", "snapDistanceMeters": 18.59}}, {"type": "Feature", "geometry": {"type": "Point", "coordinates": [100.66150107344656, 13.817172967953695]}, "properties": {"id": 33242, "name": "ลานกีฬา 1 เคหะธานี 3", "district": "คันนายาว", "snapDistanceMeters": 29.52}}, {"type": "Feature", "geometry": {"type": "Point", "coordinates": [100.58362889761632, 13.910788133747117]}, "properties": {"id": 93246, "name": "สนามเด็กเล่น", "district": "ดอนเมือง", "snapDistanceMeters": 19.92}}, {"type": "Feature", "geometry": {"type": "Point", "coordinates": [100.54755829545374, 13.82334436942604]}, "properties": {"id": 49729, "name": "ลานกีฬาใต้ทางด่วนการทางพิเศษแห่งประเทศไทยชุมชนภักดี", "district": "จตุจักร", "snapDistanceMeters": 9.26}}, {"type": "Feature", "geometry": {"type": "Point", "coordinates": [100.83307526745529, 13.857433832430166]}, "properties": {"id": 27292, "name": "ลานกีฬากรุงเทพมหานคร", "district": "หนองจอก", "snapDistanceMeters": 25.92}}, {"type": "Feature", "geometry": {"type": "Point", "coordinates": [100.7364580181086, 13.807278633735391]}, "properties": {"id": 34205, "name": "ลานกีฬาอเนกประสงค์", "district": "มีนบุรี", "snapDistanceMeters": 16.0}}, {"type": "Feature", "geometry": {"type": "Point", "coordinates": [100.61866045392793, 13.89334626388416]}, "properties": {"id": 197889, "name": "ลานกีฬาต้านภัยยาเสพติดชุมชนซอยทหารอากาศ 52", "district": "สายไหม", "snapDistanceMeters": 8.33}}, {"type": "Feature", "geometry": {"type": "Point", "coordinates": [100.59841718750148, 13.717771309874866]}, "properties": {"id": 168712, "name": "ลานกีฬากรุงเทพมหานคร", "district": "วัฒนา", "snapDistanceMeters": 8.4}}, {"type": "Feature", "geometry": {"type": "Point", "coordinates": [100.66721985242854, 13.927860258433585]}, "properties": {"id": 170076, "name": "ลานกีฬาอเนกประสงค์ชุมชนมนชญา 2", "district": "สายไหม", "snapDistanceMeters": 17.66}}, {"type": "Feature", "geometry": {"type": "Point", "coordinates": [100.61970035479779, 13.705188997927632]}, "properties": {"id": 171417, "name": "ลานกีฬาชุมชนภูมิสุข", "district": "สวนหลวง", "snapDistanceMeters": 12.0}}, {"type": "Feature", "geometry": {"type": "Point", "coordinates": [100.80672826204533, 13.826020577709993]}, "properties": {"id": 165586, "name": "ลานกีฬากรุงเทพมหานครชุมชนแผ่นดินทองยะมีอุ้ลมุตตะกีน", "district": "หนองจอก", "snapDistanceMeters": 11.85}}, {"type": "Feature", "geometry": {"type": "Point", "coordinates": [100.55783480314837, 13.767616034384492]}, "properties": {"id": 169467, "name": "ลานกีฬาแฟลต 58 เคหะชุมชนดินแดง 2", "district": "ดินแดง", "snapDistanceMeters": 26.64}}, {"type": "Feature", "geometry": {"type": "Point", "coordinates": [100.83942400871653, 13.854373508139464]}, "properties": {"id": 165168, "name": "ลานกีฬาอเนกประสงค์", "district": "หนองจอก", "snapDistanceMeters": 32.33}}, {"type": "Feature", "geometry": {"type": "Point", "coordinates": [100.88818462030822, 13.802267582118171]}, "properties": {"id": 165221, "name": "ลานกีฬาต้านยาเสพติดมัสยิดดารุซซอลีฮีน (คลองสอง)", "district": "หนองจอก", "snapDistanceMeters": 16.9}}, {"type": "Feature", "geometry": {"type": "Point", "coordinates": [100.85437658290063, 13.862374972736724]}, "properties": {"id": 164597, "name": "ลานกีฬาโรงเรียนหนองจอกพิทยานุสรณ์", "district": "หนองจอก", "snapDistanceMeters": 37.21}}, {"type": "Feature", "geometry": {"type": "Point", "coordinates": [100.84082053522118, 13.83184892303169]}, "properties": {"id": 165249, "name": "ลานกีฬาอเนกประสงค์", "district": "หนองจอก", "snapDistanceMeters": 28.3}}, {"type": "Feature", "geometry": {"type": "Point", "coordinates": [100.72910662717177, 13.76958063291928]}, "properties": {"id": 181380, "name": "ลานกีฬากรุงเทพมหานครเคหะชุมชนร่มเกล้าสนาม 2", "district": "ลาดกระบัง", "snapDistanceMeters": 17.19}}, {"type": "Feature", "geometry": {"type": "Point", "coordinates": [100.72946797429239, 13.767411522427592]}, "properties": {"id": 181381, "name": "ลานกีฬากรุงเทพมหานครเคหะชุมชนร่มเกล้าสนาม 1", "district": "ลาดกระบัง", "snapDistanceMeters": 25.88}}, {"type": "Feature", "geometry": {"type": "Point", "coordinates": [100.7344481673172, 13.76584171022757]}, "properties": {"id": 191002, "name": "ลานกีฬากรุงเทพมหานครเคหะชุมชนนร่มเกล้าโซน 5", "district": "ลาดกระบัง", "snapDistanceMeters": 12.42}}, {"type": "Feature", "geometry": {"type": "Point", "coordinates": [100.54947811170275, 13.764045513406485]}, "properties": {"id": 186208, "name": "ลานกีฬากรุงเทพมหานครเคหะชุมชนดินแดง 1", "district": "ดินแดง", "snapDistanceMeters": 42.51}}, {"type": "Feature", "geometry": {"type": "Point", "coordinates": [100.618237635897, 13.685220482321627]}, "properties": {"id": 102651, "name": "ลานกีฬากรุงเทพมหานครชุมชนบุญกุศล", "district": "พระโขนง", "snapDistanceMeters": 7.25}}, {"type": "Feature", "geometry": {"type": "Point", "coordinates": [100.48961562493042, 13.739389989357457]}, "properties": {"id": 181459, "name": "ลานกีฬากรุงเทพมหานครใต้สะพานอนุทินสวัสดิ์", "district": "ธนบุรี", "snapDistanceMeters": 5.74}}, {"type": "Feature", "geometry": {"type": "Point", "coordinates": [100.60910310895382, 13.789688543022036]}, "properties": {"id": 182894, "name": "สวนสาธารณะวังทอง 1", "district": "วังทองหลาง", "snapDistanceMeters": 45.55}}, {"type": "Feature", "geometry": {"type": "Point", "coordinates": [100.49512212381265, 13.76405067819069]}, "properties": {"id": 101913, "name": "สวนสาธารณะสันติชัยปราการ", "district": "พระนคร", "snapDistanceMeters": 20.02}}, {"type": "Feature", "geometry": {"type": "Point", "coordinates": [100.73379432747618, 13.767914203341817]}, "properties": {"id": 190669, "name": "ลานกีฬากรุงเทพมหานครเคหะชุมชนร่มเกล้า 202 หลังคาเขียว", "district": "ลาดกระบัง", "snapDistanceMeters": 30.47}}, {"type": "Feature", "geometry": {"type": "Point", "coordinates": [100.66642686085987, 13.818228143735396]}, "properties": {"id": 165041, "name": "ลานกีฬา 2 เคหะธานี 3", "district": "คันนายาว", "snapDistanceMeters": 29.36}}, {"type": "Feature", "geometry": {"type": "Point", "coordinates": [100.57885282266653, 13.776613160856627]}, "properties": {"id": 163069, "name": "สำนักงานรักษาความสะอาดและสวนสาธารณะเขตห้วยขวาง", "district": "ห้วยขวาง", "snapDistanceMeters": 42.96}}, {"type": "Feature", "geometry": {"type": "Point", "coordinates": [100.86871419016076, 13.812838971467894]}, "properties": {"id": 165649, "name": "ลานกีฬากรุงเทพมหานครชุมชนแผ่นดินทองนูรุ้ลลอฮ์", "district": "หนองจอก", "snapDistanceMeters": 34.15}}, {"type": "Feature", "geometry": {"type": "Point", "coordinates": [100.84420908364244, 13.833283909697654]}, "properties": {"id": 165322, "name": "ลานกีฬากรุงเทพมหานคร", "district": "หนองจอก", "snapDistanceMeters": 11.03}}, {"type": "Feature", "geometry": {"type": "Point", "coordinates": [100.87850029222275, 13.811428446249352]}, "properties": {"id": 165650, "name": "ลานกีฬากรุงเทพมหานครชุมชนแผ่นดินทองวัดราษฎร์บำรุง", "district": "หนองจอก", "snapDistanceMeters": 27.24}}, {"type": "Feature", "geometry": {"type": "Point", "coordinates": [100.82358295788694, 13.825580972630593]}, "properties": {"id": 165648, "name": "ลานกีฬากรุงเทพมหานครชุมชนแผ่นดินทองเนี๊ยะม่าตุ้ลมักบูลีน (บ้านแบนใหญ่)", "district": "หนองจอก", "snapDistanceMeters": 29.0}}, {"type": "Feature", "geometry": {"type": "Point", "coordinates": [100.89711226458608, 13.845250344574675]}, "properties": {"id": 165661, "name": "ลานกีฬากรุงเทพมหานคร", "district": "หนองจอก", "snapDistanceMeters": 24.81}}, {"type": "Feature", "geometry": {"type": "Point", "coordinates": [100.91019482000134, 13.835219068368257]}, "properties": {"id": 165662, "name": "ลานกีฬากรุงเทพมหานครชุมชนแผ่นดินทองดารุ้ลฆอนี", "district": "หนองจอก", "snapDistanceMeters": 19.24}}, {"type": "Feature", "geometry": {"type": "Point", "coordinates": [100.89100918104839, 13.848496395756085]}, "properties": {"id": 165666, "name": "ลานกีฬากรุงเทพมหานคร", "district": "หนองจอก", "snapDistanceMeters": 65.49}}, {"type": "Feature", "geometry": {"type": "Point", "coordinates": [100.80680308786827, 13.807573635653783]}, "properties": {"id": 165350, "name": "ลานกีฬาอเนกประสงค์", "district": "มีนบุรี", "snapDistanceMeters": 19.14}}, {"type": "Feature", "geometry": {"type": "Point", "coordinates": [100.54367621863648, 13.760643325387818]}, "properties": {"id": 209834, "name": "ลานกีฬากรุงเทพมหานครโรงเรียนวัดทัศนารุณสุนทริการาม", "district": "ราขเทวี", "snapDistanceMeters": 33.61}}, {"type": "Feature", "geometry": {"type": "Point", "coordinates": [100.57150746801983, 13.905765112136425]}, "properties": {"id": 172150, "name": "สวนสาธารณะ", "district": "หลักสี่", "snapDistanceMeters": 19.46}}, {"type": "Feature", "geometry": {"type": "Point", "coordinates": [100.35516030549515, 13.71445585220811]}, "properties": {"id": 172124, "name": "ลานกีฬาชุมชนรักเจริญ", "district": "หนองแขม", "snapDistanceMeters": 12.79}}, {"type": "Feature", "geometry": {"type": "Point", "coordinates": [100.58210620288196, 13.860143181033148]}, "properties": {"id": 171855, "name": "ลานกีฬาลานชีวิตใหม่", "district": "หลักสี่", "snapDistanceMeters": 26.5}}, {"type": "Feature", "geometry": {"type": "Point", "coordinates": [100.70006352948063, 13.793272403491567]}, "properties": {"id": 171862, "name": "ลานกีฬาชุมชนหลอแหลคลองใหญ่", "district": "สะพานสูง", "snapDistanceMeters": 36.43}}, {"type": "Feature", "geometry": {"type": "Point", "coordinates": [100.44558929470865, 13.541392972822155]}, "properties": {"id": 190847, "name": "ลานกีฬาต้านยาเสพติดชุมชนหลวงพ่อเต่า", "district": "บางขุนเทียน", "snapDistanceMeters": 23.75}}, {"type": "Feature", "geometry": {"type": "Point", "coordinates": [100.70022468254525, 13.757808673143044]}, "properties": {"id": 171922, "name": "ลานกีฬากรุงเทพมหานครเขตสองคลองมณี", "district": "สะพานสูง", "snapDistanceMeters": 33.85}}, {"type": "Feature", "geometry": {"type": "Point", "coordinates": [100.70749603141338, 13.785567127761471]}, "properties": {"id": 171917, "name": "สนามเด็กเล่น", "district": "สะพานสูง", "snapDistanceMeters": 38.68}}, {"type": "Feature", "geometry": {"type": "Point", "coordinates": [100.63470633852296, 13.717132379709218]}, "properties": {"id": 169513, "name": "ลานกีฬากรุงเทพมหานครชุมชนคลองจวน", "district": "สวนหลวง", "snapDistanceMeters": 27.72}}, {"type": "Feature", "geometry": {"type": "Point", "coordinates": [100.73801208359957, 13.80267241280034]}, "properties": {"id": 190977, "name": "ลานกีฬาชุมชนพิเชษฐ์", "district": "มีนบุรี", "snapDistanceMeters": 22.57}}, {"type": "Feature", "geometry": {"type": "Point", "coordinates": [100.40400688959893, 13.674262776368636]}, "properties": {"id": 191170, "name": "ลานกีฬา (เอ็ม) ธนกร เดชคุณากร", "district": "บางบอน", "snapDistanceMeters": 30.24}}, {"type": "Feature", "geometry": {"type": "Point", "coordinates": [100.73338163033345, 13.772363363627619]}, "properties": {"id": 190599, "name": "ลานกีฬากรุงเทพมหานครเคหะชุมชนร่มเกล้าโซน 1", "district": "ลาดกระบัง", "snapDistanceMeters": 23.6}}, {"type": "Feature", "geometry": {"type": "Point", "coordinates": [100.61662292043864, 13.89718376729928]}, "properties": {"id": 197079, "name": "สนามเด็กเล่นชุมชนใจรัก", "district": "สายไหม", "snapDistanceMeters": 37.2}}, {"type": "Feature", "geometry": {"type": "Point", "coordinates": [100.63561786110186, 13.898733212606594]}, "properties": {"id": 197800, "name": "สนามเด็กเล่น", "district": "สายไหม", "snapDistanceMeters": 20.88}}, {"type": "Feature", "geometry": {"type": "Point", "coordinates": [100.59162712574539, 13.695018030186251]}, "properties": {"id": 209743, "name": "ลานกีฬากรุงเทพมหานคร", "district": "พระโขนง", "snapDistanceMeters": 36.01}}, {"type": "Feature", "geometry": {"type": "Point", "coordinates": [100.62370262341524, 13.737493532190827]}, "properties": {"id": 71251, "name": "ลานกีฬากรุงเทพมหานครชุมชนเจริญพัฒนาถาวร", "district": "สวนหลวง", "snapDistanceMeters": 36.71}}, {"type": "Feature", "geometry": {"type": "Point", "coordinates": [100.5153714287972, 13.679369263937222]}, "properties": {"id": 71877, "name": "สวนสาธารณะเฉลิมพระเกียรติ 6 รอบพระชนมพรรษา", "district": "ราษฎร์บูรณะ", "snapDistanceMeters": 39.05}}, {"type": "Feature", "geometry": {"type": "Point", "coordinates": [100.568497098389, 13.776590870185549]}, "properties": {"id": 71361, "name": "ศูนย์ลานกีฬาชุมชนห้วยขวาง", "district": "ดินแดง", "snapDistanceMeters": 18.86}}, {"type": "Feature", "geometry": {"type": "Point", "coordinates": [100.38937427098126, 13.796357445054]}, "properties": {"id": 72154, "name": "สนามเด็กเล่น", "district": "ทวีวัฒนา", "snapDistanceMeters": 16.03}}, {"type": "Feature", "geometry": {"type": "Point", "coordinates": [100.57348575770254, 13.876720405370875]}, "properties": {"id": 70987, "name": "ลานกีฬาต้านยาเสพติดกรุงเทพ", "district": "หลักสี่", "snapDistanceMeters": 40.13}}, {"type": "Feature", "geometry": {"type": "Point", "coordinates": [100.51552632225916, 13.816163713919098]}, "properties": {"id": 70798, "name": "สวนสาธารณะสะพานพระราม 7", "district": "บางซื่อ", "snapDistanceMeters": 44.75}}, {"type": "Feature", "geometry": {"type": "Point", "coordinates": [100.51982266471934, 13.79843051406058]}, "properties": {"id": 7903, "name": "สวนสาธารณะเฉลิมพระเกียรติเกียกกาย", "district": "ดุสิต", "snapDistanceMeters": 11.43}}, {"type": "Feature", "geometry": {"type": "Point", "coordinates": [100.49384109854769, 13.635999874374319]}, "properties": {"id": 7889, "name": "ลานกีฬาอเนกประสงค์", "district": "ทุ่งครุ", "snapDistanceMeters": 21.67}}, {"type": "Feature", "geometry": {"type": "Point", "coordinates": [100.51032585156628, 13.635596891811502]}, "properties": {"id": 8137, "name": "ลานกีฬากรุงเทพมหานครสวนชานบ้าน", "district": "ทุ่งครุ", "snapDistanceMeters": 15.14}}, {"type": "Feature", "geometry": {"type": "Point", "coordinates": [100.50169720959678, 13.784403138195627]}, "properties": {"id": 9841, "name": "สนามเด็กเล่นชุมชนวัดเทพนารี", "district": "บางพลัด", "snapDistanceMeters": 14.12}}, {"type": "Feature", "geometry": {"type": "Point", "coordinates": [100.55708630425599, 13.7741359723671]}, "properties": {"id": 217964, "name": "ลานกีฬากรุงเทพมหานคร", "district": "ดินแดง", "snapDistanceMeters": 36.43}}, {"type": "Feature", "geometry": {"type": "Point", "coordinates": [100.5955354293068, 13.87359300063023]}, "properties": {"id": 233260, "name": "สำนักงานรักษาความสะอาดและสวนสาธารณะเขตบางเขน", "district": "บางเขน", "snapDistanceMeters": 55.05}}, {"type": "Feature", "geometry": {"type": "Point", "coordinates": [100.59546489970654, 13.912683009830998]}, "properties": {"id": 142088, "name": "สวนหย่อมเฉลิมพระเกียรติ 84 พรรษามหาราชา", "district": "ดอนเมือง", "snapDistanceMeters": 15.53}}, {"type": "Feature", "geometry": {"type": "Point", "coordinates": [100.51979992442875, 13.752069029367549]}, "properties": {"id": 121128, "name": "ลานกีฬากรุงเทพมหานคร", "district": "ปทุมวัน", "snapDistanceMeters": 19.26}}, {"type": "Feature", "geometry": {"type": "Point", "coordinates": [100.54348485343418, 13.731991103656561]}, "properties": {"id": 120391, "name": "สวนลุมพินีสำนักงานสวนสาธารณะ", "district": "ปทุมวัน", "snapDistanceMeters": 53.29}}, {"type": "Feature", "geometry": {"type": "Point", "coordinates": [100.60395082009451, 13.683072392617909]}, "properties": {"id": 120234, "name": "ลานกีฬากรุงเทพมหานคร", "district": "พระโขนง", "snapDistanceMeters": 17.49}}, {"type": "Feature", "geometry": {"type": "Point", "coordinates": [100.56857094906323, 13.774623662801613]}, "properties": {"id": 121450, "name": "ลานกีฬากรุงเทพมหานครเคหะชุมชนห้วยขวางแฟลต 33", "district": "ดินแดง", "snapDistanceMeters": 24.4}}, {"type": "Feature", "geometry": {"type": "Point", "coordinates": [100.84961819600535, 13.859849882183166]}, "properties": {"id": 120463, "name": "ลานกีฬาต้านยาเสพติด", "district": "หนองจอก", "snapDistanceMeters": 34.89}}, {"type": "Feature", "geometry": {"type": "Point", "coordinates": [100.86268567362787, 13.855813364643293]}, "properties": {"id": 234240, "name": "สำนักงานรักษาความสะอาดและสวนสาธารณะเขตหนองจอก", "district": "หนองจอก", "snapDistanceMeters": 12.91}}, {"type": "Feature", "geometry": {"type": "Point", "coordinates": [100.59316215258573, 13.678618763157239]}, "properties": {"id": 233991, "name": "สำนักงานรักษาความสะอาดและสวนสาธารณะเขตบางนา", "district": "บางนา", "snapDistanceMeters": 57.85}}, {"type": "Feature", "geometry": {"type": "Point", "coordinates": [100.36840863012931, 13.633839420320204]}, "properties": {"id": 233997, "name": "สำนักงานรักษาความสะอาดและสวนสาธารณะเขตบางบอน", "district": "บางบอน", "snapDistanceMeters": 28.53}}, {"type": "Feature", "geometry": {"type": "Point", "coordinates": [100.61464306977489, 13.783144539863693]}, "properties": {"id": 233749, "name": "สำนักงานรักษาความสะอาดและสวนสาธารณะเขตวังทองหลาง", "district": "วังทองหลาง", "snapDistanceMeters": 76.47}}, {"type": "Feature", "geometry": {"type": "Point", "coordinates": [100.47636845379583, 13.723386974862034]}, "properties": {"id": 233269, "name": "สำนักงานรักษาความสะอาดและสวนสาธารณะเขตบางกอกใหญ่", "district": "บางกอกใหญ่", "snapDistanceMeters": 24.93}}, {"type": "Feature", "geometry": {"type": "Point", "coordinates": [100.48540240595982, 13.724953096858783]}, "properties": {"id": 233507, "name": "สำนักงานรักษาความสะอาดและสวนสาธารณะเขตธนบุรี", "district": "ธนบุรี", "snapDistanceMeters": 22.63}}, {"type": "Feature", "geometry": {"type": "Point", "coordinates": [100.66978134303885, 13.785305403156903]}, "properties": {"id": 233274, "name": "สำนักงานรักษาความสะอาดและสวนสาธารณะเขตบึงกุ่ม", "district": "บึงกุ่ม", "snapDistanceMeters": 31.73}}, {"type": "Feature", "geometry": {"type": "Point", "coordinates": [100.78457621903446, 13.723487845405497]}, "properties": {"id": 294739, "name": "สำนักงานรักษาความสะอาดและสวนสาธารณะเขตลาดกระบัง", "district": "ลาดกระบัง", "snapDistanceMeters": 41.58}}, {"type": "Feature", "geometry": {"type": "Point", "coordinates": [100.60848715196961, 13.791383185611313]}, "properties": {"id": 175685, "name": "สวนสาธารณะวังทอง 2", "district": "วังทองหลาง", "snapDistanceMeters": 48.88}}, {"type": "Feature", "geometry": {"type": "Point", "coordinates": [100.82456400939317, 13.827290853212041]}, "properties": {"id": 174327, "name": "ลานกีฬากรุงเทพมหานคร", "district": "หนองจอก", "snapDistanceMeters": 18.17}}, {"type": "Feature", "geometry": {"type": "Point", "coordinates": [100.50918729707992, 13.730451336071246]}, "properties": {"id": 161743, "name": "สำนักงานรักษาความสะอาดและสวนสาธารณะเขตคลองสาน", "district": "คลองสาน", "snapDistanceMeters": 12.67}}, {"type": "Feature", "geometry": {"type": "Point", "coordinates": [100.56006726117926, 13.82896653518941]}, "properties": {"id": 161752, "name": "สำนักงานรักษาความสะอาดและสวนสาธารณะเขตจตุจักร", "district": "จตุจักร", "snapDistanceMeters": 29.17}}, {"type": "Feature", "geometry": {"type": "Point", "coordinates": [100.56946262023683, 13.779676457121338]}, "properties": {"id": 121438, "name": "ลานกีฬาแฟลต์ 15-16 เคหะชุมชนห้วยขวาง", "district": "ดินแดง", "snapDistanceMeters": 36.72}}, {"type": "Feature", "geometry": {"type": "Point", "coordinates": [100.59313983454847, 13.703972476780985]}, "properties": {"id": 120189, "name": "ลานกีฬาอเนกประสงค์", "district": "คลองเตย", "snapDistanceMeters": 18.03}}, {"type": "Feature", "geometry": {"type": "Point", "coordinates": [100.4623222152115, 13.74145099688128]}, "properties": {"id": 115928, "name": "ลานกีฬา", "district": "บางกอกใหญ่", "snapDistanceMeters": 11.87}}, {"type": "Feature", "geometry": {"type": "Point", "coordinates": [100.68466291031424, 13.787131777872762]}, "properties": {"id": 115529, "name": "ฝ่ายรักษาความสะอาดและสวนสาธารณะสำนักงานเขตคันนายาว", "district": "คันนายาว", "snapDistanceMeters": 13.67}}, {"type": "Feature", "geometry": {"type": "Point", "coordinates": [100.5089640264734, 13.611378310338155]}, "properties": {"id": 160213, "name": "สำนักงานรักษาความสะอาดและสวนสาธารณะเขตทุ่งครุ", "district": "ทุ่งครุ", "snapDistanceMeters": 43.98}}, {"type": "Feature", "geometry": {"type": "Point", "coordinates": [100.45654340524729, 13.77724582414561]}, "properties": {"id": 161495, "name": "สำนักงานรักษาความสะอาดและสวนสาธารณะเขตตลิ่งชัน", "district": "ตลิ่งชัน", "snapDistanceMeters": 29.94}}, {"type": "Feature", "geometry": {"type": "Point", "coordinates": [100.55324383809393, 13.769578967212247]}, "properties": {"id": 160982, "name": "สำนักงานรักษาความสะอาดและสวนสาธารณะเขตดินแดง", "district": "ดินแดง", "snapDistanceMeters": 34.9}}, {"type": "Feature", "geometry": {"type": "Point", "coordinates": [100.52054502170775, 13.776989311752661]}, "properties": {"id": 160221, "name": "สำนักงานรักษาความสะอาดและสวนสาธารณะเขตดุสิต", "district": "ดุสิต", "snapDistanceMeters": 14.24}}, {"type": "Feature", "geometry": {"type": "Point", "coordinates": [100.7039891570394, 13.859655714374313]}, "properties": {"id": 160482, "name": "สำนักงานรักษาความสะอาดและสวนสาธารณะเขตคลองสามวา", "district": "คลองสามวา", "snapDistanceMeters": 28.28}}, {"type": "Feature", "geometry": {"type": "Point", "coordinates": [100.59519418909767, 13.910442072523864]}, "properties": {"id": 160723, "name": "สำนักรักษาความสะอาดและสวนสาธารณะเขตดอนเมือง", "district": "ดอนเมือง", "snapDistanceMeters": 35.58}}, {"type": "Feature", "geometry": {"type": "Point", "coordinates": [100.58380978384763, 13.70837762760212]}, "properties": {"id": 161248, "name": "สำนักงานรักษาความสะอาดและสวนสาธารณะเขตคลองเตย", "district": "คลองเตย", "snapDistanceMeters": 28.13}}, {"type": "Feature", "geometry": {"type": "Point", "coordinates": [100.80114954475222, 13.816868042910798]}, "properties": {"id": 174265, "name": "ลานกีฬาชุมชนพัฒนาลำต้นไทร", "district": "หนองจอก", "snapDistanceMeters": 23.2}}, {"type": "Feature", "geometry": {"type": "Point", "coordinates": [100.51388636811829, 13.731688095757859]}, "properties": {"id": 370042, "name": "สำนักงานรักษาความสะอาดและสวนสาธารณะเขตสัมพันธวงศ์", "district": "สัมพันธวงค์", "snapDistanceMeters": 9.1}}, {"type": "Feature", "geometry": {"type": "Point", "coordinates": [100.57456598462795, 13.902139761684685]}, "properties": {"id": 172529, "name": "ลานกีฬาชุมชนชวนชื่นบางเขน", "district": "หลักสี่", "snapDistanceMeters": 16.85}}, {"type": "Feature", "geometry": {"type": "Point", "coordinates": [100.74683933422037, 13.829576063912707]}, "properties": {"id": 313257, "name": "สวนสาธารณะบึงลำไผ่", "district": "คลองสามวา", "snapDistanceMeters": 15.98}}, {"type": "Feature", "geometry": {"type": "Point", "coordinates": [100.7057329762909, 13.69908804150153]}, "properties": {"id": 195845, "name": "สนามเด็กเล่นเติมใจเพื่อเด็กและสังคม", "district": "ประเวศ", "snapDistanceMeters": 37.99}}, {"type": "Feature", "geometry": {"type": "Point", "coordinates": [100.56907037855449, 13.710085856807815]}, "properties": {"id": 193644, "name": "ลานกีฬากรุงเทพมหานคร (ชุมชนแฟลต 11-18 (ลาน 1))", "district": "คลองเตย", "snapDistanceMeters": 16.31}}, {"type": "Feature", "geometry": {"type": "Point", "coordinates": [100.57531787963957, 13.710892973996474]}, "properties": {"id": 192997, "name": "ลานกีฬากรุงเทพมหานคร (ชุมชนล็อค 4-5-6 (ลาน 1))", "district": "คลองเตย", "snapDistanceMeters": 23.4}}, {"type": "Feature", "geometry": {"type": "Point", "coordinates": [100.57643343979161, 13.710562850598315]}, "properties": {"id": 193001, "name": "ลานกีฬาชุมชนล็อค 4-5-6", "district": "คลองเตย", "snapDistanceMeters": 24.4}}, {"type": "Feature", "geometry": {"type": "Point", "coordinates": [100.73683823574272, 13.76400121172323]}, "properties": {"id": 351913, "name": "สนามเด็กเล่น", "district": "ลาดกระบัง", "snapDistanceMeters": 13.9}}, {"type": "Feature", "geometry": {"type": "Point", "coordinates": [100.58570626695769, 13.742488408311072]}, "properties": {"id": 370352, "name": "สำนักงานรักษาความสะอาดและสวนสาธารณะเขตวัฒนา", "district": "วัฒนา", "snapDistanceMeters": 36.69}}, {"type": "Feature", "geometry": {"type": "Point", "coordinates": [100.70765041074733, 13.820676586270103]}, "properties": {"id": 376194, "name": "ลานกีฬาอเนกประสงค์", "district": "มีนบุรี", "snapDistanceMeters": 19.03}}, {"type": "Feature", "geometry": {"type": "Point", "coordinates": [100.56939601205536, 13.776901693498298]}, "properties": {"id": 248204, "name": "ลานกีฬาโรงเรียนสามเสนนอก", "district": "ดินแดง", "snapDistanceMeters": 43.94}}, {"type": "Feature", "geometry": {"type": "Point", "coordinates": [100.64388479059947, 13.924166340794411]}, "properties": {"id": 374467, "name": "บริษัท สวนหย่อมสุวรรณภูมิทรานสปอร์ต จำกัด", "district": "สายไหม", "snapDistanceMeters": 23.89}}, {"type": "Feature", "geometry": {"type": "Point", "coordinates": [100.5193932711392, 13.6858305628825]}, "properties": {"id": 357562, "name": "ที่จอดรถสวนสาธารณะเฉลิมพระเกียรติ 6 รอบพระชนมพรรษา", "district": "ยานนาวา", "snapDistanceMeters": 31.57}}, {"type": "Feature", "geometry": {"type": "Point", "coordinates": [100.54220882247976, 13.719364813879713]}, "properties": {"id": 12202, "name": "สวนสาธารณะเฉลิมพระเกียรติ 80 พรรษาพระบาทสมเด็จพระเจ้าอยู่หัว", "district": "สาทร", "snapDistanceMeters": 60.83}}, {"type": "Feature", "geometry": {"type": "Point", "coordinates": [100.37511604380732, 13.731372185049652]}, "properties": {"id": 350953, "name": "ลานกีฬากรุงเทพมหานครวงเวียนทะเลสาป", "district": "บางแค", "snapDistanceMeters": 14.23}}, {"type": "Feature", "geometry": {"type": "Point", "coordinates": [100.55068186358896, 13.822651742945048]}, "properties": {"id": 118428, "name": "ลานกีฬาอเนกประสงค์ชุมชนแฟลตรถไฟ กม. 11", "district": "จตุจักร", "snapDistanceMeters": 21.5}}, {"type": "Feature", "geometry": {"type": "Point", "coordinates": [100.54231290720047, 13.693639845159833]}, "properties": {"id": 118830, "name": "ลานกีฬากรุงเทพมหานครชุมชนร่วมพัฒนาวัดช่องนนทรี (ลานบุปผาบุรี)", "district": "ยานนาวา", "snapDistanceMeters": 42.71}}, {"type": "Feature", "geometry": {"type": "Point", "coordinates": [100.55255156526232, 13.756238987311571]}, "properties": {"id": 119734, "name": "ลานกีฬากรุงเทพมหานครลานกีฬาแฟลต 20 เคหะชุมชนดินแดง 1", "district": "ดินแดง", "snapDistanceMeters": 22.43}}, {"type": "Feature", "geometry": {"type": "Point", "coordinates": [100.54782073548549, 13.706385558498575]}, "properties": {"id": 119666, "name": "ลานกีฬาชุมชนวัดช่องลม-คลองขวาง", "district": "ยานนาวา", "snapDistanceMeters": 7.45}}, {"type": "Feature", "geometry": {"type": "Point", "coordinates": [100.54586042817103, 13.704554997059088]}, "properties": {"id": 177703, "name": "ลานกีฬากรุงเทพมหานคร (โรงเรียนวัดช่องลม)", "district": "ยานนาวา", "snapDistanceMeters": 42.64}}, {"type": "Feature", "geometry": {"type": "Point", "coordinates": [100.72982997977408, 13.771875593815142]}, "properties": {"id": 180164, "name": "ลานกีฬากรุงเทพมหานครเคหะชุมชนร่มเกล้าสนาม 3", "district": "ลาดกระบัง", "snapDistanceMeters": 16.87}}, {"type": "Feature", "geometry": {"type": "Point", "coordinates": [100.54858110583467, 13.6805695211215]}, "properties": {"id": 176914, "name": "ลานกีฬากรุงเทพมหานคร (โรงเรียนวัดคลองภูมิ)", "district": "ยานนาวา", "snapDistanceMeters": 39.01}}, {"type": "Feature", "geometry": {"type": "Point", "coordinates": [100.58398421589231, 13.705106269289546]}, "properties": {"id": 193526, "name": "สนามเด็กเล่นชุมชนสร้างสรรค์พัฒนา 7-12", "district": "คลองเตย", "snapDistanceMeters": 14.34}}, {"type": "Feature", "geometry": {"type": "Point", "coordinates": [100.45786866195938, 13.722489899901044]}, "properties": {"id": 192169, "name": "สวนสาธารณะและลานกีฬา", "district": "ภาษีเจริญ", "snapDistanceMeters": 24.33}}, {"type": "Feature", "geometry": {"type": "Point", "coordinates": [100.56692835978203, 13.711526917884926]}, "properties": {"id": 144650, "name": "ลานกีฬากรุงเทพมหานคร (ชุมชนร่มเกล้า)", "district": "คลองเตย", "snapDistanceMeters": 20.09}}, {"type": "Feature", "geometry": {"type": "Point", "coordinates": [100.55158704777095, 13.748804039726249]}, "properties": {"id": 178337, "name": "ลานกีฬากรุงเทพมหานครโรงเรียนวัดดิสหงสาราม", "district": "ราขเทวี", "snapDistanceMeters": 36.41}}, {"type": "Feature", "geometry": {"type": "Point", "coordinates": [100.52291008297689, 13.7530033273132]}, "properties": {"id": 333526, "name": "ลานกีฬาพัฒน์ 2", "district": "ราขเทวี", "snapDistanceMeters": 7.81}}, {"type": "Feature", "geometry": {"type": "Point", "coordinates": [100.81915606775097, 13.712045826883275]}, "properties": {"id": 180271, "name": "ฝ่ายรักษาความสะอาดและสวนสาธารณะสำนักงานเขตลาดกระบัง", "district": "ลาดกระบัง", "snapDistanceMeters": 24.66}}, {"type": "Feature", "geometry": {"type": "Point", "coordinates": [100.56882399598338, 13.77430749795728]}, "properties": {"id": 119967, "name": "ลานกีฬากรุงเทพมหานครลานกีฬาแฟลต 34 เคหะชุมชนห้วยขวาง", "district": "ดินแดง", "snapDistanceMeters": 9.95}}, {"type": "Feature", "geometry": {"type": "Point", "coordinates": [100.65059301481568, 13.749255239478652]}, "properties": {"id": 144550, "name": "ลานกีฬากรุงเทพมหานคร (โรงเรียนลำสาลี)", "district": "บางกะปิ", "snapDistanceMeters": 23.86}}, {"type": "Feature", "geometry": {"type": "Point", "coordinates": [100.74957893338286, 13.786072982335407]}, "properties": {"id": 145397, "name": "ลานกีฬาชุมชนอับดุลเลาะ", "district": "มีนบุรี", "snapDistanceMeters": 15.98}}, {"type": "Feature", "geometry": {"type": "Point", "coordinates": [100.73616272853684, 13.792607870635942]}, "properties": {"id": 144625, "name": "ลานกีฬาชุมชนมัสยิดอัตตั๊กวาพัฒนา", "district": "มีนบุรี", "snapDistanceMeters": 21.31}}, {"type": "Feature", "geometry": {"type": "Point", "coordinates": [100.58439663467162, 13.707780176857886]}, "properties": {"id": 144832, "name": "ลานกีฬาชุมชนโรงหมู", "district": "คลองเตย", "snapDistanceMeters": 31.2}}, {"type": "Feature", "geometry": {"type": "Point", "coordinates": [100.56666138773474, 13.823013648519328]}, "properties": {"id": 118527, "name": "ลานกีฬาพหลโยธิน 24", "district": "จตุจักร", "snapDistanceMeters": 21.1}}, {"type": "Feature", "geometry": {"type": "Point", "coordinates": [100.51895452373495, 13.685987254315567]}, "properties": {"id": 150357, "name": "สวนสาธารณะเฉลิมพระเกียรติ 6 รอบพระชนมพรรษา (สวนสะพานพระราม 9)", "district": "บางคอแหลม", "snapDistanceMeters": 4.92}}, {"type": "Feature", "geometry": {"type": "Point", "coordinates": [100.53398504636547, 13.803479368308643]}, "properties": {"id": 149834, "name": "ฝ่ายรักษาความสะอาดและสวนสาธารณะสำนักงานเขตดุสิต", "district": "บางซื่อ", "snapDistanceMeters": 33.18}}, {"type": "Feature", "geometry": {"type": "Point", "coordinates": [100.50753480662291, 13.607465279876077]}, "properties": {"id": 433231, "name": "ที่ทำการย่อยฝ่ายรักษาความสะอาดและสวนสาธารณะสำนักงานเขตทุ่งครุ", "district": "ทุ่งครุ", "snapDistanceMeters": 17.93}}, {"type": "Feature", "geometry": {"type": "Point", "coordinates": [100.86306666046181, 13.901096436775937]}, "properties": {"id": 146039, "name": "ลานกีฬากรุงเทพมหานครชุมชนนางพัดกังสานนท์", "district": "หนองจอก", "snapDistanceMeters": 27.89}}, {"type": "Feature", "geometry": {"type": "Point", "coordinates": [100.58335989892089, 13.778857804059061]}, "properties": {"id": 146056, "name": "ลานกีฬาอเนกประสงค์", "district": "ห้วยขวาง", "snapDistanceMeters": 12.98}}, {"type": "Feature", "geometry": {"type": "Point", "coordinates": [100.50620613634707, 13.773631523043452]}, "properties": {"id": 433783, "name": "สวนหย่อมสุนันทา", "district": "ดุสิต", "snapDistanceMeters": 11.48}}, {"type": "Feature", "geometry": {"type": "Point", "coordinates": [100.50193335012904, 13.646857826251509]}, "properties": {"id": 433476, "name": "ลานกีฬาต้านยาเสพติด", "district": "ทุ่งครุ", "snapDistanceMeters": 32.74}}, {"type": "Feature", "geometry": {"type": "Point", "coordinates": [100.47437908162628, 13.638178740842289]}, "properties": {"id": 151974, "name": "ลานกีฬาอเนกประสงค์", "district": "ทุ่งครุ", "snapDistanceMeters": 12.41}}, {"type": "Feature", "geometry": {"type": "Point", "coordinates": [100.60164073119881, 13.702374136425195]}, "properties": {"id": 274245, "name": "สำนักงานรักษาความสะอาดและสวนสาธารณะเขตพระโขนง", "district": "พระโขนง", "snapDistanceMeters": 38.57}}, {"type": "Feature", "geometry": {"type": "Point", "coordinates": [100.4818427457051, 13.692112541548337]}, "properties": {"id": 377291, "name": "ลานกีฬาต้านยาเสพติด", "district": "ราษฎร์บูรณะ", "snapDistanceMeters": 39.07}}, {"type": "Feature", "geometry": {"type": "Point", "coordinates": [100.67725829616369, 13.915546990958704]}, "properties": {"id": 376597, "name": "สวนสาธารณะเฉลิมพระเกียรติ (สวนสายไหม)", "district": "สายไหม", "snapDistanceMeters": 11.59}}, {"type": "Feature", "geometry": {"type": "Point", "coordinates": [100.56836950596178, 13.71076212376473]}, "properties": {"id": 377155, "name": "ลานกีฬากรุงเทพมหานคร", "district": "คลองเตย", "snapDistanceMeters": 32.22}}, {"type": "Feature", "geometry": {"type": "Point", "coordinates": [100.5135239361352, 13.758203187926727]}, "properties": {"id": 387214, "name": "สำนักงานรักษาความสะอาดและสวนสาธารณะเขตป้อมปราบศัตรูพ่าย", "district": "ป้อมปราบศัตรูพ่าย", "snapDistanceMeters": 35.23}}, {"type": "Feature", "geometry": {"type": "Point", "coordinates": [100.42653927309829, 13.605780131099912]}, "properties": {"id": 376500, "name": "ลานกีฬาวงแหวนทวีสุข", "district": "บางขุนเทียน", "snapDistanceMeters": 26.72}}, {"type": "Feature", "geometry": {"type": "Point", "coordinates": [100.47809454159388, 13.762877510826428]}, "properties": {"id": 386634, "name": "สำนักงานรักษาความสะอาดและสวนสาธารณะเขตบางกอกน้อย", "district": "บางกอกน้อย", "snapDistanceMeters": 5.39}}, {"type": "Feature", "geometry": {"type": "Point", "coordinates": [100.50419385448079, 13.614036795355318]}, "properties": {"id": 391209, "name": "สนามเด็กเล่น", "district": "ทุ่งครุ", "snapDistanceMeters": 26.44}}, {"type": "Feature", "geometry": {"type": "Point", "coordinates": [100.50353835867433, 13.615329235835004]}, "properties": {"id": 391213, "name": "ลานกีฬารวมใจ", "district": "ทุ่งครุ", "snapDistanceMeters": 16.96}}, {"type": "Feature", "geometry": {"type": "Point", "coordinates": [100.37009590156119, 13.800665929213906]}, "properties": {"id": 390612, "name": "ลานกีฬาธรรมสพน์ 26", "district": "ทวีวัฒนา", "snapDistanceMeters": 6.75}}, {"type": "Feature", "geometry": {"type": "Point", "coordinates": [100.64778250010322, 13.767149063360177]}, "properties": {"id": 378351, "name": "ฝ่ายรักษาความสะอาดและสวนสาธารณะสำนักงานเขตบางกะปิ", "district": "บางกะปิ", "snapDistanceMeters": 29.42}}, {"type": "Feature", "geometry": {"type": "Point", "coordinates": [100.59655758318378, 13.701158380563038]}, "properties": {"id": 378446, "name": "ลานกีฬากรุงเทพมหานครชุมชนเล็กเที่ยง", "district": "พระโขนง", "snapDistanceMeters": 21.6}}, {"type": "Feature", "geometry": {"type": "Point", "coordinates": [100.53683789500947, 13.769056884302149]}, "properties": {"id": 12768, "name": "ลานกีฬาอเนกประสงค์", "district": "พญาไท", "snapDistanceMeters": 2.11}}, {"type": "Feature", "geometry": {"type": "Point", "coordinates": [100.72967171540238, 13.76395778411862]}, "properties": {"id": 392434, "name": "ลานกีฬากรุงเทพมหานคร", "district": "ลาดกระบัง", "snapDistanceMeters": 15.48}}, {"type": "Feature", "geometry": {"type": "Point", "coordinates": [100.34562532569718, 13.69127507447709]}, "properties": {"id": 393946, "name": "ลานกีฬาชุมชนหรรษา", "district": "หนองแขม", "snapDistanceMeters": 14.2}}, {"type": "Feature", "geometry": {"type": "Point", "coordinates": [100.5157813896256, 13.816667483392392]}, "properties": {"id": 434897, "name": "ลานกีฬาสวนสาธารณะสะพานพระราม 7", "district": "บางซื่อ", "snapDistanceMeters": 61.75}}, {"type": "Feature", "geometry": {"type": "Point", "coordinates": [100.65858360667778, 13.731337582595726]}, "properties": {"id": 434562, "name": "ลานกีฬาเมืองทอง 2/2", "district": "ประเวศ", "snapDistanceMeters": 25.56}}, {"type": "Feature", "geometry": {"type": "Point", "coordinates": [100.5797802680364, 13.9024773683368]}, "properties": {"id": 434976, "name": "สวนสาธารณะเคหะชุมชนทุ่งสองห้อง", "district": "หลักสี่", "snapDistanceMeters": 6.54}}, {"type": "Feature", "geometry": {"type": "Point", "coordinates": [100.60902795516226, 13.787045549501478]}, "properties": {"id": 106719, "name": "ลานกีฬาทางพิเศษฉลองรัชริมถนนลาดพร้าว (ฝั่งเหนือ)", "district": "วังทองหลาง", "snapDistanceMeters": 8.84}}, {"type": "Feature", "geometry": {"type": "Point", "coordinates": [100.6519228227595, 13.821274530419055]}, "properties": {"id": 285498, "name": "ลานกีฬาเพื่อประชาชน", "district": "บึงกุ่ม", "snapDistanceMeters": 16.43}}, {"type": "Feature", "geometry": {"type": "Point", "coordinates": [100.63397319549988, 13.682666799951425]}, "properties": {"id": 285511, "name": "ลานกีฬาชุมชนเชลียง 5", "district": "พระโขนง", "snapDistanceMeters": 21.48}}, {"type": "Feature", "geometry": {"type": "Point", "coordinates": [100.8854751813959, 13.854015937981456]}, "properties": {"id": 109841, "name": "ลานกีฬาโรงเรียนสุเหร่าใหม่", "district": "หนองจอก", "snapDistanceMeters": 46.95}}, {"type": "Feature", "geometry": {"type": "Point", "coordinates": [100.43006615643044, 13.797057562878562]}, "properties": {"id": 393120, "name": "สวนสาธารณะศาลยุติธรรม", "district": "ตลิ่งชัน", "snapDistanceMeters": 23.62}}, {"type": "Feature", "geometry": {"type": "Point", "coordinates": [100.45464377619899, 13.674611432594238]}, "properties": {"id": 2243, "name": "ลานกีฬาเยาวชนธนบุรี", "district": "จอมทอง", "snapDistanceMeters": 18.16}}, {"type": "Feature", "geometry": {"type": "Point", "coordinates": [100.6124159122029, 13.819629734736946]}, "properties": {"id": 107755, "name": "สวนสาธารณะบึงน้ำลาดพร้าว 71", "district": "ลาดพร้าว", "snapDistanceMeters": 15.38}}, {"type": "Feature", "geometry": {"type": "Point", "coordinates": [100.77001196972228, 13.837765981535933]}, "properties": {"id": 108855, "name": "ลานกีฬาชุมชนมัสยิดกมาลุลอิสลาม", "district": "คลองสามวา", "snapDistanceMeters": 9.47}}, {"type": "Feature", "geometry": {"type": "Point", "coordinates": [100.35370044557352, 13.77323163854743]}, "properties": {"id": 386362, "name": "สำนักงานรักษาความสะอาดและสวนสาธารณะเขตทวีวัฒนา", "district": "ทวีวัฒนา", "snapDistanceMeters": 41.06}}, {"type": "Feature", "geometry": {"type": "Point", "coordinates": [100.48417335594638, 13.677536363983892]}, "properties": {"id": 386076, "name": "สำนักงานรักษาความสะอาดและสวนสาธารณะเขตจอมทอง", "district": "จอมทอง", "snapDistanceMeters": 19.04}}, {"type": "Feature", "geometry": {"type": "Point", "coordinates": [100.40937993607118, 13.626574909929088]}, "properties": {"id": 109322, "name": "ลานกีฬาอเนกประสงค์ชุมชนสามัคคี", "district": "บางขุนเทียน", "snapDistanceMeters": 33.86}}, {"type": "Feature", "geometry": {"type": "Point", "coordinates": [100.72905097295099, 13.867462823981885]}, "properties": {"id": 108912, "name": "ลานกีฬาชุมชนสายสัมพันธ์พัฒนา", "district": "คลองสามวา", "snapDistanceMeters": 11.65}}, {"type": "Feature", "geometry": {"type": "Point", "coordinates": [100.76115923102651, 13.829497782495759]}, "properties": {"id": 108923, "name": "ลานกีฬาต้านยาเสพติดจอมคาถา", "district": "คลองสามวา", "snapDistanceMeters": 11.39}}, {"type": "Feature", "geometry": {"type": "Point", "coordinates": [100.55414714557736, 13.759905699285198]}, "properties": {"id": 124267, "name": "ลานกีฬากรุงเทพมหานครเคหะชุมชนดินแดงแฟลต 9", "district": "ดินแดง", "snapDistanceMeters": 34.47}}, {"type": "Feature", "geometry": {"type": "Point", "coordinates": [100.8637659530003, 13.913720127943055]}, "properties": {"id": 124462, "name": "ลานกีฬาโรตารี่เพื่อพัฒนาเยาวชน", "district": "หนองจอก", "snapDistanceMeters": 29.11}}, {"type": "Feature", "geometry": {"type": "Point", "coordinates": [100.62911488275473, 13.856650111577451]}, "properties": {"id": 233, "name": "ลานกีฬากรุงเทพมหานครชุมชนเคหะรามอินทรา", "district": "บางเขน", "snapDistanceMeters": 37.16}}, {"type": "Feature", "geometry": {"type": "Point", "coordinates": [100.50043556699143, 13.78460981419958]}, "properties": {"id": 230033, "name": "ลานธรรมลานกีฬา วัดเทพนารี", "district": "บางพลัด", "snapDistanceMeters": 19.54}}, {"type": "Feature", "geometry": {"type": "Point", "coordinates": [100.50603849633352, 13.682118837863118]}, "properties": {"id": 233040, "name": "สำนักงานรักษาความสะอาดและสวนสาธารณะเขตราษฎร์บูรณะ", "district": "ราษฎร์บูรณะ", "snapDistanceMeters": 33.04}}, {"type": "Feature", "geometry": {"type": "Point", "coordinates": [100.83565044410001, 13.769342158275313]}, "properties": {"id": 126144, "name": "ลานกีฬากรุงเทพมหานคร", "district": "หนองจอก", "snapDistanceMeters": 18.04}}, {"type": "Feature", "geometry": {"type": "Point", "coordinates": [100.53443240076501, 13.758912382249148]}, "properties": {"id": 232802, "name": "สำนักงานรักษาความสะอาดและสวนสาธารณะเขตราชเทวี", "district": "ราขเทวี", "snapDistanceMeters": 28.91}}, {"type": "Feature", "geometry": {"type": "Point", "coordinates": [100.73079165206978, 13.81370968132309]}, "properties": {"id": 232793, "name": "สำนักงานรักษาความสะอาดและสวนสาธารณะเขตมีนบุรี", "district": "มีนบุรี", "snapDistanceMeters": 37.95}}, {"type": "Feature", "geometry": {"type": "Point", "coordinates": [100.57913330353996, 13.887542660627295]}, "properties": {"id": 233053, "name": "สำนักงานรักษาความสะอาดและสวนสาธารณะเขตหลักสี่", "district": "หลักสี่", "snapDistanceMeters": 11.06}}, {"type": "Feature", "geometry": {"type": "Point", "coordinates": [100.60769648040164, 13.80338278913839]}, "properties": {"id": 232815, "name": "สำนักงานรักษาความสะอาดและสวนสาธารณะเขตลาดพร้าว", "district": "ลาดพร้าว", "snapDistanceMeters": 32.49}}, {"type": "Feature", "geometry": {"type": "Point", "coordinates": [100.6516934577739, 13.730287887298307]}, "properties": {"id": 232562, "name": "สำนักงานรักษาความสะอาดและสวนสาธารณะเขตสวนหลวง", "district": "สวนหลวง", "snapDistanceMeters": 23.48}}, {"type": "Feature", "geometry": {"type": "Point", "coordinates": [100.52715437468099, 13.693719315759786]}, "properties": {"id": 124091, "name": "ลานกีฬาชุมชนโสณมัย-อร่ามดวง", "district": "บางคอแหลม", "snapDistanceMeters": 10.2}}, {"type": "Feature", "geometry": {"type": "Point", "coordinates": [100.4368423146163, 13.714816925510155]}, "properties": {"id": 232551, "name": "สำนักงานรักษาความสะอาดและสวนสาธารณะเขตภาษีเจริญ", "district": "ภาษีเจริญ", "snapDistanceMeters": 17.67}}, {"type": "Feature", "geometry": {"type": "Point", "coordinates": [100.84936301448748, 13.821908766930893]}, "properties": {"id": 127094, "name": "ลานกีฬาสนามเด็กเล่น", "district": "หนองจอก", "snapDistanceMeters": 30.03}}, {"type": "Feature", "geometry": {"type": "Point", "coordinates": [100.52615193410784, 13.693781263522599]}, "properties": {"id": 123784, "name": "ลานกีฬา", "district": "บางคอแหลม", "snapDistanceMeters": 20.02}}, {"type": "Feature", "geometry": {"type": "Point", "coordinates": [100.48951598338503, 13.732452136978868]}, "properties": {"id": 126345, "name": "สนามเด็กเล่นบางไส้ไก่", "district": "ธนบุรี", "snapDistanceMeters": 11.92}}, {"type": "Feature", "geometry": {"type": "Point", "coordinates": [100.73568621614082, 13.721706469916148]}, "properties": {"id": 126084, "name": "สวนหย่อมวิชัย อาจารีย์", "district": "ลาดกระบัง", "snapDistanceMeters": 20.34}}, {"type": "Feature", "geometry": {"type": "Point", "coordinates": [100.6148511173718, 13.95353840190235]}, "properties": {"id": 404170, "name": "สนามเด็กเล่น", "district": "ดอนเมือง", "snapDistanceMeters": 14.26}}, {"type": "Feature", "geometry": {"type": "Point", "coordinates": [100.48453090214544, 13.705797581588083]}, "properties": {"id": 125734, "name": "สวนหย่อมเฉลิมพระเกียรติ 12 สิงหามหาราชินี", "district": "ธนบุรี", "snapDistanceMeters": 10.45}}, {"type": "Feature", "geometry": {"type": "Point", "coordinates": [100.69991973534236, 13.763843922849084]}, "properties": {"id": 265595, "name": "ลานกีฬาชุมชนสวนนกพัฒนา", "district": "สะพานสูง", "snapDistanceMeters": 17.87}}, {"type": "Feature", "geometry": {"type": "Point", "coordinates": [100.66090959703945, 13.895068896049022]}, "properties": {"id": 268165, "name": "สำนักงานรักษาความสะอาดและสวนสาธารณะเขตสายไหม", "district": "สายไหม", "snapDistanceMeters": 12.3}}, {"type": "Feature", "geometry": {"type": "Point", "coordinates": [100.68245906015775, 13.799038815664634]}, "properties": {"id": 385791, "name": "สำนักงานรักษาความสะอาดและสวนสาธารณะเขตคันนายาว", "district": "คันนายาว", "snapDistanceMeters": 12.04}}, {"type": "Feature", "geometry": {"type": "Point", "coordinates": [100.54257649839751, 13.696317541731071]}, "properties": {"id": 268880, "name": "สำนักงานรักษาความสะอาดและสวนสาธารณะเขตยานนาวา", "district": "ยานนาวา", "snapDistanceMeters": 28.99}}, {"type": "Feature", "geometry": {"type": "Point", "coordinates": [100.68587731026189, 13.769100289697347]}, "properties": {"id": 268405, "name": "สำนักงานรักษาความสะอาดและสวนสาธารณะเขตสะพานสูง", "district": "สะพานสูง", "snapDistanceMeters": 31.11}}, {"type": "Feature", "geometry": {"type": "Point", "coordinates": [100.34920870857295, 13.705502100209072]}, "properties": {"id": 268655, "name": "สำนักงานรักษาความสะอาดและสวนสาธารณะเขตหนองแขม", "district": "หนองแขม", "snapDistanceMeters": 16.37}}, {"type": "Feature", "geometry": {"type": "Point", "coordinates": [100.40900257239626, 13.696375933527962]}, "properties": {"id": 268394, "name": "สำนักงานรักษาความสะอาดและสวนสาธารณะเขตบางแค", "district": "บางแค", "snapDistanceMeters": 35.29}}, {"type": "Feature", "geometry": {"type": "Point", "coordinates": [100.52375030153769, 13.730502297117415]}, "properties": {"id": 268891, "name": "สำนักงานรักษาความสะอาดและสวนสาธารณะเขตบางรัก", "district": "บางรัก", "snapDistanceMeters": 11.99}}, {"type": "Feature", "geometry": {"type": "Point", "coordinates": [100.52629096321003, 13.707915816607143]}, "properties": {"id": 268897, "name": "สำนักงานรักษาความสะอาดและสวนสาธารณะเขตสาทร", "district": "สาทร", "snapDistanceMeters": 32.77}}, {"type": "Feature", "geometry": {"type": "Point", "coordinates": [100.43526328297995, 13.660513133323422]}, "properties": {"id": 267649, "name": "สำนักงานรักษาความสะอาดและสวนสาธารณะเขตบางขุนเทียน", "district": "บางขุนเทียน", "snapDistanceMeters": 50.96}}, {"type": "Feature", "geometry": {"type": "Point", "coordinates": [100.69467493158285, 13.717456242328295]}, "properties": {"id": 268137, "name": "สำนักงานรักษาความสะอาดและสวนสาธารณะเขตประเวศ", "district": "ประเวศ", "snapDistanceMeters": 42.2}}, {"type": "Feature", "geometry": {"type": "Point", "coordinates": [100.52238052600494, 13.74500399905936]}, "properties": {"id": 267895, "name": "สำนักงานรักษาความสะอาดและสวนสาธารณะเขตปทุมวัน", "district": "ปทุมวัน", "snapDistanceMeters": 25.38}}, {"type": "Feature", "geometry": {"type": "Point", "coordinates": [100.6473777648269, 13.76547573480054]}, "properties": {"id": 267159, "name": "สำนักงานรักษาความสะอาดและสวนสาธารณะเขตบางกะปิ", "district": "บางกะปิ", "snapDistanceMeters": 33.34}}, {"type": "Feature", "geometry": {"type": "Point", "coordinates": [100.50506561177023, 13.793871203076586]}, "properties": {"id": 267413, "name": "สำนักงานรักษาความสะอาดและสวนสาธารณะเขตบางพลัด", "district": "บางพลัด", "snapDistanceMeters": 26.25}}, {"type": "Feature", "geometry": {"type": "Point", "coordinates": [100.54249187645787, 13.779815831134735]}, "properties": {"id": 268147, "name": "สำนักงานรักษาความสะอาดและสวนสาธารณะเขตพญาไท", "district": "พญาไท", "snapDistanceMeters": 23.14}}, {"type": "Feature", "geometry": {"type": "Point", "coordinates": [100.49878782799807, 13.764666440338162]}, "properties": {"id": 267892, "name": "สำนักงานรักษาความสะอาดและสวนสาธารณะเขตพระนคร", "district": "พระนคร", "snapDistanceMeters": 30.91}}, {"type": "Feature", "geometry": {"type": "Point", "coordinates": [100.53747515379315, 13.809485341425567]}, "properties": {"id": 267407, "name": "สำนักงานรักษาความสะอาดและสวนสาธารณะเขตบางซื่อ", "district": "บางซื่อ", "snapDistanceMeters": 30.27}}, {"type": "Feature", "geometry": {"type": "Point", "coordinates": [100.50262154827537, 13.692933967979645]}, "properties": {"id": 267658, "name": "สำนักงานรักษาความสะอาดและสวนสาธารณะเขตบางคอแหลม", "district": "บางคอแหลม", "snapDistanceMeters": 35.9}}]}