{"type": "FeatureCollection", "features": [{"type": "Feature", "geometry": {"type": "Point", "coordinates": [100.52148116647064, 13.82926208405535]}, "properties": {"id": 272, "name": "จุดตรวจและรับแจ้งเหตุชุมชนวัดเลียบสถานีตำรวจนครบาลประชาชื่น", "district": "บางซื่อ", "snapDistanceMeters": 7.11}}, {"type": "Feature", "geometry": {"type": "Point", "coordinates": [100.75454064836399, 13.822272562304558]}, "properties": {"id": 21694, "name": "จุดเฝ้าระวังและรับแจ้งเหตุ ปปส. สถานีตำรวจนครบาลมีนบุรี", "district": "มีนบุรี", "snapDistanceMeters": 6.21}}, {"type": "Feature", "geometry": {"type": "Point", "coordinates": [100.59636578808052, 13.876077040567495]}, "properties": {"id": 20370, "name": "ตู้ควบคุมสัญญาณไฟจราจรสถานีตำรวจนครบาลบางเขน", "district": "บางเขน", "snapDistanceMeters": 26.07}}, {"type": "Feature", "geometry": {"type": "Point", "coordinates": [100.60780561725173, 13.932848541971326]}, "properties": {"id": 20403, "name": "จุดควบคุมการจราจรแยกสถานีตำรวจนครบาลดอนเมือง", "district": "ดอนเมือง", "snapDistanceMeters": 7.96}}, {"type": "Feature", "geometry": {"type": "Point", "coordinates": [100.6328344750389, 13.845379898799104]}, "properties": {"id": 90947, "name": "ที่ทำการตำรวจชุมชนแขวงคลองกุ่มสถานีตำรวจนครบาลโคกคราม", "district": "บางเขน", "snapDistanceMeters": 9.28}}, {"type": "Feature", "geometry": {"type": "Point", "coordinates": [100.51068586742278, 13.611420784525645]}, "properties": {"id": 29690, "name": "จุดตรวจร่วมสถานีตำรวจนครบาลทุ่งครุ", "district": "ทุ่งครุ", "snapDistanceMeters": 12.46}}, {"type": "Feature", "geometry": {"type": "Point", "coordinates": [100.62082783801243, 13.759784032209021]}, "properties": {"id": 17368, "name": "จุดรับแจ้งเหตุมหาวิทยาลัยรามคำแหงสถานีตำรวจนครบาลหัวหมาก", "district": "บางกะปิ", "snapDistanceMeters": 14.42}}, {"type": "Feature", "geometry": {"type": "Point", "coordinates": [100.4188360914114, 13.551561645676694]}, "properties": {"id": 91106, "name": "สถานีตำรวจนครบาลเทียนทะเล", "district": "บางขุนเทียน", "snapDistanceMeters": 21.72}}, {"type": "Feature", "geometry": {"type": "Point", "coordinates": [100.4468848724041, 13.63910353883525]}, "properties": {"id": 91184, "name": "สถานีตำรวจนครบาลท่าข้าม", "district": "บางขุนเทียน", "snapDistanceMeters": 23.78}}, {"type": "Feature", "geometry": {"type": "Point", "coordinates": [100.51609078033192, 13.619745615325066]}, "properties": {"id": 29978, "name": "ที่ทำการตำรวจชุมชนหมู่ที่ 6 ทุ่งครุ (โชคชนะ)", "district": "ทุ่งครุ", "snapDistanceMeters": 22.41}}, {"type": "Feature", "geometry": {"type": "Point", "coordinates": [100.64733059767181, 13.830838711930257]}, "properties": {"id": 90447, "name": "สถานีตำรวจนครบาลโคกคราม", "district": "บึงกุ่ม", "snapDistanceMeters": 20.68}}, {"type": "Feature", "geometry": {"type": "Point", "coordinates": [100.60721037173877, 13.757883981785287]}, "properties": {"id": 15309, "name": "จุดตรวจสถานีตำรวจนครบาลวังทองหลาง", "district": "วังทองหลาง", "snapDistanceMeters": 78.89}}, {"type": "Feature", "geometry": {"type": "Point", "coordinates": [100.51781648565273, 13.722751790081675]}, "properties": {"id": 91247, "name": "จุดควบคุมสัญญาณไฟจราจรใต้ทางด่วนสีลมสถานีตำรวจนครบาลยานนาวา", "district": "บางรัก", "snapDistanceMeters": 6.59}}, {"type": "Feature", "geometry": {"type": "Point", "coordinates": [100.58364563408102, 13.80076166840717]}, "properties": {"id": 15448, "name": "จุดรับแจ้งเหตุ 24 ชั่วโมงสถานีตำรวจนครบาลพหลโยธิน", "district": "ห้วยขวาง", "snapDistanceMeters": 13.67}}, {"type": "Feature", "geometry": {"type": "Point", "coordinates": [100.57320872563905, 13.75536924807149]}, "properties": {"id": 15468, "name": "ตู้ควบคุมจราจรแยกผังเมืองสถานีตำรวจนครบาลมักกะสัน", "district": "ห้วยขวาง", "snapDistanceMeters": 6.78}}, {"type": "Feature", "geometry": {"type": "Point", "coordinates": [100.3814393473776, 13.708468664971024]}, "properties": {"id": 29946, "name": "จุดพักสายตรวจสถานีตำรวจนครบาลเพชรเกษม", "district": "บางแค", "snapDistanceMeters": 13.21}}, {"type": "Feature", "geometry": {"type": "Point", "coordinates": [100.33798933243294, 13.705085532930234]}, "properties": {"id": 28877, "name": "ศูนย์อัศวินประจำซอยสถานีตำรวจภูธรหนองแขม", "district": "หนองแขม", "snapDistanceMeters": 20.99}}, {"type": "Feature", "geometry": {"type": "Point", "coordinates": [100.72117404728708, 13.871476329049244]}, "properties": {"id": 28672, "name": "จุดพักสายตรวจสถานีตำรวจนครบาลนิมิตรใหม่", "district": "คลองสามวา", "snapDistanceMeters": 13.88}}, {"type": "Feature", "geometry": {"type": "Point", "coordinates": [100.49477937836416, 13.69515094210971]}, "properties": {"id": 37528, "name": "จุดพักสายตรวจสถานีตำรวจนครบาลวัดพระยาไกร", "district": "บางคอแหลม", "snapDistanceMeters": 13.67}}, {"type": "Feature", "geometry": {"type": "Point", "coordinates": [100.39510598021718, 13.744753481761188]}, "properties": {"id": 28404, "name": "ตู้ควบคุมสัญญาณไฟจราจรสถานีตำรวจนครบาลศาลาแดง", "district": "บางแค", "snapDistanceMeters": 23.79}}, {"type": "Feature", "geometry": {"type": "Point", "coordinates": [100.73233203548506, 13.766094148254034]}, "properties": {"id": 35524, "name": "สถานีตำรวจนครบาลร่มเกล้า", "district": "ลาดกระบัง", "snapDistanceMeters": 20.21}}, {"type": "Feature", "geometry": {"type": "Point", "coordinates": [100.46476413346159, 13.781492956831984]}, "properties": {"id": 35869, "name": "จุดรับแจ้งเหตุชักพระสถานีตำรวจนครบาลตลิ่งชัน", "district": "ตลิ่งชัน", "snapDistanceMeters": 12.08}}, {"type": "Feature", "geometry": {"type": "Point", "coordinates": [100.68454821786987, 13.804518698099383]}, "properties": {"id": 132703, "name": "อาคารที่พักอาศัยสถานีตำรวจนครบาลบางชัน", "district": "คันนายาว", "snapDistanceMeters": 27.29}}, {"type": "Feature", "geometry": {"type": "Point", "coordinates": [100.49854569065528, 13.685061303641325]}, "properties": {"id": 36160, "name": "สถานีตำรวจนครบาลบางคอแหลม", "district": "ราษฎร์บูรณะ", "snapDistanceMeters": 35.14}}, {"type": "Feature", "geometry": {"type": "Point", "coordinates": [100.66971384730346, 13.85305459266255]}, "properties": {"id": 132629, "name": "แฟลตสถานีตำรวจนครบาลคันนายาว", "district": "คันนายาว", "snapDistanceMeters": 15.33}}, {"type": "Feature", "geometry": {"type": "Point", "coordinates": [100.60159665152179, 13.758872983097863]}, "properties": {"id": 132630, "name": "แฟลตสถานีตำรวจนครบาลวังทองหลาง", "district": "วังทองหลาง", "snapDistanceMeters": 24.94}}, {"type": "Feature", "geometry": {"type": "Point", "coordinates": [100.47398555377886, 13.729348109842471]}, "properties": {"id": 55932, "name": "ศูนย์รับแจ้งเหตุแยกท่าพระสถานีตำรวจนครบาลท่าพระ", "district": "บางกอกใหญ่", "snapDistanceMeters": 0.91}}, {"type": "Feature", "geometry": {"type": "Point", "coordinates": [100.47112387822314, 13.738606881276878]}, "properties": {"id": 56799, "name": "จุดรับแจ้งเหตุวัดดีดวดสถานีตำรวจนครบาลบางกอกใหญ่", "district": "บางกอกใหญ่", "snapDistanceMeters": 8.6}}, {"type": "Feature", "geometry": {"type": "Point", "coordinates": [100.47187250326003, 13.715435155967112]}, "properties": {"id": 55538, "name": "จุดรับแจ้งเหตุวุฒากาศสถานีตำรวจนครบาลตลาดพลู", "district": "ธนบุรี", "snapDistanceMeters": 7.15}}, {"type": "Feature", "geometry": {"type": "Point", "coordinates": [100.46576860186795, 13.72976516920279]}, "properties": {"id": 55677, "name": "สถานีตำรวจนครบาลท่าพระ", "district": "บางกอกใหญ่", "snapDistanceMeters": 16.27}}, {"type": "Feature", "geometry": {"type": "Point", "coordinates": [100.43669980895253, 13.715239818787717]}, "properties": {"id": 56420, "name": "สถานีตำรวจนครบาลภาษีเจริญ", "district": "ภาษีเจริญ", "snapDistanceMeters": 20.16}}, {"type": "Feature", "geometry": {"type": "Point", "coordinates": [100.48983748633738, 13.736389309776925]}, "properties": {"id": 56141, "name": "สถานีตำรวจนครบาลบุปผาราม", "district": "ธนบุรี", "snapDistanceMeters": 12.5}}, {"type": "Feature", "geometry": {"type": "Point", "coordinates": [100.50738308225296, 13.7578835429677]}, "properties": {"id": 77793, "name": "สถานีตำรวจนครบาลนางเลิ้ง", "district": "ป้อมปราบศัตรูพ่าย", "snapDistanceMeters": 30.93}}, {"type": "Feature", "geometry": {"type": "Point", "coordinates": [100.49576537305622, 13.759850538339135]}, "properties": {"id": 77798, "name": "สถานีตำรวจนครบาลชนะสงคราม", "district": "พระนคร", "snapDistanceMeters": 27.05}}, {"type": "Feature", "geometry": {"type": "Point", "coordinates": [100.68377709284869, 13.921348950861308]}, "properties": {"id": 78024, "name": "ที่พักสายตรวจสถานีตำรวจนครสายไหม", "district": "สายไหม", "snapDistanceMeters": 2.05}}, {"type": "Feature", "geometry": {"type": "Point", "coordinates": [100.50679063957007, 13.603064873979093]}, "properties": {"id": 77778, "name": "จุดสกัดบ้านคลองสานสถานีตำรวจภูธรสาขลา", "district": "ทุ่งครุ", "snapDistanceMeters": 10.07}}, {"type": "Feature", "geometry": {"type": "Point", "coordinates": [100.52414304402865, 13.778513448410203]}, "properties": {"id": 56006, "name": "จุดตรวจราชวัตรสถานีตำรวจนครบาลดุสิต", "district": "ดุสิต", "snapDistanceMeters": 15.45}}, {"type": "Feature", "geometry": {"type": "Point", "coordinates": [100.47385484063207, 13.717474448966225]}, "properties": {"id": 55542, "name": "สถานีตำรวจนครบาลตลาดพลู", "district": "ธนบุรี", "snapDistanceMeters": 40.69}}, {"type": "Feature", "geometry": {"type": "Point", "coordinates": [100.66088237173399, 13.929313495755764]}, "properties": {"id": 83887, "name": "สถานีตำรวจนครบาลสายไหม", "district": "สายไหม", "snapDistanceMeters": 16.57}}, {"type": "Feature", "geometry": {"type": "Point", "coordinates": [100.64757023832051, 13.768422776913965]}, "properties": {"id": 56036, "name": "สถานีตำรวจนครบาลลาดพร้าว", "district": "บางกะปิ", "snapDistanceMeters": 36.93}}, {"type": "Feature", "geometry": {"type": "Point", "coordinates": [100.47740102943143, 13.720602235632398]}, "properties": {"id": 55439, "name": "ศูนย์ประสานงานตำรวจชุมชนสัมพันธ์ตำรวจชุมชนสถานีตำรวจนครบาลตลาดพลู", "district": "ธนบุรี", "snapDistanceMeters": 6.3}}, {"type": "Feature", "geometry": {"type": "Point", "coordinates": [100.48674492438592, 13.74169532414369]}, "properties": {"id": 54902, "name": "สถานีตำรวจนครบาลบางกอกใหญ่", "district": "บางกอกใหญ่", "snapDistanceMeters": 13.5}}, {"type": "Feature", "geometry": {"type": "Point", "coordinates": [100.48929029038183, 13.74422122960934]}, "properties": {"id": 130728, "name": "สถานีตำรวจท่องเที่ยว 3 กองกำกับการ 1 กองบังคับการตำรวจท่องเที่ยว", "district": "บางกอกใหญ่", "snapDistanceMeters": 48.02}}, {"type": "Feature", "geometry": {"type": "Point", "coordinates": [100.51200986927654, 13.750655535180224]}, "properties": {"id": 54298, "name": "จุดรับแจ้งเหตุแยกยุคล 2 สถานีตำรวจนครบาลพลับพลาไชย 1", "district": "ป้อมปราบศัตรูพ่าย", "snapDistanceMeters": 11.21}}, {"type": "Feature", "geometry": {"type": "Point", "coordinates": [100.59803029985288, 13.87521373541822]}, "properties": {"id": 56063, "name": "สถานีตำรวจนครบาลบางเขน", "district": "บางเขน", "snapDistanceMeters": 26.05}}, {"type": "Feature", "geometry": {"type": "Point", "coordinates": [100.45547722949212, 13.673383913499654]}, "properties": {"id": 128413, "name": "ตลาดนัดสถานีตำรวจนครบาลบางมด", "district": "จอมทอง", "snapDistanceMeters": 38.93}}, {"type": "Feature", "geometry": {"type": "Point", "coordinates": [100.62780764270485, 13.760871559043107]}, "properties": {"id": 83320, "name": "สถานีสูบน้ำหน้าสถานีตำรวจหัวหมาก", "district": "บางกะปิ", "snapDistanceMeters": 3.55}}, {"type": "Feature", "geometry": {"type": "Point", "coordinates": [100.64292304951279, 13.673367457697445]}, "properties": {"id": 83379, "name": "สถานีตำรวจนครบาลบางนา", "district": "ประเวศ", "snapDistanceMeters": 19.04}}, {"type": "Feature", "geometry": {"type": "Point", "coordinates": [100.55684160674849, 13.771669628206034]}, "properties": {"id": 31635, "name": "สถานีตำรวจนครบาลดินแดง", "district": "ดินแดง", "snapDistanceMeters": 16.38}}, {"type": "Feature", "geometry": {"type": "Point", "coordinates": [100.52865762774051, 13.706002505750762]}, "properties": {"id": 32855, "name": "ศูนย์ควบคุมจราจรถนนสาธุประดิษฐ์-จันทน์สถานีตำรวจนครบาลยานนาวา", "district": "ยานนาวา", "snapDistanceMeters": 6.61}}, {"type": "Feature", "geometry": {"type": "Point", "coordinates": [100.34522381936948, 13.676575899613317]}, "properties": {"id": 129128, "name": "สถานีตำรวจนครบาลหนองแขม", "district": "หนองแขม", "snapDistanceMeters": 14.68}}, {"type": "Feature", "geometry": {"type": "Point", "coordinates": [100.55241145364454, 13.801005141466403]}, "properties": {"id": 128175, "name": "สถานีตำรวจชุมชนตลาดนัดจตุจักร", "district": "จตุจักร", "snapDistanceMeters": 13.03}}, {"type": "Feature", "geometry": {"type": "Point", "coordinates": [100.48117828641026, 13.759664885333324]}, "properties": {"id": 129438, "name": "สถานีตำรวจรถไฟธนบุรี", "district": "บางกอกน้อย", "snapDistanceMeters": 13.45}}, {"type": "Feature", "geometry": {"type": "Point", "coordinates": [100.51672240470864, 13.749115553071896]}, "properties": {"id": 129659, "name": "จุดบริการประชาชนแยกกษัตริย์ศึกสถานีตำรวจนครบาลพลับพลาไชย 1", "district": "ป้อมปราบศัตรูพ่าย", "snapDistanceMeters": 17.25}}, {"type": "Feature", "geometry": {"type": "Point", "coordinates": [100.6704192471367, 13.853133687181911]}, "properties": {"id": 128751, "name": "สถานีตำรวจนครบาลคันนายาว", "district": "คันนายาว", "snapDistanceMeters": 16.24}}, {"type": "Feature", "geometry": {"type": "Point", "coordinates": [100.54729349596691, 13.797644360091748]}, "properties": {"id": 129204, "name": "สถานีตำรวจรถไฟนพวงศ์ย่อยกำแพงเพชร", "district": "จตุจักร", "snapDistanceMeters": 35.79}}, {"type": "Feature", "geometry": {"type": "Point", "coordinates": [100.57415879961692, 13.791552313845177]}, "properties": {"id": 31221, "name": "สถานีตำรวจนครบาลสุทธิสาร", "district": "ดินแดง", "snapDistanceMeters": 24.48}}, {"type": "Feature", "geometry": {"type": "Point", "coordinates": [100.6013386744215, 13.926936736694932]}, "properties": {"id": 30769, "name": "ที่พักสายตรวจสถานีตำรวจนครบาลดอนเมือง", "district": "ดอนเมือง", "snapDistanceMeters": 9.32}}, {"type": "Feature", "geometry": {"type": "Point", "coordinates": [100.60735449692349, 13.934593788987508]}, "properties": {"id": 30772, "name": "สถานีตำรวจนครบาลดอนเมือง", "district": "ดอนเมือง", "snapDistanceMeters": 33.53}}, {"type": "Feature", "geometry": {"type": "Point", "coordinates": [100.56517458353292, 13.755834485509654]}, "properties": {"id": 19916, "name": "ตู้ควบคุมจราจรแยกพระราม 9 สถานีตำรวจนครบาลดินแดง", "district": "ห้วยขวาง", "snapDistanceMeters": 8.21}}, {"type": "Feature", "geometry": {"type": "Point", "coordinates": [100.51026564573807, 13.743878643955403]}, "properties": {"id": 31091, "name": "สถานีตำรวจนครบาลพลับพลาไชย 2", "district": "ป้อมปราบศัตรูพ่าย", "snapDistanceMeters": 35.64}}, {"type": "Feature", "geometry": {"type": "Point", "coordinates": [100.51026564573807, 13.743878643955403]}, "properties": {"id": 31092, "name": "สถานีตำรวจนครบาลพลับพลาไชย 1", "district": "ป้อมปราบศัตรูพ่าย", "snapDistanceMeters": 45.14}}, {"type": "Feature", "geometry": {"type": "Point", "coordinates": [100.53946664068101, 13.718158206073564]}, "properties": {"id": 83507, "name": "สถานีตำรวจนครบาลทุ่งมหาเมฆ", "district": "สาทร", "snapDistanceMeters": 14.71}}, {"type": "Feature", "geometry": {"type": "Point", "coordinates": [100.53420013292059, 13.744318570721667]}, "properties": {"id": 83468, "name": "สถานีตำรวจย่อยจตุรัส", "district": "ปทุมวัน", "snapDistanceMeters": 31.53}}, {"type": "Feature", "geometry": {"type": "Point", "coordinates": [100.68172065895959, 13.930539542577726]}, "properties": {"id": 83727, "name": "ที่ทำการอาสาสมัครตำรวจบ้านคลองหกวาสถานีตำรวจนครบาลสายไหม", "district": "สายไหม", "snapDistanceMeters": 10.2}}, {"type": "Feature", "geometry": {"type": "Point", "coordinates": [100.55649555125521, 13.764405406675701]}, "properties": {"id": 25115, "name": "สถานีตำรวจชุมชนแฟลต 45", "district": "ดินแดง", "snapDistanceMeters": 13.6}}, {"type": "Feature", "geometry": {"type": "Point", "coordinates": [100.4244278435506, 13.65472600376008]}, "properties": {"id": 31260, "name": "ที่ทำการสถานีตำรวจชุมชนตำรวจนครบาลท่าข้าม", "district": "บางขุนเทียน", "snapDistanceMeters": 16.65}}, {"type": "Feature", "geometry": {"type": "Point", "coordinates": [100.50954488876486, 13.780709672623965]}, "properties": {"id": 100023, "name": "สถานีตำรวจนครบาลสามเสน", "district": "ดุสิต", "snapDistanceMeters": 17.7}}, {"type": "Feature", "geometry": {"type": "Point", "coordinates": [100.49499857479049, 13.770518763472872]}, "properties": {"id": 18565, "name": "สถานีตำรวจท่องเที่ยว", "district": "บางพลัด", "snapDistanceMeters": 19.55}}, {"type": "Feature", "geometry": {"type": "Point", "coordinates": [100.56378665234386, 13.748991955131627]}, "properties": {"id": 19262, "name": "ศูนย์ควบคุมการจราจรสถานีตำรวจนครบาลมักกะสัน", "district": "ห้วยขวาง", "snapDistanceMeters": 15.99}}, {"type": "Feature", "geometry": {"type": "Point", "coordinates": [100.59915991184683, 13.874081960632669]}, "properties": {"id": 18017, "name": "ชุมชนแฟลตสถานีตำรวจนครบาลบางเขน", "district": "บางเขน", "snapDistanceMeters": 63.92}}, {"type": "Feature", "geometry": {"type": "Point", "coordinates": [100.47378150043228, 13.764067025258996]}, "properties": {"id": 99748, "name": "จุดรับแจ้งเหตุสถานีตำรวจนครบาลบางขุนนนท์", "district": "บางกอกน้อย", "snapDistanceMeters": 11.04}}, {"type": "Feature", "geometry": {"type": "Point", "coordinates": [100.39572469282699, 13.63793916952701]}, "properties": {"id": 24605, "name": "สถานีตำรวจนครบาลแสมดำ", "district": "บางบอน", "snapDistanceMeters": 17.61}}, {"type": "Feature", "geometry": {"type": "Point", "coordinates": [100.62318824259752, 13.946210417826837]}, "properties": {"id": 23222, "name": "จุดรับแจ้งเหตุสถานีตำรวจดอนเมือง", "district": "ดอนเมือง", "snapDistanceMeters": 4.89}}, {"type": "Feature", "geometry": {"type": "Point", "coordinates": [100.59324458461501, 13.795494112666159]}, "properties": {"id": 23227, "name": "สถานีตำรวจนครบาลโชคชัย", "district": "วังทองหลาง", "snapDistanceMeters": 21.44}}, {"type": "Feature", "geometry": {"type": "Point", "coordinates": [100.58355410504936, 13.73612694823822]}, "properties": {"id": 59451, "name": "สถานีตำรวจนครบาลทองหล่อ", "district": "วัฒนา", "snapDistanceMeters": 19.38}}, {"type": "Feature", "geometry": {"type": "Point", "coordinates": [100.63263335038386, 13.6910199803377]}, "properties": {"id": 59578, "name": "ที่ทำการตำรวจชุมชนสาหร่ายไพเราะ", "district": "พระโขนง", "snapDistanceMeters": 11.5}}, {"type": "Feature", "geometry": {"type": "Point", "coordinates": [100.6406233359085, 13.711844044701284]}, "properties": {"id": 59616, "name": "จุดตรวจสถานีตำรวจนครบาลพระโขนง", "district": "สวนหลวง", "snapDistanceMeters": 21.43}}, {"type": "Feature", "geometry": {"type": "Point", "coordinates": [100.68410983978266, 13.676061740687121]}, "properties": {"id": 59623, "name": "ห้องปฏิบัติการฝ่ายสืบสวนสถานีตำรวจนครบาลอุดมสุข", "district": "ประเวศ", "snapDistanceMeters": 15.76}}, {"type": "Feature", "geometry": {"type": "Point", "coordinates": [100.57779941483574, 13.902866682309684]}, "properties": {"id": 59790, "name": "ที่ทำการตำรวจชุมชนเคหะทุ่งสองห้อง", "district": "หลักสี่", "snapDistanceMeters": 13.59}}, {"type": "Feature", "geometry": {"type": "Point", "coordinates": [100.63188757088716, 13.650137377805656]}, "properties": {"id": 66782, "name": "จุดพักสายตรวจสถานีตำรวจนครบาลบางนา", "district": "บางนา", "snapDistanceMeters": 8.03}}, {"type": "Feature", "geometry": {"type": "Point", "coordinates": [100.47693816345291, 13.778650943858718]}, "properties": {"id": 65023, "name": "จุดบริการประชาชนสถานีตำรวจบางยี่ขัน", "district": "บางกอกน้อย", "snapDistanceMeters": 24.13}}, {"type": "Feature", "geometry": {"type": "Point", "coordinates": [100.60694980751335, 13.673223464346837]}, "properties": {"id": 85956, "name": "ตู้จราจรแยกบางนาสถานีตำรวจนครบาลบางนา", "district": "บางนา", "snapDistanceMeters": 11.63}}, {"type": "Feature", "geometry": {"type": "Point", "coordinates": [100.50523404217323, 13.681084224127414]}, "properties": {"id": 47955, "name": "แฟลตสถานีตำรวจราษฎร์บูรณะ", "district": "ราษฎร์บูรณะ", "snapDistanceMeters": 27.1}}, {"type": "Feature", "geometry": {"type": "Point", "coordinates": [100.6842082237826, 13.675587806040106]}, "properties": {"id": 46307, "name": "สถานีตำรวจนครบาลอุดมสุข", "district": "ประเวศ", "snapDistanceMeters": 21.4}}, {"type": "Feature", "geometry": {"type": "Point", "coordinates": [100.50973232947752, 13.730961405678567]}, "properties": {"id": 563, "name": "สถานีตำรวจนครบาลสมเด็จเจ้าพระยา", "district": "คลองสาน", "snapDistanceMeters": 13.6}}, {"type": "Feature", "geometry": {"type": "Point", "coordinates": [100.52655466367177, 13.707791234483054]}, "properties": {"id": 64059, "name": "สถานีตำรวจชุมชน", "district": "สาทร", "snapDistanceMeters": 18.3}}, {"type": "Feature", "geometry": {"type": "Point", "coordinates": [100.48583715242212, 13.768491428687707]}, "properties": {"id": 62732, "name": "ศูนย์ควบคุมการจราจรสถานีตำรวจนครบาลบางยี่ขัน", "district": "บางกอกน้อย", "snapDistanceMeters": 12.53}}, {"type": "Feature", "geometry": {"type": "Point", "coordinates": [100.41097027819904, 13.658887757451001]}, "properties": {"id": 63897, "name": "จุดตรวจสถานีตำรวจนครบาลท่าข้าม", "district": "บางบอน", "snapDistanceMeters": 6.89}}, {"type": "Feature", "geometry": {"type": "Point", "coordinates": [100.6173644724407, 13.740876509783792]}, "properties": {"id": 64499, "name": "สถานีตำรวจนครบาลคลองตัน", "district": "สวนหลวง", "snapDistanceMeters": 19.55}}, {"type": "Feature", "geometry": {"type": "Point", "coordinates": [100.39132597515788, 13.785581250318623]}, "properties": {"id": 62913, "name": "งานสายตรวจ 3 กองกำกับการ 1 (สถานีตำรวจคู่ขนานลอย)", "district": "ทวีวัฒนา", "snapDistanceMeters": 13.16}}, {"type": "Feature", "geometry": {"type": "Point", "coordinates": [100.64870164426216, 13.762990618691772]}, "properties": {"id": 81836, "name": "ตู้ควบคุมสัญญาณไฟจราจรสถานีตำรวจนครบาลหัวหมาก", "district": "บางกะปิ", "snapDistanceMeters": 8.33}}, {"type": "Feature", "geometry": {"type": "Point", "coordinates": [100.65764094020203, 13.767678003748063]}, "properties": {"id": 63186, "name": "จุดควบคุมสัญญาณไฟจราจรแยกบ้านม้าสถานีตำรวจนครบาลหัวหมาก", "district": "บางกะปิ", "snapDistanceMeters": 3.86}}, {"type": "Feature", "geometry": {"type": "Point", "coordinates": [100.47744196538764, 13.7207946364802]}, "properties": {"id": 69186, "name": "จุดพักสายตรวจจราจรสถานีตำรวจนครบาลตลาดพลู", "district": "ธนบุรี", "snapDistanceMeters": 16.69}}, {"type": "Feature", "geometry": {"type": "Point", "coordinates": [100.43791456309911, 13.619814577857136]}, "properties": {"id": 67545, "name": "จุดอำนวยการจราจรสถานีตำรวจนครบาลเทียนทะเล", "district": "บางขุนเทียน", "snapDistanceMeters": 26.13}}, {"type": "Feature", "geometry": {"type": "Point", "coordinates": [100.64348468368644, 13.662177878913699]}, "properties": {"id": 67460, "name": "สถานีตำรวจนครบาลทางด่วนสายบางนา-ชลบุรี", "district": "บางนา", "snapDistanceMeters": 25.13}}, {"type": "Feature", "geometry": {"type": "Point", "coordinates": [100.67483183261649, 13.778038071939]}, "properties": {"id": 74821, "name": "จุดตรวจสถานีตำรวจภูธรบางชัน", "district": "สะพานสูง", "snapDistanceMeters": 7.35}}, {"type": "Feature", "geometry": {"type": "Point", "coordinates": [100.3817119834385, 13.645669555828043]}, "properties": {"id": 74194, "name": "สถานีตำรวจนครบาลบางบอน", "district": "บางบอน", "snapDistanceMeters": 19.36}}, {"type": "Feature", "geometry": {"type": "Point", "coordinates": [100.5104832104294, 13.741960162045189]}, "properties": {"id": 73742, "name": "ศูนย์ประสานงานอาสาสมัครตำรวจบ้าน สถานีตำรวจนครบาลพลับพลาไชย 1", "district": "ป้อมปราบศัตรูพ่าย", "snapDistanceMeters": 7.98}}, {"type": "Feature", "geometry": {"type": "Point", "coordinates": [100.54126037755422, 13.838087628276696]}, "properties": {"id": 74695, "name": "จุดรับแจ้งเหตุชลนิเวศน์สถานีตำรวจนครบาลประชาชื่น", "district": "จตุจักร", "snapDistanceMeters": 8.1}}, {"type": "Feature", "geometry": {"type": "Point", "coordinates": [100.56687697306747, 13.751052136277082]}, "properties": {"id": 72779, "name": "สถานีตำรวจทางด่วน 2", "district": "ห้วยขวาง", "snapDistanceMeters": 25.21}}, {"type": "Feature", "geometry": {"type": "Point", "coordinates": [100.52360820585632, 13.701830730394052]}, "properties": {"id": 73598, "name": "สถานีตำรวจชุมชนวัดไผ่เงิน", "district": "บางคอแหลม", "snapDistanceMeters": 7.05}}, {"type": "Feature", "geometry": {"type": "Point", "coordinates": [100.73187383858718, 13.85977527361989]}, "properties": {"id": 135206, "name": "จุดควบคุมสัญญาณไฟจราจรแยกหทัยมิตรตัดนิมิตรใหม่สถานีตำรวจนครบาลนิมิตรใหม่", "district": "คลองสามวา", "snapDistanceMeters": 16.73}}, {"type": "Feature", "geometry": {"type": "Point", "coordinates": [100.55460686527181, 13.749985336142318]}, "properties": {"id": 73301, "name": "ศูนย์ควบคุมการจราจรสถานีตำรวจมักกะสัน", "district": "ราขเทวี", "snapDistanceMeters": 18.9}}, {"type": "Feature", "geometry": {"type": "Point", "coordinates": [100.37209559446691, 13.797668492230114]}, "properties": {"id": 40484, "name": "จุดรับแจ้งเหตุเค.พี.เอ็น. สถานีตำรวจนครบาลธรรมศาลา", "district": "ทวีวัฒนา", "snapDistanceMeters": 19.27}}, {"type": "Feature", "geometry": {"type": "Point", "coordinates": [100.84580561714941, 13.809392165073845]}, "properties": {"id": 73634, "name": "สถานีตำรวจนครบาลลำผักชี", "district": "หนองจอก", "snapDistanceMeters": 19.29}}, {"type": "Feature", "geometry": {"type": "Point", "coordinates": [100.51631051171096, 13.817446999400213]}, "properties": {"id": 39181, "name": "จุดรับแจ้งเหตุสถานีตำรวจนครบาลประชาชื่น", "district": "บางซื่อ", "snapDistanceMeters": 8.46}}, {"type": "Feature", "geometry": {"type": "Point", "coordinates": [100.52833526889043, 13.776019157864718]}, "properties": {"id": 38568, "name": "ตู้ควบคุมการจรจรสถานีตำรวจนครบาลดุสิต", "district": "ดุสิต", "snapDistanceMeters": 13.84}}, {"type": "Feature", "geometry": {"type": "Point", "coordinates": [100.68698491131397, 13.784384155129215]}, "properties": {"id": 39474, "name": "ตู้ควบคุมสัญญาณไฟจราจรสถานีตำรวจบางชัน", "district": "สะพานสูง", "snapDistanceMeters": 24.17}}, {"type": "Feature", "geometry": {"type": "Point", "coordinates": [100.53325237674166, 13.805566575422745]}, "properties": {"id": 39033, "name": "จุดรับแจ้งเหตุสถานีตำรวจเตาปูน", "district": "บางซื่อ", "snapDistanceMeters": 15.17}}, {"type": "Feature", "geometry": {"type": "Point", "coordinates": [100.39978726832412, 13.633734238421072]}, "properties": {"id": 135235, "name": "ศูนย์ปฏิบัติการจราจรสถานีตำรวจนครบาลแสมดำ", "district": "บางขุนเทียน", "snapDistanceMeters": 16.38}}, {"type": "Feature", "geometry": {"type": "Point", "coordinates": [100.58757329180932, 13.854104151119213]}, "properties": {"id": 133538, "name": "จุดรับแจ้งเหตุสถานีตำรวจนครบาลบางเขน", "district": "บางเขน", "snapDistanceMeters": 10.82}}, {"type": "Feature", "geometry": {"type": "Point", "coordinates": [100.66487404818088, 13.761933305868439]}, "properties": {"id": 113434, "name": "จุดตรวจสถานีตำรวจนครบาลหัวหมาก", "district": "บางกะปิ", "snapDistanceMeters": 6.52}}, {"type": "Feature", "geometry": {"type": "Point", "coordinates": [100.54598643311299, 13.73162976843522]}, "properties": {"id": 90055, "name": "สถานีตำรวจนครบาลลุมพินี", "district": "ปทุมวัน", "snapDistanceMeters": 22.46}}, {"type": "Feature", "geometry": {"type": "Point", "coordinates": [100.50965242842143, 13.731165149571414]}, "properties": {"id": 632, "name": "สถานีตำรวจนครบาลปากคลองสาน", "district": "คลองสาน", "snapDistanceMeters": 15.16}}, {"type": "Feature", "geometry": {"type": "Point", "coordinates": [100.79848212583369, 13.756158083160525]}, "properties": {"id": 88040, "name": "สถานีตำรวจชุมชนตลาดแย้มเจริญรัตน์", "district": "ลาดกระบัง", "snapDistanceMeters": 7.79}}, {"type": "Feature", "geometry": {"type": "Point", "coordinates": [100.50908997058652, 13.731008949365105]}, "properties": {"id": 635, "name": "ศูนย์ข้อมูลข่าวสารสถานีตำรวจนครบาลสมเด็จเจ้าพระยา", "district": "คลองสาน", "snapDistanceMeters": 12.72}}, {"type": "Feature", "geometry": {"type": "Point", "coordinates": [100.61750556472907, 13.752059883194459]}, "properties": {"id": 41278, "name": "ตู้ควบคุมการจราจรสถานีตำรวจนครบาลหัวหมาก", "district": "บางกะปิ", "snapDistanceMeters": 17.95}}, {"type": "Feature", "geometry": {"type": "Point", "coordinates": [100.53988744325825, 13.697736465469884]}, "properties": {"id": 4060, "name": "จุดรับแจ้งเหตุรัชดาสถานีตำรวจนครบาลบางโพงพาง", "district": "ยานนาวา", "snapDistanceMeters": 10.58}}, {"type": "Feature", "geometry": {"type": "Point", "coordinates": [100.92575208935706, 13.802963376143278]}, "properties": {"id": 59244, "name": "สถานีตำรวจนครบาลสุวินทวงศ์", "district": "หนองจอก", "snapDistanceMeters": 74.17}}, {"type": "Feature", "geometry": {"type": "Point", "coordinates": [100.61568156909986, 13.757529870845282]}, "properties": {"id": 41097, "name": "ตู้ควบคุมสัญญาณไฟจราจรสถานีตำรวจนครบาลหัวหมาก", "district": "บางกะปิ", "snapDistanceMeters": 5.47}}, {"type": "Feature", "geometry": {"type": "Point", "coordinates": [100.69802592905145, 13.724188777096826]}, "properties": {"id": 58737, "name": "สถานีตำรวจนครบาลประเวศ", "district": "ประเวศ", "snapDistanceMeters": 15.51}}, {"type": "Feature", "geometry": {"type": "Point", "coordinates": [100.54045814078788, 13.68071427762372]}, "properties": {"id": 3234, "name": "ห้องปฏิบัติการฝ่ายสืบสวนสถานีตำรวจนครบาลบางโพงพาง", "district": "ยานนาวา", "snapDistanceMeters": 15.5}}, {"type": "Feature", "geometry": {"type": "Point", "coordinates": [100.78348134137832, 13.721944419411598]}, "properties": {"id": 57904, "name": "ตู้ควบคุมและสั่งการจราจรสถานีตำรวจจระเข้น้อย", "district": "ลาดกระบัง", "snapDistanceMeters": 25.15}}, {"type": "Feature", "geometry": {"type": "Point", "coordinates": [100.47900601987541, 13.712859023350717]}, "properties": {"id": 57273, "name": "จุดรับแจ้งเหตุเดอะมอลล์ท่าพระสถานีตำรวจนครบาลบุคคโล", "district": "ธนบุรี", "snapDistanceMeters": 15.87}}, {"type": "Feature", "geometry": {"type": "Point", "coordinates": [100.52262188655743, 13.729833197108732]}, "properties": {"id": 76655, "name": "ชุมชนแฟลตครอบครัวสถานีตำรวจบางรัก", "district": "บางรัก", "snapDistanceMeters": 19.85}}, {"type": "Feature", "geometry": {"type": "Point", "coordinates": [100.51380720287416, 13.725094710972499]}, "properties": {"id": 57699, "name": "สถานีตำรวจน้ำ 2 กองกำกับการ 4 กองบังคับการตำรวจน้ำ", "district": "บางรัก", "snapDistanceMeters": 16.71}}, {"type": "Feature", "geometry": {"type": "Point", "coordinates": [100.67022359707767, 13.85314267046161]}, "properties": {"id": 42045, "name": "ศูนย์ปฏิบัติการอาสาสมัครตำรวจบ้านสถานีตำรวจนครบาลคันนายาว", "district": "คันนายาว", "snapDistanceMeters": 13.92}}, {"type": "Feature", "geometry": {"type": "Point", "coordinates": [100.72220440058116, 13.858863385860342]}, "properties": {"id": 42124, "name": "ตู้ควบคุมสัญญาณไฟจราจรแยกถนนหทัยมิตรตัดถนนหทัยราษฎร์สถานีตำรวจนครบาลนิมิตรใหม่", "district": "คลองสามวา", "snapDistanceMeters": 20.79}}, {"type": "Feature", "geometry": {"type": "Point", "coordinates": [100.46158607010402, 13.706552702723913]}, "properties": {"id": 40873, "name": "ที่ทำการตำรวจชุมชนศาลาครืนรวมใจ", "district": "จอมทอง", "snapDistanceMeters": 13.26}}, {"type": "Feature", "geometry": {"type": "Point", "coordinates": [100.6498247176448, 13.732052104179926]}, "properties": {"id": 75650, "name": "สถานีตำรวจชุมชนเมืองทอง", "district": "สวนหลวง", "snapDistanceMeters": 18.88}}, {"type": "Feature", "geometry": {"type": "Point", "coordinates": [100.86429605301772, 13.896886326785772]}, "properties": {"id": 136624, "name": "อาคารบ้านพักอาศัยอิสระสถานีตำรวจนครบาลประชาสำราญ", "district": "หนองจอก", "snapDistanceMeters": 21.0}}, {"type": "Feature", "geometry": {"type": "Point", "coordinates": [100.54722116114132, 13.786878999975285]}, "properties": {"id": 76527, "name": "สถานีตำรวจนครบาลบางซื่อ", "district": "พญาไท", "snapDistanceMeters": 36.4}}, {"type": "Feature", "geometry": {"type": "Point", "coordinates": [100.751865209465, 13.717517895899775]}, "properties": {"id": 77048, "name": "ที่ทำการตำรวจชุมชนเคหะนคร 2", "district": "ลาดกระบัง", "snapDistanceMeters": 4.55}}, {"type": "Feature", "geometry": {"type": "Point", "coordinates": [100.49915207912518, 13.716480383255398]}, "properties": {"id": 5294, "name": "ที่ทำการตำรวจบ้านชุมชนสำปาย้าพัฒนา", "district": "คลองสาน", "snapDistanceMeters": 8.12}}, {"type": "Feature", "geometry": {"type": "Point", "coordinates": [100.54109281119432, 13.750269405117363]}, "properties": {"id": 5516, "name": "ศูนย์รับแจ้งเหตุสถานีตำรวจภูธรพญาไท", "district": "ราขเทวี", "snapDistanceMeters": 11.22}}, {"type": "Feature", "geometry": {"type": "Point", "coordinates": [100.60083446056497, 13.658781660962532]}, "properties": {"id": 137460, "name": "จุดควบคุมสัญญาณไฟจราจรแยกแบริ่งสถานีตำรวจนครบาลบางนา", "district": "บางนา", "snapDistanceMeters": 24.21}}, {"type": "Feature", "geometry": {"type": "Point", "coordinates": [100.60796197618984, 13.934399328649588]}, "properties": {"id": 137307, "name": "ห้องปฏิบัติการจราจรสถานีตำรวจนครบาลดอนเมือง", "district": "ดอนเมือง", "snapDistanceMeters": 18.91}}, {"type": "Feature", "geometry": {"type": "Point", "coordinates": [100.60730361052636, 13.934982988285933]}, "properties": {"id": 137310, "name": "ที่ทำการตำรวจชุมชนสัมพันธ์", "district": "ดอนเมือง", "snapDistanceMeters": 17.58}}, {"type": "Feature", "geometry": {"type": "Point", "coordinates": [100.53876474250596, 13.801626850788319]}, "properties": {"id": 44698, "name": "หน่วยบริการประชาชนตำรวจรถไฟบางซื่อสถานีตำรวจรถไฟนพวงศ์", "district": "บางซื่อ", "snapDistanceMeters": 6.51}}, {"type": "Feature", "geometry": {"type": "Point", "coordinates": [100.44973646378224, 13.718639537048299]}, "properties": {"id": 43553, "name": "ศูนย์ปฏิบัติการพื้นที่ปลอดภัยสถานีตำรวจนครบาลภาษีเจริญ", "district": "ภาษีเจริญ", "snapDistanceMeters": 17.68}}, {"type": "Feature", "geometry": {"type": "Point", "coordinates": [100.51897637888833, 13.80814997983065]}, "properties": {"id": 44681, "name": "สถานีตำรวจนครบาลบางโพ", "district": "บางซื่อ", "snapDistanceMeters": 13.42}}, {"type": "Feature", "geometry": {"type": "Point", "coordinates": [100.48199297300769, 13.699496253682927]}, "properties": {"id": 44060, "name": "ที่ทำการตำรวจชุมชนตรอกสะพานยาว", "district": "ธนบุรี", "snapDistanceMeters": 3.64}}, {"type": "Feature", "geometry": {"type": "Point", "coordinates": [100.5654284441242, 13.714572572869992]}, "properties": {"id": 1514, "name": "จุดควบคุมสัญญาณไฟจราจรสถานีตำรวจนครบาลท่าเรือ", "district": "คลองเตย", "snapDistanceMeters": 21.71}}, {"type": "Feature", "geometry": {"type": "Point", "coordinates": [100.67346955335503, 13.828831895808523]}, "properties": {"id": 49554, "name": "สถานีตำรวจทางหลวง 2 กองกำกับการ 8", "district": "คันนายาว", "snapDistanceMeters": 16.74}}, {"type": "Feature", "geometry": {"type": "Point", "coordinates": [100.66708358132938, 13.685185182423082]}, "properties": {"id": 50211, "name": "ตู้ควบคุมสัญญาณไฟจราจรสถานีตำรวจนครบาลอุดมสุข", "district": "ประเวศ", "snapDistanceMeters": 14.13}}, {"type": "Feature", "geometry": {"type": "Point", "coordinates": [100.6165359185713, 13.736341660466827]}, "properties": {"id": 48949, "name": "ตู้ควบคุมสัญญาณไฟจราจรแยกพัฒนะสถานีตำรวจนครบาลคลองตัน", "district": "สวนหลวง", "snapDistanceMeters": 12.0}}, {"type": "Feature", "geometry": {"type": "Point", "coordinates": [100.58906836156918, 13.704527875032637]}, "properties": {"id": 34968, "name": "ที่ทำการตำรวจชุมชนวัดสะพาน", "district": "คลองเตย", "snapDistanceMeters": 7.09}}, {"type": "Feature", "geometry": {"type": "Point", "coordinates": [100.50884543254182, 13.728603447419118]}, "properties": {"id": 1042, "name": "จุดรับแจ้งเหตุ 24 ชั่วโมงสถานีตำรวจปากคลองสาน", "district": "คลองสาน", "snapDistanceMeters": 20.78}}, {"type": "Feature", "geometry": {"type": "Point", "coordinates": [100.49980030918817, 13.761181899887289]}, "properties": {"id": 34865, "name": "จุดรับแจ้งเหตุสิบสามห้างสถานีตำรวจนครบาลชนะสงคราม", "district": "พระนคร", "snapDistanceMeters": 10.62}}, {"type": "Feature", "geometry": {"type": "Point", "coordinates": [100.60102970869916, 13.759145100516198]}, "properties": {"id": 34961, "name": "สถานีตำรวจนครบาลวังทองหลาง", "district": "วังทองหลาง", "snapDistanceMeters": 14.42}}, {"type": "Feature", "geometry": {"type": "Point", "coordinates": [100.73491679646494, 13.8152376862178]}, "properties": {"id": 33910, "name": "สถานีตำรวจนครบาลมีนบุรี", "district": "มีนบุรี", "snapDistanceMeters": 31.06}}, {"type": "Feature", "geometry": {"type": "Point", "coordinates": [100.64825764239899, 13.80191826806652]}, "properties": {"id": 33967, "name": "จุดตรวจสถานีตำรวจนครบาลลาดพร้าว", "district": "บึงกุ่ม", "snapDistanceMeters": 23.77}}, {"type": "Feature", "geometry": {"type": "Point", "coordinates": [100.58335204730143, 13.746029095301127]}, "properties": {"id": 33586, "name": "สถานีตำรวจนครบาลมักกะสัน", "district": "ห้วยขวาง", "snapDistanceMeters": 33.52}}, {"type": "Feature", "geometry": {"type": "Point", "coordinates": [100.75666443000836, 13.82825008481368]}, "properties": {"id": 27309, "name": "จุดรับแจ้งเหตุประชาร่วมใจมูลนิธิกู้ภัยร่มไทรสถานีตำรวจนครบาลมีนบุรี", "district": "คลองสามวา", "snapDistanceMeters": 18.06}}, {"type": "Feature", "geometry": {"type": "Point", "coordinates": [100.44479629297244, 13.685605579356563]}, "properties": {"id": 32892, "name": "สถานีตำรวจนครบาลบางขุนเทียน", "district": "จอมทอง", "snapDistanceMeters": 16.2}}, {"type": "Feature", "geometry": {"type": "Point", "coordinates": [100.89671016067764, 13.807314250231881]}, "properties": {"id": 25272, "name": "จุดรับแจ้งเหตุ 24 ชั่วโมงสถานีตำรวจสุวินทวงศ์ (จุดร่มเย็น)", "district": "หนองจอก", "snapDistanceMeters": 13.04}}, {"type": "Feature", "geometry": {"type": "Point", "coordinates": [100.39227788425528, 13.696140229083865]}, "properties": {"id": 25569, "name": "ชุมชนหลังสถานีตำรวจนครบาลเพชรเกษม", "district": "บางแค", "snapDistanceMeters": 18.04}}, {"type": "Feature", "geometry": {"type": "Point", "coordinates": [100.55037615724227, 13.757617102615065]}, "properties": {"id": 25465, "name": "จุดตรวจหมอเหล็งสถานีตำรวจนครบาลดินแดง", "district": "ราขเทวี", "snapDistanceMeters": 25.36}}, {"type": "Feature", "geometry": {"type": "Point", "coordinates": [100.34323465473207, 13.740754520655521]}, "properties": {"id": 25882, "name": "ที่ทำการตำรวจชุมชนหมู่บ้านสินพัฒนาธานี", "district": "ทวีวัฒนา", "snapDistanceMeters": 14.16}}, {"type": "Feature", "geometry": {"type": "Point", "coordinates": [100.49039193830328, 13.794971642064771]}, "properties": {"id": 25496, "name": "สถานีตำรวจนครบาลบางพลัด", "district": "บางพลัด", "snapDistanceMeters": 16.06}}, {"type": "Feature", "geometry": {"type": "Point", "coordinates": [100.71867066817103, 13.724200064107613]}, "properties": {"id": 197647, "name": "สถานีตำรวจชุมชนวัดลานบุญ", "district": "ลาดกระบัง", "snapDistanceMeters": 7.25}}, {"type": "Feature", "geometry": {"type": "Point", "coordinates": [100.596891421918, 13.74332900309017]}, "properties": {"id": 170989, "name": "จุดรับแจ้งเหตุสถานีตำรวจนครบาลมักกะสัน", "district": "ห้วยขวาง", "snapDistanceMeters": 12.27}}, {"type": "Feature", "geometry": {"type": "Point", "coordinates": [100.55034157833478, 13.726360743826444]}, "properties": {"id": 163550, "name": "จุดรับแจ้งเหตุบ่อนไก่สถานีตำรวจนครบาลลุมพินี", "district": "ปทุมวัน", "snapDistanceMeters": 9.38}}, {"type": "Feature", "geometry": {"type": "Point", "coordinates": [100.55485576222196, 13.76554833924954]}, "properties": {"id": 165532, "name": "จุดตรวจตำรวจบ้านสถานีตำรวจนครบาลดินแดง", "district": "ดินแดง", "snapDistanceMeters": 19.29}}, {"type": "Feature", "geometry": {"type": "Point", "coordinates": [100.78894162524281, 13.758054357733242]}, "properties": {"id": 159482, "name": "สถานีตำรวจนครบาลฉลองกรุง", "district": "ลาดกระบัง", "snapDistanceMeters": 28.11}}, {"type": "Feature", "geometry": {"type": "Point", "coordinates": [100.48689350828217, 13.726836907516935]}, "properties": {"id": 100654, "name": "สถานีตำรวจนครบาลบางยี่เรือ", "district": "ธนบุรี", "snapDistanceMeters": 18.38}}, {"type": "Feature", "geometry": {"type": "Point", "coordinates": [100.717918639293, 13.812906693703173]}, "properties": {"id": 182510, "name": "ตู้ควบคุมสัญญาณไฟจราจรสถานีตำรวจมีนบุรี", "district": "มีนบุรี", "snapDistanceMeters": 5.84}}, {"type": "Feature", "geometry": {"type": "Point", "coordinates": [100.48307608223857, 13.697230668450757]}, "properties": {"id": 100325, "name": "จุดรับแจ้งเหตุดาวคะนองสถานีตำรวจบุคคโล", "district": "ธนบุรี", "snapDistanceMeters": 22.04}}, {"type": "Feature", "geometry": {"type": "Point", "coordinates": [100.49798425433325, 13.749878942768976]}, "properties": {"id": 102543, "name": "จุดรับแจ้งเหตุสถานีตำรวจสำราญราษฎร์", "district": "พระนคร", "snapDistanceMeters": 11.91}}, {"type": "Feature", "geometry": {"type": "Point", "coordinates": [100.64802633250038, 13.696521873015962]}, "properties": {"id": 101624, "name": "จุดรับแจ้งเหตุซีคอนสแควร์สถานีตำรวจนครบาลประเวศ", "district": "ประเวศ", "snapDistanceMeters": 3.18}}, {"type": "Feature", "geometry": {"type": "Point", "coordinates": [100.63975556145253, 13.691217436269822]}, "properties": {"id": 100929, "name": "ที่ทำการตำรวจชุมชนสุเหร่าคลองเคล็ด", "district": "ประเวศ", "snapDistanceMeters": 10.3}}, {"type": "Feature", "geometry": {"type": "Point", "coordinates": [100.4907337414524, 13.706018670237633]}, "properties": {"id": 100937, "name": "สถานีตำรวจนครบาลสำเหร่", "district": "ธนบุรี", "snapDistanceMeters": 26.39}}, {"type": "Feature", "geometry": {"type": "Point", "coordinates": [100.49055394287757, 13.705785845839946]}, "properties": {"id": 100938, "name": "สถานีตำรวจนครบาลบุคคโล", "district": "ธนบุรี", "snapDistanceMeters": 27.1}}, {"type": "Feature", "geometry": {"type": "Point", "coordinates": [100.49081085500829, 13.706432712418662]}, "properties": {"id": 100939, "name": "บ้านพักตำรวจสถานีตำรวจนครบาลบุคคโล", "district": "ธนบุรี", "snapDistanceMeters": 33.35}}, {"type": "Feature", "geometry": {"type": "Point", "coordinates": [100.5067907007638, 13.62756532093783]}, "properties": {"id": 100964, "name": "สถานีตำรวจนครบาลทุ่งครุ", "district": "ทุ่งครุ", "snapDistanceMeters": 20.41}}, {"type": "Feature", "geometry": {"type": "Point", "coordinates": [100.55830239522876, 13.7161919848584]}, "properties": {"id": 165046, "name": "ที่พักสายตรวจสถานีตำรวจนครบาลทุ่งมหาเมฆ", "district": "คลองเตย", "snapDistanceMeters": 23.83}}, {"type": "Feature", "geometry": {"type": "Point", "coordinates": [100.55844633969319, 13.715416553453109]}, "properties": {"id": 165047, "name": "ที่พักสายตรวจสถานีตำรวจนครบาลท่าเรือ", "district": "คลองเตย", "snapDistanceMeters": 14.01}}, {"type": "Feature", "geometry": {"type": "Point", "coordinates": [100.41585447428972, 13.762241538440124]}, "properties": {"id": 163682, "name": "สถานีตำรวจย่อยยุติธรรมเขตตลิ่งชัน", "district": "ตลิ่งชัน", "snapDistanceMeters": 18.02}}, {"type": "Feature", "geometry": {"type": "Point", "coordinates": [100.49683384180939, 13.737163138005064]}, "properties": {"id": 181621, "name": "จุดรับแจ้งเหตุสะพานพุทธสถานีตำรวจนครบาลบุปผาราม", "district": "ธนบุรี", "snapDistanceMeters": 9.51}}, {"type": "Feature", "geometry": {"type": "Point", "coordinates": [100.82026095560877, 13.709149351989492]}, "properties": {"id": 51585, "name": "สถานีตำรวจทางหลวง 1 กองกำกับการ 8", "district": "ลาดกระบัง", "snapDistanceMeters": 40.83}}, {"type": "Feature", "geometry": {"type": "Point", "coordinates": [100.3751507952222, 13.65181583787095]}, "properties": {"id": 53940, "name": "ที่ทำการตำรวจชุมชนแขวงบางบอน", "district": "บางบอน", "snapDistanceMeters": 11.84}}, {"type": "Feature", "geometry": {"type": "Point", "coordinates": [100.55019840287054, 13.752685677868806]}, "properties": {"id": 185995, "name": "สถานีตำรวจรถไฟมักกะสัน", "district": "ราขเทวี", "snapDistanceMeters": 17.36}}, {"type": "Feature", "geometry": {"type": "Point", "coordinates": [100.50253819923985, 13.701879222481379]}, "properties": {"id": 53627, "name": "สถานีตำรวจนครบาลวัดพระยาไกร", "district": "บางคอแหลม", "snapDistanceMeters": 18.83}}, {"type": "Feature", "geometry": {"type": "Point", "coordinates": [100.55818061402675, 13.834036551478636]}, "properties": {"id": 170169, "name": "สถานีตำรวจนครบาลวิภาวดี", "district": "จตุจักร", "snapDistanceMeters": 24.4}}, {"type": "Feature", "geometry": {"type": "Point", "coordinates": [100.58888686012715, 13.752667400394074]}, "properties": {"id": 170824, "name": "ตู้ควบคุมการจราจรสถานีตำรวจนครบาลมักกะสัน", "district": "ห้วยขวาง", "snapDistanceMeters": 17.32}}, {"type": "Feature", "geometry": {"type": "Point", "coordinates": [100.85533041865318, 13.84065111028267]}, "properties": {"id": 168279, "name": "จุดพักสายตรวจหน้ามหาวิทยาลัยเทคโนโลยีมหานครสถานีตำรวจนครบาลหนองจอก", "district": "หนองจอก", "snapDistanceMeters": 9.34}}, {"type": "Feature", "geometry": {"type": "Point", "coordinates": [100.61224776207855, 13.901957045960572]}, "properties": {"id": 187036, "name": "จุดรับแจ้งเหตุ 24 ชม. สถานีตำรวจสายไหม", "district": "สายไหม", "snapDistanceMeters": 17.39}}, {"type": "Feature", "geometry": {"type": "Point", "coordinates": [100.5529296112185, 13.722647701661671]}, "properties": {"id": 187097, "name": "ศูนย์ควบคุมการจราจรสถานีตำรวจนครบาลทุ่งมหาเมฆ", "district": "สาทร", "snapDistanceMeters": 14.75}}, {"type": "Feature", "geometry": {"type": "Point", "coordinates": [100.6012947527933, 13.92061911521964]}, "properties": {"id": 188161, "name": "ที่ทำการตำรวจรถไฟสถานีดอนเมือง", "district": "ดอนเมือง", "snapDistanceMeters": 15.53}}, {"type": "Feature", "geometry": {"type": "Point", "coordinates": [100.70498940542338, 13.6838917598064]}, "properties": {"id": 191214, "name": "จุดรับแจ้งเหตุสถานีตำรวจอุดมสุข", "district": "ประเวศ", "snapDistanceMeters": 18.7}}, {"type": "Feature", "geometry": {"type": "Point", "coordinates": [100.62201755388618, 13.905635408359167]}, "properties": {"id": 188035, "name": "จุดรับแจ้งเหตุสถานีตำรวจนครบาลสายไหม", "district": "สายไหม", "snapDistanceMeters": 12.18}}, {"type": "Feature", "geometry": {"type": "Point", "coordinates": [100.56968123134818, 13.776882665726898]}, "properties": {"id": 168332, "name": "สถานีตำรวจนครบาลห้วยขวาง", "district": "ดินแดง", "snapDistanceMeters": 28.93}}, {"type": "Feature", "geometry": {"type": "Point", "coordinates": [100.49024598533445, 13.794920187839201]}, "properties": {"id": 251718, "name": "วินหน้าสถานีตำรวจนครบาลบางพลัด", "district": "บางพลัด", "snapDistanceMeters": 4.59}}, {"type": "Feature", "geometry": {"type": "Point", "coordinates": [100.60721542409408, 13.934641568037263]}, "properties": {"id": 255689, "name": "วินหน้าสถานีตำรวจนครบาลดอนเมือง", "district": "ดอนเมือง", "snapDistanceMeters": 12.92}}, {"type": "Feature", "geometry": {"type": "Point", "coordinates": [100.75298420083676, 13.724212567899382]}, "properties": {"id": 197829, "name": "สถานีตำรวจชุมชนประชาร่วมใจ", "district": "ลาดกระบัง", "snapDistanceMeters": 11.31}}, {"type": "Feature", "geometry": {"type": "Point", "coordinates": [100.64625538500525, 13.729208444909354]}, "properties": {"id": 209706, "name": "สถานีตำรวจนครบาลประเวศ สาขาโรงเรียนเตรียมอุดมศึกษาพัฒนาการ", "district": "สวนหลวง", "snapDistanceMeters": 31.21}}, {"type": "Feature", "geometry": {"type": "Point", "coordinates": [100.82433112543018, 13.893766810511417]}, "properties": {"id": 71122, "name": "สถานีตำรวจนครบาลลำหิน", "district": "หนองจอก", "snapDistanceMeters": 36.63}}, {"type": "Feature", "geometry": {"type": "Point", "coordinates": [100.65948796846529, 13.780163340844435]}, "properties": {"id": 70893, "name": "สถานีตำรวจนครบาลบึงกุ่ม", "district": "บึงกุ่ม", "snapDistanceMeters": 27.17}}, {"type": "Feature", "geometry": {"type": "Point", "coordinates": [100.34869868044866, 13.728700048499999]}, "properties": {"id": 70730, "name": "สถานีตำรวจนครบาลหนองค้างพลู", "district": "หนองแขม", "snapDistanceMeters": 22.99}}, {"type": "Feature", "geometry": {"type": "Point", "coordinates": [100.5728742489067, 13.713430492987467]}, "properties": {"id": 254080, "name": "สถานีตำรวจชุมชนแฟลต 1-10", "district": "คลองเตย", "snapDistanceMeters": 13.37}}, {"type": "Feature", "geometry": {"type": "Point", "coordinates": [100.69120395381734, 13.795491680004048]}, "properties": {"id": 9559, "name": "ที่พักสายตรวจสถานีตำรวจนครบาลบางชัน", "district": "คันนายาว", "snapDistanceMeters": 3.02}}, {"type": "Feature", "geometry": {"type": "Point", "coordinates": [100.5999566995686, 13.708423037727982]}, "properties": {"id": 139223, "name": "สถานีตำรวจนครบาลพระโขนง", "district": "วัฒนา", "snapDistanceMeters": 23.3}}, {"type": "Feature", "geometry": {"type": "Point", "coordinates": [100.64692825325125, 13.664954021836856]}, "properties": {"id": 8645, "name": "จุดพักสายตรวจสถานีตำรวจนครบาลบางนา", "district": "บางนา", "snapDistanceMeters": 15.67}}, {"type": "Feature", "geometry": {"type": "Point", "coordinates": [100.40514655922038, 13.694913467579097]}, "properties": {"id": 8321, "name": "สถานีตำรวจชุมชนสุขสันต์", "district": "บางแค", "snapDistanceMeters": 11.49}}, {"type": "Feature", "geometry": {"type": "Point", "coordinates": [100.53154024479099, 13.81442625859645]}, "properties": {"id": 8144, "name": "สถานีตำรวจนครบาลเตาปูน", "district": "บางซื่อ", "snapDistanceMeters": 15.57}}, {"type": "Feature", "geometry": {"type": "Point", "coordinates": [100.52829129915749, 13.828425977698254]}, "properties": {"id": 9458, "name": "จุดรับแจ้งเหตุ 24 ชม. สถานีตำรวจนครบาลประชาชื่น", "district": "บางซื่อ", "snapDistanceMeters": 18.73}}, {"type": "Feature", "geometry": {"type": "Point", "coordinates": [100.53380356334651, 13.73064154714099]}, "properties": {"id": 7857, "name": "ที่พักสายตรวจอังรีดูนังต์สถานีตำรวจนครบาลบางรัก", "district": "บางรัก", "snapDistanceMeters": 12.98}}, {"type": "Feature", "geometry": {"type": "Point", "coordinates": [100.42144885129935, 13.646159519060117]}, "properties": {"id": 8473, "name": "ศูนย์ปฏิบัติการจราจรสถานีตำรวจภูธรท่าข้าม", "district": "บางขุนเทียน", "snapDistanceMeters": 16.41}}, {"type": "Feature", "geometry": {"type": "Point", "coordinates": [100.38146042373494, 13.71121860623164]}, "properties": {"id": 8475, "name": "สถานีตำรวจนครบาลหลักสอง", "district": "บางแค", "snapDistanceMeters": 90.8}}, {"type": "Feature", "geometry": {"type": "Point", "coordinates": [100.56447619450798, 13.710749169901566]}, "properties": {"id": 215716, "name": "สถานีตำรวจทางด่วน", "district": "คลองเตย", "snapDistanceMeters": 17.96}}, {"type": "Feature", "geometry": {"type": "Point", "coordinates": [100.49748157669177, 13.774464435301939]}, "properties": {"id": 9610, "name": "สถานีตำรวจนครบาลบวรมงคล", "district": "บางพลัด", "snapDistanceMeters": 22.23}}, {"type": "Feature", "geometry": {"type": "Point", "coordinates": [100.52867075489449, 13.828497195077015]}, "properties": {"id": 142622, "name": "จุดตรวจวงศ์สว่างสถานีตำรวจนครบาลประชาชื่น", "district": "บางซื่อ", "snapDistanceMeters": 21.77}}, {"type": "Feature", "geometry": {"type": "Point", "coordinates": [100.55209608705944, 13.711151691003698]}, "properties": {"id": 241654, "name": "ศูนย์ปฏิบัติการตำรวจบ้านสถานีตำรวจทุ่งมหาเมฆ", "district": "ยานนาวา", "snapDistanceMeters": 22.09}}, {"type": "Feature", "geometry": {"type": "Point", "coordinates": [100.70742753616015, 13.820215713346933]}, "properties": {"id": 294637, "name": "ที่ทำการตำรวจชุมชน", "district": "มีนบุรี", "snapDistanceMeters": 32.92}}, {"type": "Feature", "geometry": {"type": "Point", "coordinates": [100.57353225061613, 13.778426227422013]}, "properties": {"id": 121266, "name": "ศูนย์ควบคุมการจราจรสถานีตำรวจนครบาลห้วยขวาง", "district": "ดินแดง", "snapDistanceMeters": 13.66}}, {"type": "Feature", "geometry": {"type": "Point", "coordinates": [100.63105952099328, 13.695734414146182]}, "properties": {"id": 120293, "name": "ที่ทำการตำรวจชุมชนเกตุไพเราะ", "district": "พระโขนง", "snapDistanceMeters": 14.0}}, {"type": "Feature", "geometry": {"type": "Point", "coordinates": [100.68137515712495, 13.669918863449338]}, "properties": {"id": 120791, "name": "จุดรับแจ้งเหตุพื้นที่ปลอดภัยสถานีตำรวจนครบาลอุดมสุข", "district": "ประเวศ", "snapDistanceMeters": 17.22}}, {"type": "Feature", "geometry": {"type": "Point", "coordinates": [100.53880573655834, 13.830311959405394]}, "properties": {"id": 142329, "name": "จุดตรวจแยกประชานุกุลสถานีตำรวจนครบาลประชาชื่น", "district": "บางซื่อ", "snapDistanceMeters": 10.91}}, {"type": "Feature", "geometry": {"type": "Point", "coordinates": [100.54648924904822, 13.842575241556977]}, "properties": {"id": 235782, "name": "วินสี่แยกข้างสถานีตำรวจนครบาลประชาชื่น", "district": "จตุจักร", "snapDistanceMeters": 10.47}}, {"type": "Feature", "geometry": {"type": "Point", "coordinates": [100.54186836326551, 13.719970336146986]}, "properties": {"id": 294838, "name": "ที่ทำการตำรวจชุมชนบ้านมั่นคงสถานีตำรวจนครบาลทุ่งมหาเมฆ", "district": "สาทร", "snapDistanceMeters": 24.95}}, {"type": "Feature", "geometry": {"type": "Point", "coordinates": [100.5701770263306, 13.755471934081447]}, "properties": {"id": 172363, "name": "ศูนย์ควบคุมการจราจรสถานีตำรวจภูธรมักกะสัน", "district": "ห้วยขวาง", "snapDistanceMeters": 10.17}}, {"type": "Feature", "geometry": {"type": "Point", "coordinates": [100.7486128370423, 13.905733319442698]}, "properties": {"id": 1575, "name": "สถานีตำรวจนครบาลนิมิตรใหม่", "district": "คลองสามวา", "snapDistanceMeters": 19.97}}, {"type": "Feature", "geometry": {"type": "Point", "coordinates": [100.5300301177339, 13.759797152892332]}, "properties": {"id": 313316, "name": "วินสถานีตำรวจพญาไท", "district": "ราขเทวี", "snapDistanceMeters": 14.29}}, {"type": "Feature", "geometry": {"type": "Point", "coordinates": [100.61832247510581, 13.701686417000317]}, "properties": {"id": 121215, "name": "ที่ทำการตำรวจชุมชนนิรันดร์อพาร์ทเมนท์", "district": "พระโขนง", "snapDistanceMeters": 4.7}}, {"type": "Feature", "geometry": {"type": "Point", "coordinates": [100.50281741214442, 13.745709427529471]}, "properties": {"id": 122593, "name": "จุดรับแจ้งเหตุ 24 ชั่วโมง สถานีตำรวจนครบาลพระราชวัง", "district": "พระนคร", "snapDistanceMeters": 14.51}}, {"type": "Feature", "geometry": {"type": "Point", "coordinates": [100.50565308955713, 13.745614498112019]}, "properties": {"id": 115006, "name": "ตู้ควบคุมสัญญาณไฟจราจรแยกเอสเอบีสถานีตำรวจนครบาลพลับพลาไชย 1", "district": "สัมพันธวงค์", "snapDistanceMeters": 12.14}}, {"type": "Feature", "geometry": {"type": "Point", "coordinates": [100.56853255189155, 13.748549701447967]}, "properties": {"id": 172590, "name": "ศูนย์ควบคุมการจราจรสถานีตำรวจมักกะสัน", "district": "ห้วยขวาง", "snapDistanceMeters": 22.46}}, {"type": "Feature", "geometry": {"type": "Point", "coordinates": [100.3925940173923, 13.695629597865787]}, "properties": {"id": 245178, "name": "สถานีตำรวจนครบาลเพชรเกษม", "district": "บางแค", "snapDistanceMeters": 22.56}}, {"type": "Feature", "geometry": {"type": "Point", "coordinates": [100.42738520961613, 13.740601214697836]}, "properties": {"id": 194378, "name": "จุดตรวจจราจรสถานีตำรวจนครบาลบางเสาธง", "district": "ภาษีเจริญ", "snapDistanceMeters": 6.88}}, {"type": "Feature", "geometry": {"type": "Point", "coordinates": [100.69719855781551, 13.725740884675677]}, "properties": {"id": 194028, "name": "ชมรมตะกร้อสถานีตำรวจนครบาลประเวศตลาดไชโย", "district": "ประเวศ", "snapDistanceMeters": 25.46}}, {"type": "Feature", "geometry": {"type": "Point", "coordinates": [100.56965884797474, 13.70990376068816]}, "properties": {"id": 193642, "name": "ที่ทำการตำรวจชุมชนแฟลต 11-18", "district": "คลองเตย", "snapDistanceMeters": 20.32}}, {"type": "Feature", "geometry": {"type": "Point", "coordinates": [100.51200986927654, 13.750655535180224]}, "properties": {"id": 243034, "name": "หน่วยบริการประชาชนสถานีตำรวจนครบาลพลับพลาไชย 1", "district": "ป้อมปราบศัตรูพ่าย", "snapDistanceMeters": 12.02}}, {"type": "Feature", "geometry": {"type": "Point", "coordinates": [100.35295313417033, 13.751437615557462]}, "properties": {"id": 376306, "name": "สถานีตำรวจนครบาลศาลาแดง", "district": "บางแค", "snapDistanceMeters": 17.29}}, {"type": "Feature", "geometry": {"type": "Point", "coordinates": [100.60729935324197, 13.674542599850955]}, "properties": {"id": 376052, "name": "จุดรับแจ้งเหตุ 24 ชั่วโมงสถานีตำรวจบางนา (รุ่งแสง)", "district": "บางนา", "snapDistanceMeters": 33.41}}, {"type": "Feature", "geometry": {"type": "Point", "coordinates": [100.38820482175278, 13.624557817326048]}, "properties": {"id": 375967, "name": "ศูนย์ปฏิบัติการพื้นที่ปลอดภัยสถานีตำรวจแสมดำ", "district": "บางขุนเทียน", "snapDistanceMeters": 6.97}}, {"type": "Feature", "geometry": {"type": "Point", "coordinates": [100.59572140809844, 13.795261773684476]}, "properties": {"id": 12005, "name": "สำนักงานอาสาสมัครตำรวจสถานีตำรวจนครบาลโชคชัย", "district": "วังทองหลาง", "snapDistanceMeters": 14.02}}, {"type": "Feature", "geometry": {"type": "Point", "coordinates": [100.47706684032723, 13.657061454839395]}, "properties": {"id": 10173, "name": "จุดพักสายตรวจสถานีตำรวจนครบาลราษฎร์บูรณะ", "district": "ทุ่งครุ", "snapDistanceMeters": 8.97}}, {"type": "Feature", "geometry": {"type": "Point", "coordinates": [100.61787371063501, 13.781333910914555]}, "properties": {"id": 11838, "name": "จุดรับแจ้งเหตุ 24 ชั่วโมงสถานีตำรวจนครบาลโชคชัย 4", "district": "วังทองหลาง", "snapDistanceMeters": 18.53}}, {"type": "Feature", "geometry": {"type": "Point", "coordinates": [100.59269449268835, 13.795711936353356]}, "properties": {"id": 11845, "name": "ศูนย์ปฏิบัติการจราจรสถานีตำรวจโชคชัย", "district": "วังทองหลาง", "snapDistanceMeters": 13.99}}, {"type": "Feature", "geometry": {"type": "Point", "coordinates": [100.5953193123013, 13.738909213851139]}, "properties": {"id": 11671, "name": "จุดตรวจสถานีตำรวจนครบาลคลองตัน", "district": "วัฒนา", "snapDistanceMeters": 7.77}}, {"type": "Feature", "geometry": {"type": "Point", "coordinates": [100.53009528037285, 13.779099259403525]}, "properties": {"id": 12612, "name": "ที่ทำการหน่วยบริการตำรวจรถไฟสถานีสามเสน (สถานีตำรวจรถไฟนพวงษ์)", "district": "พญาไท", "snapDistanceMeters": 30.79}}, {"type": "Feature", "geometry": {"type": "Point", "coordinates": [100.64493719364731, 13.7806435931163]}, "properties": {"id": 10464, "name": "ตู้ควบคุมสัญญาณไฟจราจรสถานีตำรวจนครบาลลาดพร้าว", "district": "บางกะปิ", "snapDistanceMeters": 15.55}}, {"type": "Feature", "geometry": {"type": "Point", "coordinates": [100.51960651860492, 13.720400405209217]}, "properties": {"id": 10146, "name": "สถานีตำรวจนครบาลยานนาวา", "district": "บางรัก", "snapDistanceMeters": 20.86}}, {"type": "Feature", "geometry": {"type": "Point", "coordinates": [100.62898747077993, 13.77488365018791]}, "properties": {"id": 10538, "name": "ตู้ควบคุมสัญญาณไฟจราจรสถานีตำรวจนครบาลลาดพร้าว", "district": "บางกะปิ", "snapDistanceMeters": 10.25}}, {"type": "Feature", "geometry": {"type": "Point", "coordinates": [100.50691462279164, 13.742452316732983]}, "properties": {"id": 341805, "name": "ตู้ควบคุมสัญญาณไฟแยกราชวงศ์สถานีตำรวจนครบาลจักรวรรดิ", "district": "สัมพันธวงค์", "snapDistanceMeters": 16.99}}, {"type": "Feature", "geometry": {"type": "Point", "coordinates": [100.53918688413852, 13.718473916141132]}, "properties": {"id": 350881, "name": "สถานีตำรวจนครบาลบางโพงพาง", "district": "สาทร", "snapDistanceMeters": 14.29}}, {"type": "Feature", "geometry": {"type": "Point", "coordinates": [100.76380372352513, 13.721675487621955]}, "properties": {"id": 250517, "name": "สถานีตำรวจนครบาลลาดกระบัง", "district": "ลาดกระบัง", "snapDistanceMeters": 35.58}}, {"type": "Feature", "geometry": {"type": "Point", "coordinates": [100.54803761387242, 13.78679991143179]}, "properties": {"id": 250933, "name": "โรงอาหารสถานีตำรวจบางซื่อ", "district": "พญาไท", "snapDistanceMeters": 26.85}}, {"type": "Feature", "geometry": {"type": "Point", "coordinates": [100.54790311932527, 13.763740850410269]}, "properties": {"id": 119822, "name": "ศูนย์ควบคุมการจราจรสถานีตำรวจนครบาลดินแดง", "district": "พญาไท", "snapDistanceMeters": 14.32}}, {"type": "Feature", "geometry": {"type": "Point", "coordinates": [100.57377463575015, 13.789967527564636]}, "properties": {"id": 119911, "name": "ห้องปฏิบัติการจราจรสถานีตำรวจนครบาลสุทธิสาร", "district": "ดินแดง", "snapDistanceMeters": 16.16}}, {"type": "Feature", "geometry": {"type": "Point", "coordinates": [100.57557169419755, 13.83949832374892]}, "properties": {"id": 118458, "name": "จุดรับแจ้งเหตุสถานีตำรวจนครบาลบางเขน", "district": "จตุจักร", "snapDistanceMeters": 12.9}}, {"type": "Feature", "geometry": {"type": "Point", "coordinates": [100.50968843117396, 13.780508884674155]}, "properties": {"id": 178469, "name": "ห้องปฏิบัติการสืบสวนปราบปรามสถานีตำรวจนครบาลสามเสน", "district": "ดุสิต", "snapDistanceMeters": 15.61}}, {"type": "Feature", "geometry": {"type": "Point", "coordinates": [100.42475206538559, 13.654730327332926]}, "properties": {"id": 177971, "name": "สถานีตำรวจชุมชนการเคหะธนบุรี", "district": "บางขุนเทียน", "snapDistanceMeters": 17.0}}, {"type": "Feature", "geometry": {"type": "Point", "coordinates": [100.54588155767891, 13.731316533488817]}, "properties": {"id": 120063, "name": "ห้องปฏิบัติการจราจรสถานีตำรวจนครบาลลุมพินี", "district": "ปทุมวัน", "snapDistanceMeters": 18.93}}, {"type": "Feature", "geometry": {"type": "Point", "coordinates": [100.6987218237665, 13.724116728310193]}, "properties": {"id": 194111, "name": "ชุมชนหลังสถานีตำรวจนครบาลประเวศ", "district": "ประเวศ", "snapDistanceMeters": 18.23}}, {"type": "Feature", "geometry": {"type": "Point", "coordinates": [100.50263514297828, 13.741125955782124]}, "properties": {"id": 250426, "name": "สถานีตำรวจนครบาลจักรวรรดิ", "district": "สัมพันธวงค์", "snapDistanceMeters": 26.98}}, {"type": "Feature", "geometry": {"type": "Point", "coordinates": [100.50199025804814, 13.74040609810943]}, "properties": {"id": 1762, "name": "บ้านพักชั่วคราวสถานีตำรวจนครบาลจักวรรดิ", "district": "สัมพันธวงค์", "snapDistanceMeters": 29.91}}, {"type": "Feature", "geometry": {"type": "Point", "coordinates": [100.60951297300731, 13.897324152769665]}, "properties": {"id": 154896, "name": "สถานีตำรวจชุมชนตลาดยิ่งเจริญ", "district": "บางเขน", "snapDistanceMeters": 46.59}}, {"type": "Feature", "geometry": {"type": "Point", "coordinates": [100.56362743066805, 13.711336335881137]}, "properties": {"id": 144979, "name": "ศูนย์ควบคุมการจราจรสถานีตำรวจนครบาลท่าเรือ", "district": "คลองเตย", "snapDistanceMeters": 5.53}}, {"type": "Feature", "geometry": {"type": "Point", "coordinates": [100.56445486712413, 13.708532038145515]}, "properties": {"id": 144982, "name": "จุดรับแจ้งเหตุสถานีตำรวจนครบาลท่าเรือ", "district": "คลองเตย", "snapDistanceMeters": 19.31}}, {"type": "Feature", "geometry": {"type": "Point", "coordinates": [100.57047260346462, 13.71329122317017]}, "properties": {"id": 144780, "name": "ที่ทำการตำรวจชุมชนแฟลต 1-10", "district": "คลองเตย", "snapDistanceMeters": 12.25}}, {"type": "Feature", "geometry": {"type": "Point", "coordinates": [100.58146290926744, 13.710021744496698]}, "properties": {"id": 144831, "name": "ศูนย์ควบคุมการจราจรสี่แยกอาจณรงค์สถานีตำรวจนครบาลท่าเรือ", "district": "คลองเตย", "snapDistanceMeters": 23.54}}, {"type": "Feature", "geometry": {"type": "Point", "coordinates": [100.51921195498628, 13.788076795779533]}, "properties": {"id": 149995, "name": "ที่ทำการตำรวจชุมชนแขวงถนนนครไชยศรี", "district": "ดุสิต", "snapDistanceMeters": 3.91}}, {"type": "Feature", "geometry": {"type": "Point", "coordinates": [100.79405588654667, 13.750409577071204]}, "properties": {"id": 150267, "name": "จุดควบคุมสัญญาณไฟจราจรสามแยกถนนเจ้าคุณทหารสถานีตำรวจนครบาลฉลองกรุง", "district": "ลาดกระบัง", "snapDistanceMeters": 7.9}}, {"type": "Feature", "geometry": {"type": "Point", "coordinates": [100.58648211630269, 13.770025209327818]}, "properties": {"id": 148981, "name": "ตู้ควบคุมจราจรแยกประชาอุทิศสถานีตำรวจนครบาลห้วยขวาง", "district": "ห้วยขวาง", "snapDistanceMeters": 16.21}}, {"type": "Feature", "geometry": {"type": "Point", "coordinates": [100.47145966742923, 13.76016242251958]}, "properties": {"id": 150520, "name": "สถานีตำรวจนครบาลบางกอกน้อย", "district": "บางกอกน้อย", "snapDistanceMeters": 11.6}}, {"type": "Feature", "geometry": {"type": "Point", "coordinates": [100.78285048706026, 13.806873329543102]}, "properties": {"id": 418814, "name": "สถานีตำรวจนครบาลฉลองกรุง", "district": "มีนบุรี", "snapDistanceMeters": 39.3}}, {"type": "Feature", "geometry": {"type": "Point", "coordinates": [100.76177333224764, 13.743009430939114]}, "properties": {"id": 422928, "name": "หน่วยบริการประชาชนสถานีตำรวจรถไฟมักกะสัน", "district": "ลาดกระบัง", "snapDistanceMeters": 16.66}}, {"type": "Feature", "geometry": {"type": "Point", "coordinates": [100.49713292213492, 13.697062673511406]}, "properties": {"id": 150248, "name": "จุดสกัดสี่แยกถนนตกสถานีตำรวจนครบาลวัดพระยาไกร", "district": "บางคอแหลม", "snapDistanceMeters": 24.74}}, {"type": "Feature", "geometry": {"type": "Point", "coordinates": [100.47759301569734, 13.79008808764798]}, "properties": {"id": 331990, "name": "หน่วยบริการประชาชนงานจราจรสถานีตำรวจภูธรบางพลัด", "district": "บางพลัด", "snapDistanceMeters": 20.75}}, {"type": "Feature", "geometry": {"type": "Point", "coordinates": [100.68617854987492, 13.802271859699283]}, "properties": {"id": 376889, "name": "สถานีตำรวจนครบาลบางชัน", "district": "คันนายาว", "snapDistanceMeters": 15.04}}, {"type": "Feature", "geometry": {"type": "Point", "coordinates": [100.52318316884978, 13.730000637041714]}, "properties": {"id": 433312, "name": "สถานีตำรวจนครบาลบางรัก", "district": "บางรัก", "snapDistanceMeters": 15.41}}, {"type": "Feature", "geometry": {"type": "Point", "coordinates": [100.64228927683725, 13.665640535864535]}, "properties": {"id": 283961, "name": "สถานีตำรวจชุมชนบางนา", "district": "บางนา", "snapDistanceMeters": 16.76}}, {"type": "Feature", "geometry": {"type": "Point", "coordinates": [100.51925763982123, 13.8155370442859]}, "properties": {"id": 429893, "name": "สถานีตำรวจทางด่วน", "district": "บางซื่อ", "snapDistanceMeters": 18.44}}, {"type": "Feature", "geometry": {"type": "Point", "coordinates": [100.49837433071342, 13.684331256693174]}, "properties": {"id": 377176, "name": "สถานีตำรวจนครบาลราษฎร์บูรณะ", "district": "ราษฎร์บูรณะ", "snapDistanceMeters": 24.9}}, {"type": "Feature", "geometry": {"type": "Point", "coordinates": [100.58334696783312, 13.746037737658758]}, "properties": {"id": 147996, "name": "ศูนย์ข้อมูลข่าวสารสถานีตำรวจนครบาลมักกะสัน", "district": "ห้วยขวาง", "snapDistanceMeters": 23.73}}, {"type": "Feature", "geometry": {"type": "Point", "coordinates": [100.64694623488835, 13.686096784849267]}, "properties": {"id": 145696, "name": "ตู้ควบคุมสัญญาณไฟจราจรสถานีตำรวจนครบาลประเวศ", "district": "ประเวศ", "snapDistanceMeters": 14.71}}, {"type": "Feature", "geometry": {"type": "Point", "coordinates": [100.6042636274641, 13.848569942259221]}, "properties": {"id": 146747, "name": "จุดตรวจร่วมสถานีตำรวจนครบาลบางเขน", "district": "บางเขน", "snapDistanceMeters": 14.78}}, {"type": "Feature", "geometry": {"type": "Point", "coordinates": [100.57445013749057, 13.752969093716606]}, "properties": {"id": 147911, "name": "ตู้ควบคุมจราจรแยกจตุรทิศสถานีตำรวจนครบาลมักกะสัน", "district": "ห้วยขวาง", "snapDistanceMeters": 6.7}}, {"type": "Feature", "geometry": {"type": "Point", "coordinates": [100.51039028170848, 13.736615165948406]}, "properties": {"id": 433793, "name": "สถานีตำรวจชุมชนปทุมคงคา", "district": "สัมพันธวงค์", "snapDistanceMeters": 8.37}}, {"type": "Feature", "geometry": {"type": "Point", "coordinates": [100.51259873100771, 13.739267756535462]}, "properties": {"id": 151053, "name": "ป้อมควบคุมการจราจรสถานีตำรวจพลับพลาไชยเขต 2", "district": "สัมพันธวงค์", "snapDistanceMeters": 14.33}}, {"type": "Feature", "geometry": {"type": "Point", "coordinates": [100.468287507917, 13.770638656407433]}, "properties": {"id": 151463, "name": "สถานีตำรวจนครบาลบางขุนนนท์", "district": "บางกอกน้อย", "snapDistanceMeters": 15.83}}, {"type": "Feature", "geometry": {"type": "Point", "coordinates": [100.35439607962938, 13.770899081576559]}, "properties": {"id": 151049, "name": "สถานีตำรวจนครบาลธรรมศาลา", "district": "ทวีวัฒนา", "snapDistanceMeters": 27.42}}, {"type": "Feature", "geometry": {"type": "Point", "coordinates": [100.52889728539911, 13.689878199797656]}, "properties": {"id": 12967, "name": "ศูนย์ปฏิบัติการตำรวจบ้านสถานีตำรวจบางโพงพาง", "district": "ยานนาวา", "snapDistanceMeters": 19.03}}, {"type": "Feature", "geometry": {"type": "Point", "coordinates": [100.52152981829747, 13.713647814045913]}, "properties": {"id": 377912, "name": "จุดรับแจ้งเหตุสถานีตำรวจยานนาวา", "district": "สาทร", "snapDistanceMeters": 11.46}}, {"type": "Feature", "geometry": {"type": "Point", "coordinates": [100.57012026902727, 13.825930294413656]}, "properties": {"id": 377593, "name": "สถานีตำรวจนครบาลพหลโยธิน", "district": "จตุจักร", "snapDistanceMeters": 32.58}}, {"type": "Feature", "geometry": {"type": "Point", "coordinates": [100.38770806943887, 13.664275696523983]}, "properties": {"id": 285548, "name": "ที่ทำการตำรวจชุมชนสถานีตำรวจนครบาลบางบอนชุมชนรางไผ่", "district": "บางบอน", "snapDistanceMeters": 13.1}}, {"type": "Feature", "geometry": {"type": "Point", "coordinates": [100.64401082712276, 13.765567857268696]}, "properties": {"id": 378492, "name": "อาคารที่พักข้าราชการตำรวจสถานีตำรวจนครบาลลาดพร้าว", "district": "บางกะปิ", "snapDistanceMeters": 37.31}}, {"type": "Feature", "geometry": {"type": "Point", "coordinates": [100.70633341537182, 13.705420718868476]}, "properties": {"id": 284993, "name": "ที่พักสายตรวจสถานีตำรวจนครบาลอุดมสุข", "district": "ประเวศ", "snapDistanceMeters": 13.57}}, {"type": "Feature", "geometry": {"type": "Point", "coordinates": [100.62699935803155, 13.760502896086628]}, "properties": {"id": 377749, "name": "สถานีตำรวจนครบาลหัวหมาก", "district": "บางกะปิ", "snapDistanceMeters": 30.97}}, {"type": "Feature", "geometry": {"type": "Point", "coordinates": [100.57520904776692, 13.887620138009698]}, "properties": {"id": 378091, "name": "จุดสกัดแจ้งวัฒนะสถานีตำรวจนครบาลทุ่งสองห้อง", "district": "หลักสี่", "snapDistanceMeters": 27.16}}, {"type": "Feature", "geometry": {"type": "Point", "coordinates": [100.52072383382861, 13.777386371708971]}, "properties": {"id": 377457, "name": "สถานีตำรวจนครบาลดุสิต", "district": "ดุสิต", "snapDistanceMeters": 18.63}}, {"type": "Feature", "geometry": {"type": "Point", "coordinates": [100.5606299264694, 13.750961160474697]}, "properties": {"id": 417067, "name": "สถานีตำรวจรถไฟสุวรรณภูมิ", "district": "ราขเทวี", "snapDistanceMeters": 45.91}}, {"type": "Feature", "geometry": {"type": "Point", "coordinates": [100.5281796923865, 13.744420032766406]}, "properties": {"id": 416781, "name": "สถานีตำรวจท่องเที่ยว 2 กองกำกับการ 1 กองบังคับการตำรวจท่องเที่ยว 1", "district": "ปทุมวัน", "snapDistanceMeters": 32.08}}, {"type": "Feature", "geometry": {"type": "Point", "coordinates": [100.4137532247485, 13.653828260706694]}, "properties": {"id": 103412, "name": "สถานีตำรวจชุมชนหมู่บ้านดี.เค.", "district": "บางบอน", "snapDistanceMeters": 6.15}}, {"type": "Feature", "geometry": {"type": "Point", "coordinates": [100.52317959150882, 13.736972427997372]}, "properties": {"id": 103258, "name": "สถานีตำรวจนครบาลปทุมวัน", "district": "ปทุมวัน", "snapDistanceMeters": 28.23}}, {"type": "Feature", "geometry": {"type": "Point", "coordinates": [100.5189458288828, 13.731480064613166]}, "properties": {"id": 103666, "name": "บ้านพักสถานีตำรวจบางรัก", "district": "บางรัก", "snapDistanceMeters": 26.17}}, {"type": "Feature", "geometry": {"type": "Point", "coordinates": [100.44969253627397, 13.718878504010114]}, "properties": {"id": 275376, "name": "ศูนย์ประสานงานสายตรวจตำรวจชุมชนสถานีตำรวจภาษีเจริญ", "district": "ภาษีเจริญ", "snapDistanceMeters": 10.84}}, {"type": "Feature", "geometry": {"type": "Point", "coordinates": [100.60900655590393, 13.786506988402651]}, "properties": {"id": 435529, "name": "ศูนย์ปฏิบัติการสมาชิกแจ้งข่าวสถานีตำรวจนครบาลโชคชัย", "district": "วังทองหลาง", "snapDistanceMeters": 6.1}}, {"type": "Feature", "geometry": {"type": "Point", "coordinates": [100.77788231798111, 13.728068079041673]}, "properties": {"id": 395122, "name": "สถานีตำรวจชุมชน สจล.", "district": "ลาดกระบัง", "snapDistanceMeters": 21.44}}, {"type": "Feature", "geometry": {"type": "Point", "coordinates": [100.59790234335192, 13.829633373912873]}, "properties": {"id": 107019, "name": "จุดตรวจหมู่บ้านอมรพันธ์ 9 สถานีตำรวจนครบาลโชคชัย", "district": "ลาดพร้าว", "snapDistanceMeters": 13.7}}, {"type": "Feature", "geometry": {"type": "Point", "coordinates": [100.4974137429148, 13.780932341847462]}, "properties": {"id": 227997, "name": "ที่ทำการตำรวจชุมชนวัดภคินีนาถ", "district": "บางพลัด", "snapDistanceMeters": 12.67}}, {"type": "Feature", "geometry": {"type": "Point", "coordinates": [100.5670911695637, 13.786140158607333]}, "properties": {"id": 434331, "name": "จุดรับแจ้งเหตุสถานีตำรวจสุทธิสาร", "district": "ดินแดง", "snapDistanceMeters": 8.69}}, {"type": "Feature", "geometry": {"type": "Point", "coordinates": [100.51084245154057, 13.621671266145748]}, "properties": {"id": 394766, "name": "ตู้ควบคุมสัญญาณไฟจราจรสถานีตำรวจนครบาลทุ่งครุ", "district": "ทุ่งครุ", "snapDistanceMeters": 13.1}}, {"type": "Feature", "geometry": {"type": "Point", "coordinates": [100.5804614550492, 13.709283877585575]}, "properties": {"id": 434422, "name": "สถานีตำรวจนครบาลท่าเรือ", "district": "คลองเตย", "snapDistanceMeters": 28.99}}, {"type": "Feature", "geometry": {"type": "Point", "coordinates": [100.45994725728468, 13.743432574994959]}, "properties": {"id": 434747, "name": "สถานีตำรวจนครบาลบางเสาธง", "district": "ภาษีเจริญ", "snapDistanceMeters": 13.96}}, {"type": "Feature", "geometry": {"type": "Point", "coordinates": [100.57145850978516, 13.867914665465925]}, "properties": {"id": 434797, "name": "สถานีตำรวจนครบาลทุ่งสองห้อง", "district": "หลักสี่", "snapDistanceMeters": 37.11}}, {"type": "Feature", "geometry": {"type": "Point", "coordinates": [100.52992117687607, 13.759298451640081]}, "properties": {"id": 435122, "name": "สถานีตำรวจนครบาลพญาไท", "district": "ราขเทวี", "snapDistanceMeters": 27.14}}, {"type": "Feature", "geometry": {"type": "Point", "coordinates": [100.45485370908908, 13.673818577103077]}, "properties": {"id": 2246, "name": "สถานีตำรวจนครบาลบางมด", "district": "จอมทอง", "snapDistanceMeters": 28.0}}, {"type": "Feature", "geometry": {"type": "Point", "coordinates": [100.53112832911583, 13.707516035335521]}, "properties": {"id": 434036, "name": "สถานีตำรวจชุมชนวรรัตน์", "district": "สาทร", "snapDistanceMeters": 8.16}}, {"type": "Feature", "geometry": {"type": "Point", "coordinates": [100.65159645834952, 13.842469026407116]}, "properties": {"id": 435676, "name": "ที่ทำการตำรวจชุมชนแขวงคันนายาว", "district": "คันนายาว", "snapDistanceMeters": 9.09}}, {"type": "Feature", "geometry": {"type": "Point", "coordinates": [100.69765311929903, 13.72128396258417]}, "properties": {"id": 108061, "name": "ตู้ควบคุมสัญญาณไฟจราจรสถานีตำรวจนครบาลประเวศ", "district": "ประเวศ", "snapDistanceMeters": 5.76}}, {"type": "Feature", "geometry": {"type": "Point", "coordinates": [100.78700232970289, 13.906939526165475]}, "properties": {"id": 109513, "name": "ที่ทำการตำรวจบ้านเคหะมีนบุรีคลองเก้า", "district": "คลองสามวา", "snapDistanceMeters": 16.2}}, {"type": "Feature", "geometry": {"type": "Point", "coordinates": [100.49460857575593, 13.742899658697539]}, "properties": {"id": 102760, "name": "สถานีตำรวจนครบาลพระราชวัง", "district": "พระนคร", "snapDistanceMeters": 29.6}}, {"type": "Feature", "geometry": {"type": "Point", "coordinates": [100.49181207433277, 13.765359856455705]}, "properties": {"id": 102763, "name": "สถานีตำรวจนครบาลบางยี่ขัน", "district": "บางพลัด", "snapDistanceMeters": 19.48}}, {"type": "Feature", "geometry": {"type": "Point", "coordinates": [100.46369182063185, 13.72886310106077]}, "properties": {"id": 125482, "name": "ที่พักสายตรวจสถานีตำรวจภาษีเจริญ", "district": "ภาษีเจริญ", "snapDistanceMeters": 10.86}}, {"type": "Feature", "geometry": {"type": "Point", "coordinates": [100.49286733120755, 13.725644150081528]}, "properties": {"id": 124453, "name": "จุดรับแจ้งเหตุ 24 ชั่งโมงสถานีตำรวจนครบาลบุปผาราม (จุดวงเวียนใหญ่)", "district": "ธนบุรี", "snapDistanceMeters": 10.78}}, {"type": "Feature", "geometry": {"type": "Point", "coordinates": [100.66235631016593, 13.776932414818036]}, "properties": {"id": 403338, "name": "ตู้ควบคุมสัญญาณไฟจราจรสถานีตำรวจนครบาลบึงกุ่ม", "district": "บึงกุ่ม", "snapDistanceMeters": 7.08}}, {"type": "Feature", "geometry": {"type": "Point", "coordinates": [100.57483175384517, 13.709213317406629]}, "properties": {"id": 386810, "name": "ที่ทำการตำรวจชุมชน 70 ไร่", "district": "คลองเตย", "snapDistanceMeters": 10.25}}, {"type": "Feature", "geometry": {"type": "Point", "coordinates": [100.51146245416581, 13.739445002272062]}, "properties": {"id": 228, "name": "ป้อมควบคุมการจราจรสถานีตำรวจนครบาลพลับพลาไชย 2", "district": "สัมพันธวงค์", "snapDistanceMeters": 15.29}}, {"type": "Feature", "geometry": {"type": "Point", "coordinates": [100.8679617494354, 13.85645564691669]}, "properties": {"id": 126910, "name": "สถานีตำรวจนครบาลหนองจอก", "district": "หนองจอก", "snapDistanceMeters": 25.6}}, {"type": "Feature", "geometry": {"type": "Point", "coordinates": [100.44632352539556, 13.7805796118073]}, "properties": {"id": 127686, "name": "สถานีตำรวจนครบาลตลิ่งชัน", "district": "ตลิ่งชัน", "snapDistanceMeters": 17.4}}, {"type": "Feature", "geometry": {"type": "Point", "coordinates": [100.5468409002924, 13.842004476587205]}, "properties": {"id": 127786, "name": "สถานีตำรวจนครบาลประชาชื่น", "district": "จตุจักร", "snapDistanceMeters": 15.24}}, {"type": "Feature", "geometry": {"type": "Point", "coordinates": [100.86338376125244, 13.896795728156292]}, "properties": {"id": 127812, "name": "สถานีตำรวจนครบาลประชาสำราญ", "district": "หนองจอก", "snapDistanceMeters": 26.61}}, {"type": "Feature", "geometry": {"type": "Point", "coordinates": [100.51669542490431, 13.745640966731624]}, "properties": {"id": 230400, "name": "สถานีตำรวจรถไฟนพวงศ์", "district": "ปทุมวัน", "snapDistanceMeters": 29.0}}, {"type": "Feature", "geometry": {"type": "Point", "coordinates": [100.4574315701879, 13.671052091257165]}, "properties": {"id": 259533, "name": "ศูนย์ประสานงานตำรวจชุมชนสัมพันธ์สถานีตำรวจนครบาลท่าข้าม", "district": "จอมทอง", "snapDistanceMeters": 32.57}}, {"type": "Feature", "geometry": {"type": "Point", "coordinates": [100.79123119450821, 13.717720942396648]}, "properties": {"id": 126089, "name": "สถานีตำรวจนครบาลจรเข้น้อย", "district": "ลาดกระบัง", "snapDistanceMeters": 30.33}}, {"type": "Feature", "geometry": {"type": "Point", "coordinates": [100.83785943026633, 13.852921082564166]}, "properties": {"id": 258483, "name": "ที่ทำการตำรวจบ้านชุมชนบ้านทรัพย์เจริญ", "district": "หนองจอก", "snapDistanceMeters": 11.22}}, {"type": "Feature", "geometry": {"type": "Point", "coordinates": [100.5042262757687, 13.750936981276071]}, "properties": {"id": 125668, "name": "ชุมชนสถานีตำรวจนครบาลสำราญราษฎร์", "district": "พระนคร", "snapDistanceMeters": 67.11}}, {"type": "Feature", "geometry": {"type": "Point", "coordinates": [100.50357658127685, 13.752048981692052]}, "properties": {"id": 125671, "name": "สถานีตำรวจนครบาลสำราญราษฎร์", "district": "พระนคร", "snapDistanceMeters": 58.84}}, {"type": "Feature", "geometry": {"type": "Point", "coordinates": [100.50379022585832, 13.749210394224088]}, "properties": {"id": 126365, "name": "ตู้ควบคุมสัญญาณไฟจราจรสถานีตำรวจนครบาลสำราญราษฎร์", "district": "พระนคร", "snapDistanceMeters": 14.67}}, {"type": "Feature", "geometry": {"type": "Point", "coordinates": [100.56809066205538, 13.77839282564352]}, "properties": {"id": 787, "name": "ป้อมสายตรวจจราจรสถานีตำรวจนครบาลห้วยขวาง", "district": "ดินแดง", "snapDistanceMeters": 10.04}}]}