{"type": "FeatureCollection", "features": [{"type": "Feature", "geometry": {"type": "Point", "coordinates": [100.57693652537299, 13.714557517171764]}, "properties": {"id": 318, "name": "โรงพยาบาลเทพธารินทร์", "district": "คลองเตย", "snapDistanceMeters": 28.87}}, {"type": "Feature", "geometry": {"type": "Point", "coordinates": [100.57988508936646, 13.732457760943273]}, "properties": {"id": 21556, "name": "ที่จอดรถโรงพยาบาลสมิติเวช", "district": "วัฒนา", "snapDistanceMeters": 43.61}}, {"type": "Feature", "geometry": {"type": "Point", "coordinates": [100.49666875504688, 13.697551628556564]}, "properties": {"id": 21703, "name": "ศูนย์ล้างไตทางช่องท้องโรงพยาบาลบ้านแพ้ว (องค์กรมหาชน)", "district": "บางคอแหลม", "snapDistanceMeters": 42.76}}, {"type": "Feature", "geometry": {"type": "Point", "coordinates": [100.5224102988598, 13.807194042051622]}, "properties": {"id": 16115, "name": "อาคารจอดรถโรงพยาบาลบางโพ", "district": "บางซื่อ", "snapDistanceMeters": 22.62}}, {"type": "Feature", "geometry": {"type": "Point", "coordinates": [100.54022919218733, 13.770705532812297]}, "properties": {"id": 92917, "name": "อาคาร 2 โรงพยาบาลพญาไท 2", "district": "พญาไท", "snapDistanceMeters": 35.83}}, {"type": "Feature", "geometry": {"type": "Point", "coordinates": [100.46975838786686, 13.699004588858259]}, "properties": {"id": 90753, "name": "โรงพยาบาลทั่วไปขนาดเล็กบางขุนเทียน 1", "district": "จอมทอง", "snapDistanceMeters": 17.52}}, {"type": "Feature", "geometry": {"type": "Point", "coordinates": [100.47048228352098, 13.787740166367323]}, "properties": {"id": 91146, "name": "โรงพยาบาลตาหูคอจมูก", "district": "บางพลัด", "snapDistanceMeters": 27.07}}, {"type": "Feature", "geometry": {"type": "Point", "coordinates": [100.63564553334565, 13.665811796790052]}, "properties": {"id": 91359, "name": "อาคารจอดรถโรงพยาบาลบางนา", "district": "บางนา", "snapDistanceMeters": 16.89}}, {"type": "Feature", "geometry": {"type": "Point", "coordinates": [100.60406522785478, 13.679628930748645]}, "properties": {"id": 15451, "name": "อาคารผู้สูงอายุโรงพยาบาลกล้วยน้ำไท", "district": "บางนา", "snapDistanceMeters": 15.85}}, {"type": "Feature", "geometry": {"type": "Point", "coordinates": [100.51130646722827, 13.611367405985426]}, "properties": {"id": 29937, "name": "คลินิกโรงพยาบาลกรุงเทพ", "district": "ทุ่งครุ", "snapDistanceMeters": 22.34}}, {"type": "Feature", "geometry": {"type": "Point", "coordinates": [100.54993678235604, 13.792494605809159]}, "properties": {"id": 35809, "name": "โรงพยาบาลเปาโลเมโมเรียล", "district": "พญาไท", "snapDistanceMeters": 70.09}}, {"type": "Feature", "geometry": {"type": "Point", "coordinates": [100.50099711809766, 13.723290267923606]}, "properties": {"id": 56148, "name": "หอพักโรงพยาบาลกรุงธน", "district": "คลองสาน", "snapDistanceMeters": 14.58}}, {"type": "Feature", "geometry": {"type": "Point", "coordinates": [100.60680665757616, 13.888721462576479]}, "properties": {"id": 56788, "name": "โรงพยาบาลซีจีเอช สะพานใหม่", "district": "บางเขน", "snapDistanceMeters": 38.91}}, {"type": "Feature", "geometry": {"type": "Point", "coordinates": [100.47495875344289, 13.719737621096373]}, "properties": {"id": 55820, "name": "โรงพยาบาลเยาวรักษ์", "district": "ธนบุรี", "snapDistanceMeters": 21.65}}, {"type": "Feature", "geometry": {"type": "Point", "coordinates": [100.63600221334421, 13.759373857890349]}, "properties": {"id": 130916, "name": "บริษัท โรงพยาบาลรามคำแหง จำกัด (มหาชน)", "district": "บางกะปิ", "snapDistanceMeters": 18.9}}, {"type": "Feature", "geometry": {"type": "Point", "coordinates": [100.47303078268872, 13.782228041790498]}, "properties": {"id": 130178, "name": "โรงพยาบาลผิวหนังอโศก สาขาปิ่นเกล้า", "district": "บางกอกน้อย", "snapDistanceMeters": 19.68}}, {"type": "Feature", "geometry": {"type": "Point", "coordinates": [100.51221742061634, 13.799548788956196]}, "properties": {"id": 55060, "name": "โรงพยาบาลยันฮี", "district": "บางพลัด", "snapDistanceMeters": 9.04}}, {"type": "Feature", "geometry": {"type": "Point", "coordinates": [100.504016348209, 13.729567800662]}, "properties": {"id": 129045, "name": "ชุมชนหลังโรงพยาบาลบ้านสมเด็จเจ้าพระยา", "district": "คลองสาน", "snapDistanceMeters": 20.43}}, {"type": "Feature", "geometry": {"type": "Point", "coordinates": [100.48959589706936, 13.714082463042828]}, "properties": {"id": 55184, "name": "โรงพยาบาลสมิติเวชธนบุรี", "district": "ธนบุรี", "snapDistanceMeters": 21.98}}, {"type": "Feature", "geometry": {"type": "Point", "coordinates": [100.60713829373593, 13.794755608717796]}, "properties": {"id": 54828, "name": "โรงพยาบาลภัสรพิบาลเนอสซิ่งโฮม", "district": "วังทองหลาง", "snapDistanceMeters": 16.0}}, {"type": "Feature", "geometry": {"type": "Point", "coordinates": [100.71715903181791, 13.811134461412365]}, "properties": {"id": 32861, "name": "โรงพยาบาลเสรีรักษ์", "district": "มีนบุรี", "snapDistanceMeters": 20.21}}, {"type": "Feature", "geometry": {"type": "Point", "coordinates": [100.72365459301831, 13.8117711816873]}, "properties": {"id": 32282, "name": "โรงพยาบาลนวมินทร์ 9", "district": "มีนบุรี", "snapDistanceMeters": 14.37}}, {"type": "Feature", "geometry": {"type": "Point", "coordinates": [100.55448029470877, 13.724872764193949]}, "properties": {"id": 128883, "name": "โรงพยาบาลสวนเบญจกิติเฉลิมพระเกียรติ 84 พรรษา", "district": "คลองเตย", "snapDistanceMeters": 60.66}}, {"type": "Feature", "geometry": {"type": "Point", "coordinates": [100.60761615839377, 13.743231015099264]}, "properties": {"id": 31080, "name": "โรงพยาบาลแพทย์ปัญญา", "district": "สวนหลวง", "snapDistanceMeters": 40.26}}, {"type": "Feature", "geometry": {"type": "Point", "coordinates": [100.57645217110442, 13.732739752831728]}, "properties": {"id": 83495, "name": "โรงพยาบาลฟัน", "district": "วัฒนา", "snapDistanceMeters": 25.61}}, {"type": "Feature", "geometry": {"type": "Point", "coordinates": [100.46411613916321, 13.723287948386846]}, "properties": {"id": 32414, "name": "โรงพยาบาลพญาไท 3", "district": "ภาษีเจริญ", "snapDistanceMeters": 37.68}}, {"type": "Feature", "geometry": {"type": "Point", "coordinates": [100.46494339193697, 13.725376342210652]}, "properties": {"id": 32014, "name": "โรงพยาบาลบางไผ่", "district": "ภาษีเจริญ", "snapDistanceMeters": 30.43}}, {"type": "Feature", "geometry": {"type": "Point", "coordinates": [100.62388070013309, 13.778696832706165]}, "properties": {"id": 23472, "name": "โรงพยาบาลลาดพร้าว", "district": "วังทองหลาง", "snapDistanceMeters": 17.7}}, {"type": "Feature", "geometry": {"type": "Point", "coordinates": [100.57338321772188, 13.835806316752778]}, "properties": {"id": 23720, "name": "โรงพยาบาลเปาโลแผนกทันตกรรม", "district": "จตุจักร", "snapDistanceMeters": 15.53}}, {"type": "Feature", "geometry": {"type": "Point", "coordinates": [100.57375917834574, 13.733436525740192]}, "properties": {"id": 24330, "name": "โรงพยาบาลบ้านแพ้ว สาขาพร้อมมิตร", "district": "วัฒนา", "snapDistanceMeters": 18.13}}, {"type": "Feature", "geometry": {"type": "Point", "coordinates": [100.47043608305852, 13.780387490519722]}, "properties": {"id": 99835, "name": "โรงพยาบาลเจ้าพระยา", "district": "บางกอกน้อย", "snapDistanceMeters": 19.34}}, {"type": "Feature", "geometry": {"type": "Point", "coordinates": [100.53569965825739, 13.756340407752653]}, "properties": {"id": 24039, "name": "โรงพยาบาลเดชา", "district": "ราขเทวี", "snapDistanceMeters": 46.5}}, {"type": "Feature", "geometry": {"type": "Point", "coordinates": [100.53164653283208, 13.759260184013902]}, "properties": {"id": 24666, "name": "มูลนิธิเพื่อโรงพยาบาลธรรมศาสตร์เฉลิมพระเกียรติ", "district": "ราขเทวี", "snapDistanceMeters": 36.58}}, {"type": "Feature", "geometry": {"type": "Point", "coordinates": [100.63883983294353, 13.668921799688922]}, "properties": {"id": 65874, "name": "ที่จอดรถชั่วคราวโรงพยาบาลไทยนครินทร์", "district": "บางนา", "snapDistanceMeters": 55.35}}, {"type": "Feature", "geometry": {"type": "Point", "coordinates": [100.62493726918241, 13.943502298167282]}, "properties": {"id": 59692, "name": "โรงพยาบาลบี. แคร์เมดิคอลเซ็นเตอร์", "district": "สายไหม", "snapDistanceMeters": 25.46}}, {"type": "Feature", "geometry": {"type": "Point", "coordinates": [100.4831556495609, 13.751906117015267]}, "properties": {"id": 61957, "name": "หอพักโรงพยาบาลธนบุรี (7)", "district": "บางกอกน้อย", "snapDistanceMeters": 25.74}}, {"type": "Feature", "geometry": {"type": "Point", "coordinates": [100.55985825779803, 13.846034332454462]}, "properties": {"id": 86194, "name": "ที่จอดรถโรงพยาบาลวิภาวดี", "district": "จตุจักร", "snapDistanceMeters": 54.16}}, {"type": "Feature", "geometry": {"type": "Point", "coordinates": [100.58783782027099, 13.713768889079907]}, "properties": {"id": 86792, "name": "ลานจอดรถโรงพยาบาลกล้วยน้ำไท", "district": "คลองเตย", "snapDistanceMeters": 28.32}}, {"type": "Feature", "geometry": {"type": "Point", "coordinates": [100.57710586535515, 13.714262008914016]}, "properties": {"id": 86875, "name": "อาคารที่จอดรถโรงพยาบาลเทพธารินทร์", "district": "คลองเตย", "snapDistanceMeters": 22.38}}, {"type": "Feature", "geometry": {"type": "Point", "coordinates": [100.57723442263479, 13.714237208513653]}, "properties": {"id": 86876, "name": "ลานที่จอดรถโรงพยาบาลเทพธารินทร์", "district": "คลองเตย", "snapDistanceMeters": 26.36}}, {"type": "Feature", "geometry": {"type": "Point", "coordinates": [100.50419354110096, 13.729517850443596]}, "properties": {"id": 87093, "name": "ที่จอดรถโรงพยาบาลสมเด็จเจ้าพระยา", "district": "คลองสาน", "snapDistanceMeters": 64.16}}, {"type": "Feature", "geometry": {"type": "Point", "coordinates": [100.58719370549133, 13.670192473196508]}, "properties": {"id": 48284, "name": "โรงพยาบาลทหารเรือกรุงเทพ", "district": "บางนา", "snapDistanceMeters": 53.11}}, {"type": "Feature", "geometry": {"type": "Point", "coordinates": [100.5878670098276, 13.713501430549844]}, "properties": {"id": 86030, "name": "อาคาร 72 พรรษาโรงพยาบาลกล้วยน้ำไท", "district": "คลองเตย", "snapDistanceMeters": 39.09}}, {"type": "Feature", "geometry": {"type": "Point", "coordinates": [100.5859050434792, 13.746424408098742]}, "properties": {"id": 85717, "name": "อาคารจอดรถเจ้าหน้าที่โรงพยาบาลกรุงเทพ 4", "district": "ห้วยขวาง", "snapDistanceMeters": 11.71}}, {"type": "Feature", "geometry": {"type": "Point", "coordinates": [100.50535368024316, 13.729481656092558]}, "properties": {"id": 87086, "name": "อาคารทันตกรรม โรงพยาบาลสมเด็จเจ้าพระยา", "district": "คลองสาน", "snapDistanceMeters": 40.34}}, {"type": "Feature", "geometry": {"type": "Point", "coordinates": [100.58344371945952, 13.74769794357667]}, "properties": {"id": 46683, "name": "โรงพยาบาลหัวใจกรุงเทพ", "district": "ห้วยขวาง", "snapDistanceMeters": 28.95}}, {"type": "Feature", "geometry": {"type": "Point", "coordinates": [100.53372214980345, 13.765936385080154]}, "properties": {"id": 63733, "name": "โรงพยาบาลเวชศาสตร์เขตร้อน", "district": "ราขเทวี", "snapDistanceMeters": 26.45}}, {"type": "Feature", "geometry": {"type": "Point", "coordinates": [100.55184173390464, 13.752144025833957]}, "properties": {"id": 63705, "name": "โรงพยาบาลบุรฉัตรไชยากร (โรงพยาบาลรถไฟ)", "district": "ราขเทวี", "snapDistanceMeters": 22.37}}, {"type": "Feature", "geometry": {"type": "Point", "coordinates": [100.57064886372976, 13.753214861150289]}, "properties": {"id": 64302, "name": "โรงพยาบาลพระรามเก้า", "district": "ห้วยขวาง", "snapDistanceMeters": 29.51}}, {"type": "Feature", "geometry": {"type": "Point", "coordinates": [100.5537672084244, 13.746630593521862]}, "properties": {"id": 64374, "name": "โรงพยาบาลบำรุงราษฎร์ฮอสพิทอลิตี้สวีท", "district": "วัฒนา", "snapDistanceMeters": 38.22}}, {"type": "Feature", "geometry": {"type": "Point", "coordinates": [100.43356498900117, 13.660676468945843]}, "properties": {"id": 81807, "name": "อาคารฉุกเฉิน โรงพยาบาลนครธน", "district": "บางขุนเทียน", "snapDistanceMeters": 43.95}}, {"type": "Feature", "geometry": {"type": "Point", "coordinates": [100.6056038325899, 13.889423825561455]}, "properties": {"id": 82378, "name": "ลานจอดรถโรงพยาบาลซีจีเอช สะพานใหม่", "district": "บางเขน", "snapDistanceMeters": 24.98}}, {"type": "Feature", "geometry": {"type": "Point", "coordinates": [100.43356498900117, 13.660676468945843]}, "properties": {"id": 81711, "name": "อาคารจอดรถโรงพยาบาลนครธน", "district": "บางขุนเทียน", "snapDistanceMeters": 85.43}}, {"type": "Feature", "geometry": {"type": "Point", "coordinates": [100.58294587828297, 13.748804306382267]}, "properties": {"id": 63123, "name": "โรงพยาบาลกรุงเทพ", "district": "ห้วยขวาง", "snapDistanceMeters": 23.91}}, {"type": "Feature", "geometry": {"type": "Point", "coordinates": [100.59441484504553, 13.741675125537132]}, "properties": {"id": 74266, "name": "โรงพยาบาลคลองตัน", "district": "ห้วยขวาง", "snapDistanceMeters": 22.16}}, {"type": "Feature", "geometry": {"type": "Point", "coordinates": [100.58268360713171, 13.748466064697613]}, "properties": {"id": 72792, "name": "โรงพยาบาลกรุงเทพอินเตอร์เนชั่นแนล", "district": "ห้วยขวาง", "snapDistanceMeters": 34.98}}, {"type": "Feature", "geometry": {"type": "Point", "coordinates": [100.57743418831414, 13.789582791623198]}, "properties": {"id": 74074, "name": "โรงพยาบาลโกลเด้นเยียส์", "district": "ห้วยขวาง", "snapDistanceMeters": 20.52}}, {"type": "Feature", "geometry": {"type": "Point", "coordinates": [100.55175639759958, 13.751180054835705]}, "properties": {"id": 68032, "name": "ลานกีฬาอเนกประสงค์ชุมชนโรงพยาบาลบุรฉัตรไชยากร", "district": "ราขเทวี", "snapDistanceMeters": 29.67}}, {"type": "Feature", "geometry": {"type": "Point", "coordinates": [100.5768941087567, 13.734468150097783]}, "properties": {"id": 73697, "name": "โรงพยาบาลสมิติเวชสุขุมวิท", "district": "วัฒนา", "snapDistanceMeters": 47.87}}, {"type": "Feature", "geometry": {"type": "Point", "coordinates": [100.57412275477522, 13.835190164816016]}, "properties": {"id": 73657, "name": "โรงพยาบาลเปาโล", "district": "จตุจักร", "snapDistanceMeters": 19.1}}, {"type": "Feature", "geometry": {"type": "Point", "coordinates": [100.51073300411191, 13.787997371882321]}, "properties": {"id": 72778, "name": "โรงพยาบาลชลประทาน", "district": "ดุสิต", "snapDistanceMeters": 35.95}}, {"type": "Feature", "geometry": {"type": "Point", "coordinates": [100.49867034126554, 13.67756856723246]}, "properties": {"id": 74150, "name": "โรงพยาบาลประชาพัฒน์", "district": "ราษฎร์บูรณะ", "snapDistanceMeters": 15.0}}, {"type": "Feature", "geometry": {"type": "Point", "coordinates": [100.50109327050465, 13.675838142983936]}, "properties": {"id": 74547, "name": "โรงพยาบาลสุขสวัสดิ์", "district": "ราษฎร์บูรณะ", "snapDistanceMeters": 20.6}}, {"type": "Feature", "geometry": {"type": "Point", "coordinates": [100.4985587332663, 13.678748012594271]}, "properties": {"id": 72677, "name": "โรงพยาบาลบางปะกอก 1", "district": "ราษฎร์บูรณะ", "snapDistanceMeters": 34.64}}, {"type": "Feature", "geometry": {"type": "Point", "coordinates": [100.5901109539564, 13.804955845632266]}, "properties": {"id": 72678, "name": "โรงพยาบาลสัตวแพทย์ 50", "district": "ลาดพร้าว", "snapDistanceMeters": 21.62}}, {"type": "Feature", "geometry": {"type": "Point", "coordinates": [100.59642839128121, 13.801819462321983]}, "properties": {"id": 72619, "name": "โรงพยาบาลเปาโลเมโมเรียลโชคชัย 4", "district": "ลาดพร้าว", "snapDistanceMeters": 40.85}}, {"type": "Feature", "geometry": {"type": "Point", "coordinates": [100.50991904185514, 13.786708097446915]}, "properties": {"id": 73548, "name": "โรงพยาบาลการไฟฟ้านครหลวง", "district": "ดุสิต", "snapDistanceMeters": 40.86}}, {"type": "Feature", "geometry": {"type": "Point", "coordinates": [100.66633782169201, 13.833744768347756]}, "properties": {"id": 4842, "name": "โรงพยาบาลเด็กสินแพทย์", "district": "คันนายาว", "snapDistanceMeters": 23.99}}, {"type": "Feature", "geometry": {"type": "Point", "coordinates": [100.42162433281963, 13.651499516969071]}, "properties": {"id": 89560, "name": "โรงพยาบาลพระราม 2", "district": "บางขุนเทียน", "snapDistanceMeters": 53.19}}, {"type": "Feature", "geometry": {"type": "Point", "coordinates": [100.43356498900117, 13.660676468945843]}, "properties": {"id": 90082, "name": "โรงพยาบาลนครธน", "district": "บางขุนเทียน", "snapDistanceMeters": 36.73}}, {"type": "Feature", "geometry": {"type": "Point", "coordinates": [100.68374663481939, 13.923932299569445]}, "properties": {"id": 58402, "name": "โรงพยาบาลซีจีเอช สายไหม", "district": "สายไหม", "snapDistanceMeters": 45.91}}, {"type": "Feature", "geometry": {"type": "Point", "coordinates": [100.52311041421517, 13.807179307861816]}, "properties": {"id": 57602, "name": "โรงพยาบาลบางโพ", "district": "บางซื่อ", "snapDistanceMeters": 27.88}}, {"type": "Feature", "geometry": {"type": "Point", "coordinates": [100.51253879856864, 13.738269562184534]}, "properties": {"id": 75440, "name": "โรงพยาบาลเทียนฟ้า", "district": "สัมพันธวงค์", "snapDistanceMeters": 37.1}}, {"type": "Feature", "geometry": {"type": "Point", "coordinates": [100.50268600690393, 13.678197460239854]}, "properties": {"id": 58491, "name": "โรงพยาบาลราษฎร์บูรณะ", "district": "ราษฎร์บูรณะ", "snapDistanceMeters": 23.2}}, {"type": "Feature", "geometry": {"type": "Point", "coordinates": [100.5614338704523, 13.893621546053728]}, "properties": {"id": 58140, "name": "โรงพยาบาลมงกุฎวัฒนะ", "district": "หลักสี่", "snapDistanceMeters": 38.59}}, {"type": "Feature", "geometry": {"type": "Point", "coordinates": [100.63861708027584, 13.749266999840616]}, "properties": {"id": 59204, "name": "โรงพยาบาลสมิติเวชศรีนครินทร์", "district": "สวนหลวง", "snapDistanceMeters": 44.57}}, {"type": "Feature", "geometry": {"type": "Point", "coordinates": [100.58541721477648, 13.745226753797168]}, "properties": {"id": 58205, "name": "อาคารศูนย์ทันตกรรม โรงพยาบาลกรุงเทพ", "district": "ห้วยขวาง", "snapDistanceMeters": 32.16}}, {"type": "Feature", "geometry": {"type": "Point", "coordinates": [100.51183126640221, 13.800783941672222]}, "properties": {"id": 5679, "name": "ที่จอดรถโรงพยาบาลยันฮี", "district": "บางพลัด", "snapDistanceMeters": 33.77}}, {"type": "Feature", "geometry": {"type": "Point", "coordinates": [100.50638659049133, 13.732273239410334]}, "properties": {"id": 1282, "name": "บ้านพักข้าราชการโรงพยาบาลบ้านสมเด็จ", "district": "คลองสาน", "snapDistanceMeters": 22.4}}, {"type": "Feature", "geometry": {"type": "Point", "coordinates": [100.51550827905116, 13.751057819200419]}, "properties": {"id": 45162, "name": "อาคารจอดรถโรงพยาบาลหัวเฉียว", "district": "ป้อมปราบศัตรูพ่าย", "snapDistanceMeters": 35.72}}, {"type": "Feature", "geometry": {"type": "Point", "coordinates": [100.55258643430668, 13.81581941795012]}, "properties": {"id": 43667, "name": "โรงพยาบาลมิราเคิลออฟไลฟ์", "district": "จตุจักร", "snapDistanceMeters": 20.26}}, {"type": "Feature", "geometry": {"type": "Point", "coordinates": [100.68060173414206, 13.714372438259279]}, "properties": {"id": 50535, "name": "เตาเผาขยะติดเชื้อโรงพยาบาล", "district": "ประเวศ", "snapDistanceMeters": 29.98}}, {"type": "Feature", "geometry": {"type": "Point", "coordinates": [100.53306604092462, 13.781139857218713]}, "properties": {"id": 44389, "name": "โรงพยาบาลการแพทย์วิชัยยุทธ", "district": "พญาไท", "snapDistanceMeters": 49.9}}, {"type": "Feature", "geometry": {"type": "Point", "coordinates": [100.519193510083, 13.757989983541707]}, "properties": {"id": 45504, "name": "โรงพยาบาลมิชชั่น", "district": "ดุสิต", "snapDistanceMeters": 13.44}}, {"type": "Feature", "geometry": {"type": "Point", "coordinates": [100.57542025225666, 13.8358591616892]}, "properties": {"id": 50444, "name": "ที่จอดรถโรงพยาบาลเปาโล", "district": "จตุจักร", "snapDistanceMeters": 26.76}}, {"type": "Feature", "geometry": {"type": "Point", "coordinates": [100.57853094660854, 13.836805146766842]}, "properties": {"id": 50445, "name": "ลานจอดรถโรงพยาบาลเปาโล 2", "district": "จตุจักร", "snapDistanceMeters": 22.48}}, {"type": "Feature", "geometry": {"type": "Point", "coordinates": [100.53949166330972, 13.75648819224983]}, "properties": {"id": 46046, "name": "โรงพยาบาลพญาไท 1", "district": "ราขเทวี", "snapDistanceMeters": 42.13}}, {"type": "Feature", "geometry": {"type": "Point", "coordinates": [100.68807368567205, 13.818250463513666]}, "properties": {"id": 35411, "name": "ศูนย์อาหารโรงพยาบาลนพรัตน์ราชธานี", "district": "คันนายาว", "snapDistanceMeters": 43.08}}, {"type": "Feature", "geometry": {"type": "Point", "coordinates": [100.65707154246988, 13.825538983946085]}, "properties": {"id": 35035, "name": "โรงพยาบาลพญาไทนวมินทร์", "district": "บึงกุ่ม", "snapDistanceMeters": 55.1}}, {"type": "Feature", "geometry": {"type": "Point", "coordinates": [100.5949368163585, 13.742930991432715]}, "properties": {"id": 34729, "name": "โรงพยาบาลเพชรเวช", "district": "ห้วยขวาง", "snapDistanceMeters": 15.65}}, {"type": "Feature", "geometry": {"type": "Point", "coordinates": [100.60191336978099, 13.66518030766096]}, "properties": {"id": 33432, "name": "โรงพยาบาลมนารมย์", "district": "บางนา", "snapDistanceMeters": 31.35}}, {"type": "Feature", "geometry": {"type": "Point", "coordinates": [100.5799520820667, 13.753706064417615]}, "properties": {"id": 35316, "name": "โรงพยาบาลปิยะเวท", "district": "ห้วยขวาง", "snapDistanceMeters": 26.48}}, {"type": "Feature", "geometry": {"type": "Point", "coordinates": [100.53318867092408, 13.78024196628175]}, "properties": {"id": 93777, "name": "อาคารฉุกเฉิน โรงพยาบาลการแพทย์วิชัยยุทธ", "district": "พญาไท", "snapDistanceMeters": 33.24}}, {"type": "Feature", "geometry": {"type": "Point", "coordinates": [100.55252181970175, 13.746142556674418]}, "properties": {"id": 25571, "name": "โรงพยาบาลบำรุงราษฎร์", "district": "วัฒนา", "snapDistanceMeters": 47.02}}, {"type": "Feature", "geometry": {"type": "Point", "coordinates": [100.48519180826656, 13.708604112277927]}, "properties": {"id": 25890, "name": "ที่จอดรถโรงพยาบาลพระปิ่นเกล้า", "district": "ธนบุรี", "snapDistanceMeters": 6.49}}, {"type": "Feature", "geometry": {"type": "Point", "coordinates": [100.48405877063867, 13.709648557818632]}, "properties": {"id": 25892, "name": "อาคารจอดรถโรงพยาบาลพระปิ่นเกล้า", "district": "ธนบุรี", "snapDistanceMeters": 29.7}}, {"type": "Feature", "geometry": {"type": "Point", "coordinates": [100.6120622240521, 13.773463468884316]}, "properties": {"id": 172105, "name": "โรงพยาบาลศัลยกรรมตกแต่งกมล", "district": "วังทองหลาง", "snapDistanceMeters": 34.78}}, {"type": "Feature", "geometry": {"type": "Point", "coordinates": [100.56242135577841, 13.84599778290995]}, "properties": {"id": 169396, "name": "โรงพยาบาลวิภาวดี", "district": "จตุจักร", "snapDistanceMeters": 19.6}}, {"type": "Feature", "geometry": {"type": "Point", "coordinates": [100.66716781902595, 13.833763691696916]}, "properties": {"id": 186625, "name": "ที่จอดรถโรงพยาบาลสินแพทย์", "district": "คันนายาว", "snapDistanceMeters": 28.9}}, {"type": "Feature", "geometry": {"type": "Point", "coordinates": [100.53999608125476, 13.770334017082966]}, "properties": {"id": 101591, "name": "โรงพยาบาลพญาไท 2", "district": "พญาไท", "snapDistanceMeters": 63.53}}, {"type": "Feature", "geometry": {"type": "Point", "coordinates": [100.53506767495074, 13.759765659676154]}, "properties": {"id": 186059, "name": "โรงพยาบาลสถาบันโรคไตภูมิราชนครินทร์", "district": "ราขเทวี", "snapDistanceMeters": 32.33}}, {"type": "Feature", "geometry": {"type": "Point", "coordinates": [100.6265811420326, 13.772064024725253]}, "properties": {"id": 52867, "name": "หอพักพนักงานโรงพยาบาลลาดพร้าว", "district": "วังทองหลาง", "snapDistanceMeters": 39.88}}, {"type": "Feature", "geometry": {"type": "Point", "coordinates": [100.51668681019656, 13.749868055026703]}, "properties": {"id": 52714, "name": "อาคารแพทย์จีน โรงพยาบาลหัวเฉียว", "district": "ป้อมปราบศัตรูพ่าย", "snapDistanceMeters": 24.07}}, {"type": "Feature", "geometry": {"type": "Point", "coordinates": [100.59504009206226, 13.742414313605797]}, "properties": {"id": 172168, "name": "ที่จอดรถโรงพยาบาลคลองตัน", "district": "ห้วยขวาง", "snapDistanceMeters": 36.22}}, {"type": "Feature", "geometry": {"type": "Point", "coordinates": [100.58419674299175, 13.750303343644433]}, "properties": {"id": 171460, "name": "แผนกบริการยานพาหนะโรงพยาบาลกรุงเทพ", "district": "ห้วยขวาง", "snapDistanceMeters": 25.47}}, {"type": "Feature", "geometry": {"type": "Point", "coordinates": [100.7216904022059, 13.810797236174361]}, "properties": {"id": 169494, "name": "โรงพยาบาลนวมินทร์", "district": "มีนบุรี", "snapDistanceMeters": 51.28}}, {"type": "Feature", "geometry": {"type": "Point", "coordinates": [100.45691664775687, 13.671484027936199]}, "properties": {"id": 169001, "name": "โรงพยาบาลบางมด", "district": "จอมทอง", "snapDistanceMeters": 52.25}}, {"type": "Feature", "geometry": {"type": "Point", "coordinates": [100.62493726918241, 13.943502298167282]}, "properties": {"id": 256100, "name": "ศูนย์สุขภาพเด็ก โรงพยาบาลบี. แคร์เมดิคอลเซ็นเตอร์", "district": "สายไหม", "snapDistanceMeters": 33.25}}, {"type": "Feature", "geometry": {"type": "Point", "coordinates": [100.62493726918241, 13.943502298167282]}, "properties": {"id": 256101, "name": "ศูนย์พัฒนาการและการเรียนรู้สำหรับเด็ก โรงพยาบาลบี. แคร์เมดิคอลเซ็นเตอร์", "district": "สายไหม", "snapDistanceMeters": 33.25}}, {"type": "Feature", "geometry": {"type": "Point", "coordinates": [100.62493726918241, 13.943502298167282]}, "properties": {"id": 256102, "name": "ศูนย์รักษาโรคทางอายุรกรรม โรงพยาบาลบี. แคร์เมดิคอลเซ็นเตอร์", "district": "สายไหม", "snapDistanceMeters": 33.25}}, {"type": "Feature", "geometry": {"type": "Point", "coordinates": [100.62493726918241, 13.943502298167282]}, "properties": {"id": 256103, "name": "ศูนย์รักษาโรคทางศัลยกรรม โรงพยาบาลบี. แคร์เมดิคอลเซ็นเตอร์", "district": "สายไหม", "snapDistanceMeters": 33.25}}, {"type": "Feature", "geometry": {"type": "Point", "coordinates": [100.62493726918241, 13.943502298167282]}, "properties": {"id": 256104, "name": "ศูนย์รักษาโรคเฉพาะทางอื่นๆ โรงพยาบาลบี. แคร์เมดิคอลเซนเตอร์", "district": "สายไหม", "snapDistanceMeters": 33.25}}, {"type": "Feature", "geometry": {"type": "Point", "coordinates": [100.66622156016123, 13.834601013806951]}, "properties": {"id": 256105, "name": "แผนกหูคอจมูก โรงพยาบาลสินแพทย์", "district": "คันนายาว", "snapDistanceMeters": 37.33}}, {"type": "Feature", "geometry": {"type": "Point", "coordinates": [100.66622156016123, 13.834601013806951]}, "properties": {"id": 256106, "name": "แผนกตา โรงพยาบาลสินแพทย์", "district": "คันนายาว", "snapDistanceMeters": 37.33}}, {"type": "Feature", "geometry": {"type": "Point", "coordinates": [100.66622156016123, 13.834601013806951]}, "properties": {"id": 256107, "name": "แผนกกายภาพบำบัดและฟื้นฟูสมรรถภาพหัวใจ โรงพยาบาลสินแพทย์", "district": "คันนายาว", "snapDistanceMeters": 37.33}}, {"type": "Feature", "geometry": {"type": "Point", "coordinates": [100.66622156016123, 13.834601013806951]}, "properties": {"id": 256108, "name": "แผนกอายุรกรรมหัวใจ โรงพยาบาลสินแพทย์", "district": "คันนายาว", "snapDistanceMeters": 37.33}}, {"type": "Feature", "geometry": {"type": "Point", "coordinates": [100.53999608125476, 13.770334017082966]}, "properties": {"id": 190293, "name": "สหกรณ์ออมทรัพย์เครือโรงพยาบาลพญาไท", "district": "พญาไท", "snapDistanceMeters": 59.97}}, {"type": "Feature", "geometry": {"type": "Point", "coordinates": [100.51524161351523, 13.750433520824371]}, "properties": {"id": 190296, "name": "สหกรณ์ออมทรัพย์โรงพยาบาลหัวเฉียว", "district": "ป้อมปราบศัตรูพ่าย", "snapDistanceMeters": 49.03}}, {"type": "Feature", "geometry": {"type": "Point", "coordinates": [100.66622156016123, 13.834601013806951]}, "properties": {"id": 256109, "name": "แผนกจิตเวช โรงพยาบาลสินแพทย์", "district": "คันนายาว", "snapDistanceMeters": 37.33}}, {"type": "Feature", "geometry": {"type": "Point", "coordinates": [100.66622156016123, 13.834601013806951]}, "properties": {"id": 256110, "name": "แผนกนิติเวช โรงพยาบาลสินแพทย์", "district": "คันนายาว", "snapDistanceMeters": 37.33}}, {"type": "Feature", "geometry": {"type": "Point", "coordinates": [100.66622156016123, 13.834601013806951]}, "properties": {"id": 256111, "name": "แผนกทันตกรรม โรงพยาบาลสินแพทย์", "district": "คันนายาว", "snapDistanceMeters": 37.33}}, {"type": "Feature", "geometry": {"type": "Point", "coordinates": [100.66622156016123, 13.834601013806951]}, "properties": {"id": 256112, "name": "แผนกผิวหนังศัลยกรรมเลเซอร์ โรงพยาบาลสินแพทย์", "district": "คันนายาว", "snapDistanceMeters": 37.33}}, {"type": "Feature", "geometry": {"type": "Point", "coordinates": [100.66622156016123, 13.834601013806951]}, "properties": {"id": 256113, "name": "แผนกตรวจสุขภาพ โรงพยาบาลสินแพทย์", "district": "คันนายาว", "snapDistanceMeters": 37.33}}, {"type": "Feature", "geometry": {"type": "Point", "coordinates": [100.66622156016123, 13.834601013806951]}, "properties": {"id": 256114, "name": "แผนกกุมารเวช โรงพยาบาลสินแพทย์", "district": "คันนายาว", "snapDistanceMeters": 37.33}}, {"type": "Feature", "geometry": {"type": "Point", "coordinates": [100.56638610507532, 13.745148021739224]}, "properties": {"id": 236093, "name": "โรงพยาบาลทันตกรรมคณะทันตแพทย์ศาสตร์มหาวิทยาลัยศรีนครินทรวิโรฒ", "district": "วัฒนา", "snapDistanceMeters": 44.17}}, {"type": "Feature", "geometry": {"type": "Point", "coordinates": [100.51722579159117, 13.722307014142466]}, "properties": {"id": 255760, "name": "วินหน้าโรงพยาบาลเลิศสิน", "district": "บางรัก", "snapDistanceMeters": 20.62}}, {"type": "Feature", "geometry": {"type": "Point", "coordinates": [100.66622156016123, 13.834601013806951]}, "properties": {"id": 255827, "name": "แผนกอายุรกรรมระบบทางเดินอาหารและตับ โรงพยาบาลสินแพทย์", "district": "คันนายาว", "snapDistanceMeters": 37.33}}, {"type": "Feature", "geometry": {"type": "Point", "coordinates": [100.42162433281963, 13.651499516969071]}, "properties": {"id": 256063, "name": "แผนกผู้ป่วยนอก โรงพยาบาลพระราม 2", "district": "บางขุนเทียน", "snapDistanceMeters": 45.27}}, {"type": "Feature", "geometry": {"type": "Point", "coordinates": [100.42162433281963, 13.651499516969071]}, "properties": {"id": 256064, "name": "แผนกห้องปฏิบัติการ โรงพยาบาลพระราม 2", "district": "บางขุนเทียน", "snapDistanceMeters": 45.27}}, {"type": "Feature", "geometry": {"type": "Point", "coordinates": [100.42162433281963, 13.651499516969071]}, "properties": {"id": 256065, "name": "แผนกโสต ศอ นาสิก โรงพยาบาลพระราม 2", "district": "บางขุนเทียน", "snapDistanceMeters": 45.27}}, {"type": "Feature", "geometry": {"type": "Point", "coordinates": [100.42162433281963, 13.651499516969071]}, "properties": {"id": 256066, "name": "ห้องวิกฤตไอซียู โรงพยาบาลพระราม 2", "district": "บางขุนเทียน", "snapDistanceMeters": 45.27}}, {"type": "Feature", "geometry": {"type": "Point", "coordinates": [100.42162433281963, 13.651499516969071]}, "properties": {"id": 256067, "name": "แผนกห้องฉุกเฉินรถพยาบาลฉุกเฉิน โรงพยาบาลพระราม 2", "district": "บางขุนเทียน", "snapDistanceMeters": 45.27}}, {"type": "Feature", "geometry": {"type": "Point", "coordinates": [100.64547181301387, 13.734623764376234]}, "properties": {"id": 256068, "name": "คลินิกโลหิตวิทยา โรงพยาบาลวิภาราม", "district": "สวนหลวง", "snapDistanceMeters": 19.6}}, {"type": "Feature", "geometry": {"type": "Point", "coordinates": [100.64547181301387, 13.734623764376234]}, "properties": {"id": 256069, "name": "แผนกรังสีวิทยา โรงพยาบาลวิภาราม", "district": "สวนหลวง", "snapDistanceMeters": 19.6}}, {"type": "Feature", "geometry": {"type": "Point", "coordinates": [100.64547181301387, 13.734623764376234]}, "properties": {"id": 256070, "name": "คลินิกภูมิแพ้และไขข้อ โรงพยาบาลวิภาราม", "district": "สวนหลวง", "snapDistanceMeters": 19.6}}, {"type": "Feature", "geometry": {"type": "Point", "coordinates": [100.64547181301387, 13.734623764376234]}, "properties": {"id": 256071, "name": "คลินิกผิวหนัง โรงพยาบาลวิภาราม", "district": "สวนหลวง", "snapDistanceMeters": 19.6}}, {"type": "Feature", "geometry": {"type": "Point", "coordinates": [100.5329887401948, 13.78116754076565]}, "properties": {"id": 255813, "name": "คลินิกโรคระบบต่อมไร้ท่อและเบาหวาน โรงพยาบาลการแพทย์วิชัยยุทธ", "district": "พญาไท", "snapDistanceMeters": 49.77}}, {"type": "Feature", "geometry": {"type": "Point", "coordinates": [100.5329887401948, 13.78116754076565]}, "properties": {"id": 255814, "name": "คลินิกโรคระบบทางเดินหายใจและปอด โรงพยาบาลการแพทย์วิชัยยุทธ", "district": "พญาไท", "snapDistanceMeters": 49.77}}, {"type": "Feature", "geometry": {"type": "Point", "coordinates": [100.5329887401948, 13.78116754076565]}, "properties": {"id": 255815, "name": "คลินิกโรคหัวใจและหลอดเลือด โรงพยาบาลการแพทย์วิชัยยุทธ", "district": "พญาไท", "snapDistanceMeters": 49.77}}, {"type": "Feature", "geometry": {"type": "Point", "coordinates": [100.5329887401948, 13.78116754076565]}, "properties": {"id": 255816, "name": "คลินิกโลหิตวิทยาและเคมีบำบัด โรงพยาบาลการแพทย์วิชัยยุทธ", "district": "พญาไท", "snapDistanceMeters": 49.77}}, {"type": "Feature", "geometry": {"type": "Point", "coordinates": [100.66622156016123, 13.834601013806951]}, "properties": {"id": 255817, "name": "คลินิกทางเดินหายใจในเด็ก โรงพยาบาลสินแพทย์", "district": "คันนายาว", "snapDistanceMeters": 37.33}}, {"type": "Feature", "geometry": {"type": "Point", "coordinates": [100.66622156016123, 13.834601013806951]}, "properties": {"id": 255818, "name": "คลินิกอายุวัฒนะ โรงพยาบาลสินแพทย์", "district": "คันนายาว", "snapDistanceMeters": 37.33}}, {"type": "Feature", "geometry": {"type": "Point", "coordinates": [100.66622156016123, 13.834601013806951]}, "properties": {"id": 255819, "name": "ศูนย์ผู้มีบุตรยาก โรงพยาบาลสินแพทย์", "district": "คันนายาว", "snapDistanceMeters": 37.33}}, {"type": "Feature", "geometry": {"type": "Point", "coordinates": [100.66622156016123, 13.834601013806951]}, "properties": {"id": 255820, "name": "ศูนย์สมอง โรงพยาบาลสินแพทย์", "district": "คันนายาว", "snapDistanceMeters": 37.33}}, {"type": "Feature", "geometry": {"type": "Point", "coordinates": [100.66622156016123, 13.834601013806951]}, "properties": {"id": 255821, "name": "ศูนย์หัวใจ โรงพยาบาลสินแพทย์", "district": "คันนายาว", "snapDistanceMeters": 37.33}}, {"type": "Feature", "geometry": {"type": "Point", "coordinates": [100.66622156016123, 13.834601013806951]}, "properties": {"id": 255822, "name": "ศูนย์โรคปวดท้อง โรงพยาบาลสินแพทย์", "district": "คันนายาว", "snapDistanceMeters": 37.33}}, {"type": "Feature", "geometry": {"type": "Point", "coordinates": [100.66622156016123, 13.834601013806951]}, "properties": {"id": 255823, "name": "คลินิกทารกแรกเกิด โรงพยาบาลสินแพทย์", "district": "คันนายาว", "snapDistanceMeters": 37.33}}, {"type": "Feature", "geometry": {"type": "Point", "coordinates": [100.66622156016123, 13.834601013806951]}, "properties": {"id": 255824, "name": "คลินิกเบาหวาน โรงพยาบาลสินแพทย์", "district": "คันนายาว", "snapDistanceMeters": 37.33}}, {"type": "Feature", "geometry": {"type": "Point", "coordinates": [100.66622156016123, 13.834601013806951]}, "properties": {"id": 255825, "name": "คลินิกโรคข้อโรครูมาตอยด์โรคเอสแอลอีและภูมิแพ้ โรงพยาบาลสินแพทย์", "district": "คันนายาว", "snapDistanceMeters": 37.33}}, {"type": "Feature", "geometry": {"type": "Point", "coordinates": [100.66622156016123, 13.834601013806951]}, "properties": {"id": 255826, "name": "ศูนย์ทันตกรรมเด็ก โรงพยาบาลสินแพทย์", "district": "คันนายาว", "snapDistanceMeters": 37.33}}, {"type": "Feature", "geometry": {"type": "Point", "coordinates": [100.64547181301387, 13.734623764376234]}, "properties": {"id": 255770, "name": "ศูนย์ศัลยกรรม โรงพยาบาลวิภาราม", "district": "สวนหลวง", "snapDistanceMeters": 19.6}}, {"type": "Feature", "geometry": {"type": "Point", "coordinates": [100.64547181301387, 13.734623764376234]}, "properties": {"id": 255771, "name": "คลินิกทันตกรรม โรงพยาบาลวิภาราม", "district": "สวนหลวง", "snapDistanceMeters": 19.6}}, {"type": "Feature", "geometry": {"type": "Point", "coordinates": [100.64547181301387, 13.734623764376234]}, "properties": {"id": 255772, "name": "ศูนย์สุขภาพและอาชีวอนามัย โรงพยาบาลวิภาราม", "district": "สวนหลวง", "snapDistanceMeters": 19.6}}, {"type": "Feature", "geometry": {"type": "Point", "coordinates": [100.64547181301387, 13.734623764376234]}, "properties": {"id": 255773, "name": "ศูนย์ศัลยกรรมกระดูกและข้อ โรงพยาบาลวิภาราม", "district": "สวนหลวง", "snapDistanceMeters": 19.6}}, {"type": "Feature", "geometry": {"type": "Point", "coordinates": [100.64547181301387, 13.734623764376234]}, "properties": {"id": 255774, "name": "คลินิกสูติ-นรีเวช โรงพยาบาลวิภาราม", "district": "สวนหลวง", "snapDistanceMeters": 19.6}}, {"type": "Feature", "geometry": {"type": "Point", "coordinates": [100.64547181301387, 13.734623764376234]}, "properties": {"id": 255775, "name": "คลินิกกุมารเวช โรงพยาบาลวิภาราม", "district": "สวนหลวง", "snapDistanceMeters": 19.6}}, {"type": "Feature", "geometry": {"type": "Point", "coordinates": [100.64547181301387, 13.734623764376234]}, "properties": {"id": 255776, "name": "ศูนย์ส่องกล้องทางเดินอาหาร โรงพยาบาลวิภาราม", "district": "สวนหลวง", "snapDistanceMeters": 19.6}}, {"type": "Feature", "geometry": {"type": "Point", "coordinates": [100.64547181301387, 13.734623764376234]}, "properties": {"id": 255777, "name": "คลินิกจักษุ โรงพยาบาลวิภาราม", "district": "สวนหลวง", "snapDistanceMeters": 19.6}}, {"type": "Feature", "geometry": {"type": "Point", "coordinates": [100.64547181301387, 13.734623764376234]}, "properties": {"id": 255778, "name": "คลินิกเบาหวานและต่อมไร้ท่อ โรงพยาบาลวิภาราม", "district": "สวนหลวง", "snapDistanceMeters": 19.6}}, {"type": "Feature", "geometry": {"type": "Point", "coordinates": [100.64547181301387, 13.734623764376234]}, "properties": {"id": 255779, "name": "กายภาพบำบัด โรงพยาบาลวิภาราม", "district": "สวนหลวง", "snapDistanceMeters": 19.6}}, {"type": "Feature", "geometry": {"type": "Point", "coordinates": [100.64547181301387, 13.734623764376234]}, "properties": {"id": 255780, "name": "คลินิกหูคอจมูก โรงพยาบาลวิภาราม", "district": "สวนหลวง", "snapDistanceMeters": 19.6}}, {"type": "Feature", "geometry": {"type": "Point", "coordinates": [100.64547181301387, 13.734623764376234]}, "properties": {"id": 255781, "name": "คลินิกจิตรเวช โรงพยาบาลวิภาราม", "district": "สวนหลวง", "snapDistanceMeters": 19.6}}, {"type": "Feature", "geometry": {"type": "Point", "coordinates": [100.36072676523193, 13.707474322459248]}, "properties": {"id": 256115, "name": "ศูนย์กระดูกและข้อ โรงพยาบาลวิชัยเวชอินเตอร์เนชั่นแนลหนองแขม", "district": "หนองแขม", "snapDistanceMeters": 13.65}}, {"type": "Feature", "geometry": {"type": "Point", "coordinates": [100.36072676523193, 13.707474322459248]}, "properties": {"id": 256116, "name": "ศูนย์อุบัติเหตุ-ฉุกเฉิน โรงพยาบาลวิชัยเวชอินเตอร์เนชั่นแนลหนองแขม", "district": "หนองแขม", "snapDistanceMeters": 13.65}}, {"type": "Feature", "geometry": {"type": "Point", "coordinates": [100.42162433281963, 13.651499516969071]}, "properties": {"id": 255783, "name": "แผนกห้องคลอดและเด็กอ่อน โรงพยาบาลพระราม 2", "district": "บางขุนเทียน", "snapDistanceMeters": 45.27}}, {"type": "Feature", "geometry": {"type": "Point", "coordinates": [100.42162433281963, 13.651499516969071]}, "properties": {"id": 255784, "name": "แผนกหัวใจ โรงพยาบาลพระราม 2", "district": "บางขุนเทียน", "snapDistanceMeters": 45.27}}, {"type": "Feature", "geometry": {"type": "Point", "coordinates": [100.42162433281963, 13.651499516969071]}, "properties": {"id": 255785, "name": "ห้องผ่าตัด โรงพยาบาลพระราม 2", "district": "บางขุนเทียน", "snapDistanceMeters": 45.27}}, {"type": "Feature", "geometry": {"type": "Point", "coordinates": [100.42162433281963, 13.651499516969071]}, "properties": {"id": 255786, "name": "แผนกผู้ป่วยใน โรงพยาบาลพระราม 2", "district": "บางขุนเทียน", "snapDistanceMeters": 45.27}}, {"type": "Feature", "geometry": {"type": "Point", "coordinates": [100.5768941087567, 13.734468150097783]}, "properties": {"id": 255799, "name": "คลินิกโรคตาเด็ก โรงพยาบาลสมิติเวชสุขุมวิท", "district": "วัฒนา", "snapDistanceMeters": 45.67}}, {"type": "Feature", "geometry": {"type": "Point", "coordinates": [100.5768941087567, 13.734468150097783]}, "properties": {"id": 255800, "name": "คลินิกโรคติดเชื้อในเด็ก โรงพยาบาลสมิติเวชสุขุมวิท", "district": "วัฒนา", "snapDistanceMeters": 45.67}}, {"type": "Feature", "geometry": {"type": "Point", "coordinates": [100.5768941087567, 13.734468150097783]}, "properties": {"id": 255801, "name": "คลินิกโรคทางด้านไต โรงพยาบาลสมิติเวชสุขุมวิท", "district": "วัฒนา", "snapDistanceMeters": 45.67}}, {"type": "Feature", "geometry": {"type": "Point", "coordinates": [100.5329887401948, 13.78116754076565]}, "properties": {"id": 255808, "name": "คลินิกโรคไตและไตเทียม โรงพยาบาลการแพทย์วิชัยยุทธ", "district": "พญาไท", "snapDistanceMeters": 49.77}}, {"type": "Feature", "geometry": {"type": "Point", "coordinates": [100.56508373869748, 13.882987110450577]}, "properties": {"id": 251955, "name": "ศูนย์แพทย์ชุมชนธนบุรีโรงพยาบาลบ้านแพ้ว (องค์การมหาชน)", "district": "หลักสี่", "snapDistanceMeters": 141.54}}, {"type": "Feature", "geometry": {"type": "Point", "coordinates": [100.36072676523193, 13.707474322459248]}, "properties": {"id": 256117, "name": "ศูนย์เวชศาสตร์การกีฬา โรงพยาบาลวิชัยเวชอินเตอร์เนชั่นแนลหนองแขม", "district": "หนองแขม", "snapDistanceMeters": 13.65}}, {"type": "Feature", "geometry": {"type": "Point", "coordinates": [100.36072676523193, 13.707474322459248]}, "properties": {"id": 256118, "name": "ศูนย์ตรวจสุขภาพ โรงพยาบาลวิชัยเวชอินเตอร์เนชั่นแนลหนองแขม", "district": "หนองแขม", "snapDistanceMeters": 13.65}}, {"type": "Feature", "geometry": {"type": "Point", "coordinates": [100.56242135577841, 13.84599778290995]}, "properties": {"id": 256119, "name": "แผนกประสาทศัลยศาสตร์ โรงพยาบาลวิภาวดี", "district": "จตุจักร", "snapDistanceMeters": 27.22}}, {"type": "Feature", "geometry": {"type": "Point", "coordinates": [100.47293439920391, 13.782076745472022]}, "properties": {"id": 256123, "name": "แผนกผิวพรรณและความงาม โรงพยาบาลผิวหนังอโศก สาขาปิ่นเกล้า", "district": "บางกอกน้อย", "snapDistanceMeters": 18.67}}, {"type": "Feature", "geometry": {"type": "Point", "coordinates": [100.47293439920391, 13.782076745472022]}, "properties": {"id": 256124, "name": "แผนกโรคผิวหนังเรื้อรัง โรงพยาบาลผิวหนังอโศก สาขาปิ่นเกล้า", "district": "บางกอกน้อย", "snapDistanceMeters": 18.67}}, {"type": "Feature", "geometry": {"type": "Point", "coordinates": [100.47293439920391, 13.782076745472022]}, "properties": {"id": 256125, "name": "แผนกศัลยกรรมผิวหนัง โรงพยาบาลผิวหนังอโศก สาขาปิ่นเกล้า", "district": "บางกอกน้อย", "snapDistanceMeters": 18.67}}, {"type": "Feature", "geometry": {"type": "Point", "coordinates": [100.47293439920391, 13.782076745472022]}, "properties": {"id": 256126, "name": "แผนกโรคผิวหนังทั่วไป โรงพยาบาลผิวหนังอโศก สาขาปิ่นเกล้า", "district": "บางกอกน้อย", "snapDistanceMeters": 18.67}}, {"type": "Feature", "geometry": {"type": "Point", "coordinates": [100.5329887401948, 13.78116754076565]}, "properties": {"id": 255809, "name": "คลินิกโรคกระดูกและข้อ โรงพยาบาลการแพทย์วิชัยยุทธ", "district": "พญาไท", "snapDistanceMeters": 49.77}}, {"type": "Feature", "geometry": {"type": "Point", "coordinates": [100.53860456118684, 13.708390609062612]}, "properties": {"id": 252261, "name": "โรงพยาบาลบ้านแพ้ว (องค์การมหาชน)", "district": "สาทร", "snapDistanceMeters": 57.06}}, {"type": "Feature", "geometry": {"type": "Point", "coordinates": [100.5329887401948, 13.78116754076565]}, "properties": {"id": 255810, "name": "คลินิกโรคทางระบบประสาท โรงพยาบาลการแพทย์วิชัยยุทธ", "district": "พญาไท", "snapDistanceMeters": 49.77}}, {"type": "Feature", "geometry": {"type": "Point", "coordinates": [100.5329887401948, 13.78116754076565]}, "properties": {"id": 255811, "name": "คลินิกโรคภูมิแพ้ โรงพยาบาลการแพทย์วิชัยยุทธ", "district": "พญาไท", "snapDistanceMeters": 49.77}}, {"type": "Feature", "geometry": {"type": "Point", "coordinates": [100.5329887401948, 13.78116754076565]}, "properties": {"id": 255812, "name": "คลินิกโรคผิวหนังและศัลยกรรมตกแต่ง โรงพยาบาลการแพทยืวิชัยยุทธ", "district": "พญาไท", "snapDistanceMeters": 49.77}}, {"type": "Feature", "geometry": {"type": "Point", "coordinates": [100.6207648454952, 13.7389604364128]}, "properties": {"id": 252914, "name": "ศูนย์ล้างไตทางช่องท้องโรงพยาบาลบ้านแพ้วสาขาพัฒนาการ", "district": "สวนหลวง", "snapDistanceMeters": 24.69}}, {"type": "Feature", "geometry": {"type": "Point", "coordinates": [100.5768941087567, 13.734468150097783]}, "properties": {"id": 256087, "name": "ศูนย์ศัลยกรรมเด็กและทารกแรกเกิดครบวงจร โรงพยาบาลสมิติเวชสุขุมวิท", "district": "วัฒนา", "snapDistanceMeters": 45.67}}, {"type": "Feature", "geometry": {"type": "Point", "coordinates": [100.5768941087567, 13.734468150097783]}, "properties": {"id": 256088, "name": "ศูนย์ศัลยกรรมโรคสมองและระบบประสาทในเด็ก โรงพยาบาลสมิติเวชสุขุมวิท", "district": "วัฒนา", "snapDistanceMeters": 45.67}}, {"type": "Feature", "geometry": {"type": "Point", "coordinates": [100.5768941087567, 13.734468150097783]}, "properties": {"id": 256089, "name": "ศูนย์เด็กพิเศษ โรงพยาบาลสมิติเวชสุขุมวิท", "district": "วัฒนา", "snapDistanceMeters": 45.67}}, {"type": "Feature", "geometry": {"type": "Point", "coordinates": [100.5768941087567, 13.734468150097783]}, "properties": {"id": 256090, "name": "หอทารกแรกเกิดทารกภาวะวิกฤตและผู้ป่วยเด็กวิกฤต โรงพยาบาลสมิติเวชสุขุมวิท", "district": "วัฒนา", "snapDistanceMeters": 45.67}}, {"type": "Feature", "geometry": {"type": "Point", "coordinates": [100.5768941087567, 13.734468150097783]}, "properties": {"id": 256091, "name": "หอผู้ป่วยทารกแรกเกิดวิกฤต โรงพยาบาลสมิติเวชสุขุมวิท", "district": "วัฒนา", "snapDistanceMeters": 45.67}}, {"type": "Feature", "geometry": {"type": "Point", "coordinates": [100.5329887401948, 13.78116754076565]}, "properties": {"id": 256092, "name": "คลินิกโรคตา โรงพยาบาลการแพทย์วิชัยยุทธ", "district": "พญาไท", "snapDistanceMeters": 49.77}}, {"type": "Feature", "geometry": {"type": "Point", "coordinates": [100.5329887401948, 13.78116754076565]}, "properties": {"id": 256093, "name": "คลินิกทันตกรรม โรงพยาบาลการแพทย์วิชัยยุทธ", "district": "พญาไท", "snapDistanceMeters": 49.77}}, {"type": "Feature", "geometry": {"type": "Point", "coordinates": [100.5329887401948, 13.78116754076565]}, "properties": {"id": 256094, "name": "คลินิกโรคทางเดินอาหารและโรคตับ โรงพยาบาลการแพทย์วิชัยยุทธ", "district": "พญาไท", "snapDistanceMeters": 49.77}}, {"type": "Feature", "geometry": {"type": "Point", "coordinates": [100.5329887401948, 13.78116754076565]}, "properties": {"id": 256095, "name": "คลินิกโรคหูคอจมูก โรงพยาบาลการแพทย์วิชัยยุทธ", "district": "พญาไท", "snapDistanceMeters": 49.77}}, {"type": "Feature", "geometry": {"type": "Point", "coordinates": [100.5329887401948, 13.78116754076565]}, "properties": {"id": 256096, "name": "คลินิกสุขภาพและอายุรศาสตร์ โรงพยาบาลการแพทย์วิชัยยุทธ", "district": "พญาไท", "snapDistanceMeters": 49.77}}, {"type": "Feature", "geometry": {"type": "Point", "coordinates": [100.5329887401948, 13.78116754076565]}, "properties": {"id": 256097, "name": "คลินิกโรคระบบทางเดินปัสสาวะ โรงพยาบาลการแพทย์วิชัยยุทธ", "district": "พญาไท", "snapDistanceMeters": 49.77}}, {"type": "Feature", "geometry": {"type": "Point", "coordinates": [100.5329887401948, 13.78116754076565]}, "properties": {"id": 256098, "name": "คลินิกสุขภาพสตรี โรงพยาบาลการแพทย์วิชัยยุทธ", "district": "พญาไท", "snapDistanceMeters": 49.77}}, {"type": "Feature", "geometry": {"type": "Point", "coordinates": [100.62493726918241, 13.943502298167282]}, "properties": {"id": 256099, "name": "ศูนย์สุขภาพสตรี โรงพยาบาลบี. แคร์เมดิคอลเซ็นเตอร์", "district": "สายไหม", "snapDistanceMeters": 33.25}}, {"type": "Feature", "geometry": {"type": "Point", "coordinates": [100.64547181301387, 13.734623764376234]}, "properties": {"id": 256072, "name": "คลินิกโรคระบบทางเดินหายใจ โรงพยาบาลวิภาราม", "district": "สวนหลวง", "snapDistanceMeters": 19.6}}, {"type": "Feature", "geometry": {"type": "Point", "coordinates": [100.64547181301387, 13.734623764376234]}, "properties": {"id": 256073, "name": "คลินิกผิวพรรณ โรงพยาบาลวิภาราม", "district": "สวนหลวง", "snapDistanceMeters": 19.6}}, {"type": "Feature", "geometry": {"type": "Point", "coordinates": [100.66622156016123, 13.834601013806951]}, "properties": {"id": 255828, "name": "แผนกอายุรกรรม โรงพยาบาลสินแพทย์", "district": "คันนายาว", "snapDistanceMeters": 37.33}}, {"type": "Feature", "geometry": {"type": "Point", "coordinates": [100.66622156016123, 13.834601013806951]}, "properties": {"id": 255829, "name": "แผนกศัลยกรรม โรงพยาบาลสินแพทย์", "district": "คันนายาว", "snapDistanceMeters": 37.33}}, {"type": "Feature", "geometry": {"type": "Point", "coordinates": [100.66622156016123, 13.834601013806951]}, "properties": {"id": 255830, "name": "แผนกศัลยกรรมกระดูกและข้อ โรงพยาบาลสินแพทย์", "district": "คันนายาว", "snapDistanceMeters": 37.33}}, {"type": "Feature", "geometry": {"type": "Point", "coordinates": [100.66622156016123, 13.834601013806951]}, "properties": {"id": 255831, "name": "แผนกศัลยกรรมระบบประสาทและไขสันหลัง โรงพยาบาลสินแพทย์", "district": "คันนายาว", "snapDistanceMeters": 37.33}}, {"type": "Feature", "geometry": {"type": "Point", "coordinates": [100.66622156016123, 13.834601013806951]}, "properties": {"id": 255832, "name": "แผนกสูตินรีเวช โรงพยาบาลสินแพทย์", "district": "คันนายาว", "snapDistanceMeters": 37.33}}, {"type": "Feature", "geometry": {"type": "Point", "coordinates": [100.56242135577841, 13.84599778290995]}, "properties": {"id": 255834, "name": "คลินิกศัลยกรรมเด็ก โรงพยาบาลวิภาวดี", "district": "จตุจักร", "snapDistanceMeters": 27.22}}, {"type": "Feature", "geometry": {"type": "Point", "coordinates": [100.56242135577841, 13.84599778290995]}, "properties": {"id": 255835, "name": "ศูนย์พัฒนาศักยภาพเด็กวิภาวดี โรงพยาบาลวิภาวดี", "district": "จตุจักร", "snapDistanceMeters": 27.22}}, {"type": "Feature", "geometry": {"type": "Point", "coordinates": [100.56242135577841, 13.84599778290995]}, "properties": {"id": 255836, "name": "ศูนย์อายุรกรรม โรงพยาบาลวิภาวดี", "district": "จตุจักร", "snapDistanceMeters": 27.22}}, {"type": "Feature", "geometry": {"type": "Point", "coordinates": [100.56242135577841, 13.84599778290995]}, "properties": {"id": 255837, "name": "ศูนย์จักษุ โรงพยาบาลวิภาวดี", "district": "จตุจักร", "snapDistanceMeters": 27.22}}, {"type": "Feature", "geometry": {"type": "Point", "coordinates": [100.56242135577841, 13.84599778290995]}, "properties": {"id": 255838, "name": "ศูนย์รวมแพทย์ผู้เชี่ยวชาญด้านอายุรกรรม โรงพยาบาลวิภาวดี", "district": "จตุจักร", "snapDistanceMeters": 27.22}}, {"type": "Feature", "geometry": {"type": "Point", "coordinates": [100.56242135577841, 13.84599778290995]}, "properties": {"id": 255839, "name": "ศูนย์สร้างเสริมภูมิคุ้มกันด้วยวัคซีน โรงพยาบาลวิภาวดี", "district": "จตุจักร", "snapDistanceMeters": 27.22}}, {"type": "Feature", "geometry": {"type": "Point", "coordinates": [100.56242135577841, 13.84599778290995]}, "properties": {"id": 255840, "name": "ศูนย์ผิวหนัง โรงพยาบาลวิภาวดี", "district": "จตุจักร", "snapDistanceMeters": 27.22}}, {"type": "Feature", "geometry": {"type": "Point", "coordinates": [100.56242135577841, 13.84599778290995]}, "properties": {"id": 255841, "name": "ศูนย์หัวใจ โรงพยาบาลวิภาวดี", "district": "จตุจักร", "snapDistanceMeters": 27.22}}, {"type": "Feature", "geometry": {"type": "Point", "coordinates": [100.56242135577841, 13.84599778290995]}, "properties": {"id": 255842, "name": "คลินิกอายุรกรรมโรคติดเชื้อ โรงพยาบาลวิภาวดี", "district": "จตุจักร", "snapDistanceMeters": 27.22}}, {"type": "Feature", "geometry": {"type": "Point", "coordinates": [100.56242135577841, 13.84599778290995]}, "properties": {"id": 255843, "name": "ศูนย์โรคระบบการหายใจ โรงพยาบาลวิภาวดี", "district": "จตุจักร", "snapDistanceMeters": 27.22}}, {"type": "Feature", "geometry": {"type": "Point", "coordinates": [100.64547181301387, 13.734623764376234]}, "properties": {"id": 256074, "name": "คลินิกมะเร็งวิทยา โรงพยาบาลวิภาราม", "district": "สวนหลวง", "snapDistanceMeters": 19.6}}, {"type": "Feature", "geometry": {"type": "Point", "coordinates": [100.5768941087567, 13.734468150097783]}, "properties": {"id": 256079, "name": "คลินิกโรคทางเดินหายใจเด็ก โรงพยาบาลสมิติเวชสุขุมวิท", "district": "วัฒนา", "snapDistanceMeters": 45.67}}, {"type": "Feature", "geometry": {"type": "Point", "coordinates": [100.5768941087567, 13.734468150097783]}, "properties": {"id": 256080, "name": "คลินิกโรคผิวหนัง โรงพยาบาลสมิติเวชสุขุมวิท", "district": "วัฒนา", "snapDistanceMeters": 45.67}}, {"type": "Feature", "geometry": {"type": "Point", "coordinates": [100.5768941087567, 13.734468150097783]}, "properties": {"id": 256081, "name": "คลินิกโรคพันธุกรรม โรงพยาบาลสมิติเวชสุขุมวิท", "district": "วัฒนา", "snapDistanceMeters": 45.67}}, {"type": "Feature", "geometry": {"type": "Point", "coordinates": [100.5768941087567, 13.734468150097783]}, "properties": {"id": 256082, "name": "คลินิกโรคหัวใจในเด็ก โรงพยาบาลสมิติเวชสุขุมวิท", "district": "วัฒนา", "snapDistanceMeters": 45.67}}, {"type": "Feature", "geometry": {"type": "Point", "coordinates": [100.5768941087567, 13.734468150097783]}, "properties": {"id": 256083, "name": "ศูนย์การเจริญเติบโตต่อมไร้ท่อและเบาหวานในเด็ก โรงพยาบาลสมิติเวชสุขุมวิท", "district": "วัฒนา", "snapDistanceMeters": 45.67}}, {"type": "Feature", "geometry": {"type": "Point", "coordinates": [100.5768941087567, 13.734468150097783]}, "properties": {"id": 256084, "name": "ศูนย์ความบกพร่องในการเรียนรู้ โรงพยาบาลสมิติเวชสุขุมวิท", "district": "วัฒนา", "snapDistanceMeters": 45.67}}, {"type": "Feature", "geometry": {"type": "Point", "coordinates": [100.5768941087567, 13.734468150097783]}, "properties": {"id": 256085, "name": "ศูนย์ระบบทางเดินอาหารและโรคตับในเด็ก โรงพยาบาลสมิติเวชสุขุมวิท", "district": "วัฒนา", "snapDistanceMeters": 45.67}}, {"type": "Feature", "geometry": {"type": "Point", "coordinates": [100.56242135577841, 13.84599778290995]}, "properties": {"id": 255844, "name": "คลินิกโรคหืด-ภูมิแพ้ถุงลมโป่งพองภาวะนอนกรน โรงพยาบาลวิภาวดี", "district": "จตุจักร", "snapDistanceMeters": 27.22}}, {"type": "Feature", "geometry": {"type": "Point", "coordinates": [100.56242135577841, 13.84599778290995]}, "properties": {"id": 255845, "name": "ศูนย์โรคไต โรงพยาบาลวิภาวดี", "district": "จตุจักร", "snapDistanceMeters": 27.22}}, {"type": "Feature", "geometry": {"type": "Point", "coordinates": [100.5768941087567, 13.734468150097783]}, "properties": {"id": 256086, "name": "ศูนย์วัยรุ่น โรงพยาบาลสมิติเวชสุขุมวิท", "district": "วัฒนา", "snapDistanceMeters": 45.67}}, {"type": "Feature", "geometry": {"type": "Point", "coordinates": [100.56242135577841, 13.84599778290995]}, "properties": {"id": 255846, "name": "ศูนย์ไตเทียม โรงพยาบาลวิภาวดี", "district": "จตุจักร", "snapDistanceMeters": 27.22}}, {"type": "Feature", "geometry": {"type": "Point", "coordinates": [100.56242135577841, 13.84599778290995]}, "properties": {"id": 255847, "name": "แผนกจิตเวช โรงพยาบาลวิภาวดี", "district": "จตุจักร", "snapDistanceMeters": 27.22}}, {"type": "Feature", "geometry": {"type": "Point", "coordinates": [100.56242135577841, 13.84599778290995]}, "properties": {"id": 255848, "name": "ศูนย์ทันตกรรม โรงพยาบาลวิภาวดี", "district": "จตุจักร", "snapDistanceMeters": 27.22}}, {"type": "Feature", "geometry": {"type": "Point", "coordinates": [100.63561979148525, 13.66718362693701]}, "properties": {"id": 8436, "name": "โรงพยาบาลบางนา 1", "district": "บางนา", "snapDistanceMeters": 29.22}}, {"type": "Feature", "geometry": {"type": "Point", "coordinates": [100.53855235478339, 13.831412334644961]}, "properties": {"id": 8232, "name": "โรงพยาบาลเกษมราษฎร์ประชาชื่น", "district": "บางซื่อ", "snapDistanceMeters": 16.69}}, {"type": "Feature", "geometry": {"type": "Point", "coordinates": [100.38648992225654, 13.708998756885455]}, "properties": {"id": 7982, "name": "โรงพยาบาลบุญญาเวช", "district": "บางแค", "snapDistanceMeters": 37.11}}, {"type": "Feature", "geometry": {"type": "Point", "coordinates": [100.64619248856579, 13.654412317241468]}, "properties": {"id": 8730, "name": "โรงพยาบาลศิครินทร์", "district": "บางนา", "snapDistanceMeters": 32.43}}, {"type": "Feature", "geometry": {"type": "Point", "coordinates": [100.40705382179443, 13.663509470726716]}, "properties": {"id": 8115, "name": "โรงพยาบาลบางปะกอก 8", "district": "บางบอน", "snapDistanceMeters": 31.6}}, {"type": "Feature", "geometry": {"type": "Point", "coordinates": [100.5151174165151, 13.747999755090307]}, "properties": {"id": 204411, "name": "บริษัท โรงพยาบาลยศเส จำกัด", "district": "ป้อมปราบศัตรูพ่าย", "snapDistanceMeters": 31.7}}, {"type": "Feature", "geometry": {"type": "Point", "coordinates": [100.63561979148525, 13.66718362693701]}, "properties": {"id": 240772, "name": "แผนกกุมารเวช โรงพยาบาลบางนา 1", "district": "บางนา", "snapDistanceMeters": 37.25}}, {"type": "Feature", "geometry": {"type": "Point", "coordinates": [100.63561979148525, 13.66718362693701]}, "properties": {"id": 240773, "name": "แผนกจักษุและผ่าตัดต้อกระจก โรงพยาบาลบางนา 1", "district": "บางนา", "snapDistanceMeters": 37.25}}, {"type": "Feature", "geometry": {"type": "Point", "coordinates": [100.63561979148525, 13.66718362693701]}, "properties": {"id": 240774, "name": "แผนกศัลยกรรม โรงพยาบาลบางนา 1", "district": "บางนา", "snapDistanceMeters": 37.25}}, {"type": "Feature", "geometry": {"type": "Point", "coordinates": [100.63561979148525, 13.66718362693701]}, "properties": {"id": 240775, "name": "แผนกผู้ป่วยวิกฤติ โรงพยาบาลบางนา 1", "district": "บางนา", "snapDistanceMeters": 37.25}}, {"type": "Feature", "geometry": {"type": "Point", "coordinates": [100.46961038938052, 13.755990612027276]}, "properties": {"id": 240776, "name": "ศูนย์สุขภาพแม่และเด็ก โรงพยาบาลวิชัยเวชแยกไฟฉาย", "district": "บางกอกน้อย", "snapDistanceMeters": 20.78}}, {"type": "Feature", "geometry": {"type": "Point", "coordinates": [100.46961038938052, 13.755990612027276]}, "properties": {"id": 240777, "name": "คลินิกหูคอจมูก โรงพยาบาลวิชัยเวชแยกไฟฉาย", "district": "บางกอกน้อย", "snapDistanceMeters": 20.78}}, {"type": "Feature", "geometry": {"type": "Point", "coordinates": [100.46961038938052, 13.755990612027276]}, "properties": {"id": 240778, "name": "คลินิกระบบทางเดินอาหารและตับ โรงพยาบาลวิชัยเวชแยกไฟฉาย", "district": "บางกอกน้อย", "snapDistanceMeters": 20.78}}, {"type": "Feature", "geometry": {"type": "Point", "coordinates": [100.46961038938052, 13.755990612027276]}, "properties": {"id": 240779, "name": "คลินิกกายภาพบำบัด โรงพยาบาลวิชัยเวชแยกไฟฉาย", "district": "บางกอกน้อย", "snapDistanceMeters": 20.78}}, {"type": "Feature", "geometry": {"type": "Point", "coordinates": [100.46961038938052, 13.755990612027276]}, "properties": {"id": 240780, "name": "คลินิกฟ้าใส โรงพยาบาลวิชัยเวชแยกไฟฉาย", "district": "บางกอกน้อย", "snapDistanceMeters": 20.78}}, {"type": "Feature", "geometry": {"type": "Point", "coordinates": [100.51524161351523, 13.750433520824371]}, "properties": {"id": 240505, "name": "คลินิกศัลยกรรม โรงพยาบาลหัวเฉียว", "district": "ป้อมปราบศัตรูพ่าย", "snapDistanceMeters": 49.03}}, {"type": "Feature", "geometry": {"type": "Point", "coordinates": [100.51524161351523, 13.750433520824371]}, "properties": {"id": 240506, "name": "คลินิกเด็ก โรงพยาบาลหัวเฉียว", "district": "ป้อมปราบศัตรูพ่าย", "snapDistanceMeters": 49.03}}, {"type": "Feature", "geometry": {"type": "Point", "coordinates": [100.53855235478339, 13.831412334644961]}, "properties": {"id": 240507, "name": "ศูนย์สูติ-นรีเวช โรงพยาบาลเกษมราษฎร์ประชาชื่น", "district": "บางซื่อ", "snapDistanceMeters": 31.02}}, {"type": "Feature", "geometry": {"type": "Point", "coordinates": [100.53855235478339, 13.831412334644961]}, "properties": {"id": 240508, "name": "ศูนย์ทันตกรรม โรงพยาบาลเกษมราษฎร์ประชาชื่น", "district": "บางซื่อ", "snapDistanceMeters": 31.02}}, {"type": "Feature", "geometry": {"type": "Point", "coordinates": [100.53855235478339, 13.831412334644961]}, "properties": {"id": 240509, "name": "ศูนย์อายุรกรรม โรงพยาบาลเกษมราษฎร์ประชาชื่น", "district": "บางซื่อ", "snapDistanceMeters": 31.02}}, {"type": "Feature", "geometry": {"type": "Point", "coordinates": [100.53855235478339, 13.831412334644961]}, "properties": {"id": 240783, "name": "ศูนย์กุมารเวช โรงพยาบาลเกษมราษฎร์ประชาชื่น", "district": "บางซื่อ", "snapDistanceMeters": 31.02}}, {"type": "Feature", "geometry": {"type": "Point", "coordinates": [100.53855235478339, 13.831412334644961]}, "properties": {"id": 240784, "name": "ศูนย์ตรวจสุขภาพ โรงพยาบาลเกษมราษฎร์ประชาชื่น", "district": "บางซื่อ", "snapDistanceMeters": 31.02}}, {"type": "Feature", "geometry": {"type": "Point", "coordinates": [100.53855235478339, 13.831412334644961]}, "properties": {"id": 240785, "name": "แผนกกายภาพบำบัด โรงพยาบาลเกษมราษฎร์ประชาชื่น", "district": "บางซื่อ", "snapDistanceMeters": 31.02}}, {"type": "Feature", "geometry": {"type": "Point", "coordinates": [100.53855235478339, 13.831412334644961]}, "properties": {"id": 240786, "name": "แผนกธาราบำบัด โรงพยาบาลเกษมราษฎร์ประชาชื่น", "district": "บางซื่อ", "snapDistanceMeters": 31.02}}, {"type": "Feature", "geometry": {"type": "Point", "coordinates": [100.46961038938052, 13.755990612027276]}, "properties": {"id": 240220, "name": "คลินิกการบาดเจ็บจากอุบัติเหตุรุนแรง โรงพยาบาลวิชัยเวชแยกไฟฉาย", "district": "บางกอกน้อย", "snapDistanceMeters": 20.78}}, {"type": "Feature", "geometry": {"type": "Point", "coordinates": [100.46961038938052, 13.755990612027276]}, "properties": {"id": 240221, "name": "ศูนย์รักษาผู้มีบุตรยากอัครบุตร โรงพยาบาลวิชัยเวชแยกไฟฉาย", "district": "บางกอกน้อย", "snapDistanceMeters": 20.78}}, {"type": "Feature", "geometry": {"type": "Point", "coordinates": [100.51524161351523, 13.750433520824371]}, "properties": {"id": 239951, "name": "ศูนย์หัวใจและหลอดเลือด โรงพยาบาลหัวเฉียว", "district": "ป้อมปราบศัตรูพ่าย", "snapDistanceMeters": 49.03}}, {"type": "Feature", "geometry": {"type": "Point", "coordinates": [100.40705382179443, 13.663509470726716]}, "properties": {"id": 240498, "name": "ศูนย์ทันตกรรม โรงพยาบาลบางปะกอก 8", "district": "บางบอน", "snapDistanceMeters": 36.08}}, {"type": "Feature", "geometry": {"type": "Point", "coordinates": [100.40705382179443, 13.663509470726716]}, "properties": {"id": 240499, "name": "เวชปฏิบัติทั่วไป โรงพยาบาลบางปะกอก 8", "district": "บางบอน", "snapDistanceMeters": 36.08}}, {"type": "Feature", "geometry": {"type": "Point", "coordinates": [100.40705382179443, 13.663509470726716]}, "properties": {"id": 240500, "name": "ศูนย์ศัลยกรรมทั่วไป โรงพยาบาลบางปะกอก 8", "district": "บางบอน", "snapDistanceMeters": 36.08}}, {"type": "Feature", "geometry": {"type": "Point", "coordinates": [100.40705382179443, 13.663509470726716]}, "properties": {"id": 240501, "name": "แผนกวิสัญญี โรงพยาบาลบางปะกอก 8", "district": "บางบอน", "snapDistanceMeters": 36.08}}, {"type": "Feature", "geometry": {"type": "Point", "coordinates": [100.40705382179443, 13.663509470726716]}, "properties": {"id": 240502, "name": "ศูนย์สตรี โรงพยาบาลบางปะกอก 8", "district": "บางบอน", "snapDistanceMeters": 36.08}}, {"type": "Feature", "geometry": {"type": "Point", "coordinates": [100.40705382179443, 13.663509470726716]}, "properties": {"id": 240503, "name": "ศูนย์กุมารเวช โรงพยาบาลบางปะกอก 8", "district": "บางบอน", "snapDistanceMeters": 36.08}}, {"type": "Feature", "geometry": {"type": "Point", "coordinates": [100.51524161351523, 13.750433520824371]}, "properties": {"id": 240224, "name": "ศูนย์จักษุ โรงพยาบาลหัวเฉียว", "district": "ป้อมปราบศัตรูพ่าย", "snapDistanceMeters": 49.03}}, {"type": "Feature", "geometry": {"type": "Point", "coordinates": [100.51524161351523, 13.750433520824371]}, "properties": {"id": 240225, "name": "ศูนย์กระดูกและข้อ โรงพยาบาลหัวเฉียว", "district": "ป้อมปราบศัตรูพ่าย", "snapDistanceMeters": 49.03}}, {"type": "Feature", "geometry": {"type": "Point", "coordinates": [100.51524161351523, 13.750433520824371]}, "properties": {"id": 240226, "name": "ศูนย์แม่และเด็ก โรงพยาบาลหัวเฉียว", "district": "ป้อมปราบศัตรูพ่าย", "snapDistanceMeters": 49.03}}, {"type": "Feature", "geometry": {"type": "Point", "coordinates": [100.51524161351523, 13.750433520824371]}, "properties": {"id": 240227, "name": "ศูนย์รับผู้ป่วยทารกแรกเกิด โรงพยาบาลหัวเฉียว", "district": "ป้อมปราบศัตรูพ่าย", "snapDistanceMeters": 49.03}}, {"type": "Feature", "geometry": {"type": "Point", "coordinates": [100.51524161351523, 13.750433520824371]}, "properties": {"id": 240228, "name": "ศูนย์ไตเทียม โรงพยาบาลหัวเฉียว", "district": "ป้อมปราบศัตรูพ่าย", "snapDistanceMeters": 49.03}}, {"type": "Feature", "geometry": {"type": "Point", "coordinates": [100.51524161351523, 13.750433520824371]}, "properties": {"id": 240229, "name": "ศูนย์ตรวจสุขภาพ โรงพยาบาลหัวเฉียว", "district": "ป้อมปราบศัตรูพ่าย", "snapDistanceMeters": 49.03}}, {"type": "Feature", "geometry": {"type": "Point", "coordinates": [100.51524161351523, 13.750433520824371]}, "properties": {"id": 240230, "name": "ศูนย์เบาหวาน โรงพยาบาลหัวเฉียว", "district": "ป้อมปราบศัตรูพ่าย", "snapDistanceMeters": 49.03}}, {"type": "Feature", "geometry": {"type": "Point", "coordinates": [100.51524161351523, 13.750433520824371]}, "properties": {"id": 240231, "name": "ศูนย์รังสีวิทยา โรงพยาบาลหัวเฉียว", "district": "ป้อมปราบศัตรูพ่าย", "snapDistanceMeters": 49.03}}, {"type": "Feature", "geometry": {"type": "Point", "coordinates": [100.51524161351523, 13.750433520824371]}, "properties": {"id": 240232, "name": "คลินิกสูตินรีเวช โรงพยาบาลหัวเฉียว", "district": "ป้อมปราบศัตรูพ่าย", "snapDistanceMeters": 49.03}}, {"type": "Feature", "geometry": {"type": "Point", "coordinates": [100.53855235478339, 13.831412334644961]}, "properties": {"id": 240510, "name": "ศูนย์จักษุ โรงพยาบาลเกษมราษฎร์ประชาชื่น", "district": "บางซื่อ", "snapDistanceMeters": 31.02}}, {"type": "Feature", "geometry": {"type": "Point", "coordinates": [100.53855235478339, 13.831412334644961]}, "properties": {"id": 240511, "name": "ศูนย์หัวใจ โรงพยาบาลเกษมราษฎร์ประชาชื่น", "district": "บางซื่อ", "snapDistanceMeters": 31.02}}, {"type": "Feature", "geometry": {"type": "Point", "coordinates": [100.53855235478339, 13.831412334644961]}, "properties": {"id": 240512, "name": "ศูนย์แพทย์แผนไทย โรงพยาบาลเกษมราษฎร์ประชาชื่น", "district": "บางซื่อ", "snapDistanceMeters": 31.02}}, {"type": "Feature", "geometry": {"type": "Point", "coordinates": [100.53855235478339, 13.831412334644961]}, "properties": {"id": 240513, "name": "ศูนย์ศัลยกรรมประสาท โรงพยาบาลเกษมราษฎร์ประชาชื่น", "district": "บางซื่อ", "snapDistanceMeters": 31.02}}, {"type": "Feature", "geometry": {"type": "Point", "coordinates": [100.53855235478339, 13.831412334644961]}, "properties": {"id": 240514, "name": "ศูนย์ศัลยกรรมกระดูกและข้อ โรงพยาบาลเกษมราษฎร์ประชาชื่น", "district": "บางซื่อ", "snapDistanceMeters": 31.02}}, {"type": "Feature", "geometry": {"type": "Point", "coordinates": [100.53855235478339, 13.831412334644961]}, "properties": {"id": 240515, "name": "ศูนย์ไตเทียม โรงพยาบาลเกษมราษฎร์ประชาชื่น", "district": "บางซื่อ", "snapDistanceMeters": 31.02}}, {"type": "Feature", "geometry": {"type": "Point", "coordinates": [100.53855235478339, 13.831412334644961]}, "properties": {"id": 240516, "name": "ศูนย์รังสีและภาพเพื่อการวินิจฉัย โรงพยาบาลเกษมราษฎร์ประชาชื่น", "district": "บางซื่อ", "snapDistanceMeters": 31.02}}, {"type": "Feature", "geometry": {"type": "Point", "coordinates": [100.53855235478339, 13.831412334644961]}, "properties": {"id": 240517, "name": "ศูนย์หูคอจมูก โรงพยาบาลเกษมราษฎร์ประชาชื่น", "district": "บางซื่อ", "snapDistanceMeters": 31.02}}, {"type": "Feature", "geometry": {"type": "Point", "coordinates": [100.51524161351523, 13.750433520824371]}, "properties": {"id": 240233, "name": "คลินิกผู้มีบุตรยาก โรงพยาบาลหัวเฉียว", "district": "ป้อมปราบศัตรูพ่าย", "snapDistanceMeters": 49.03}}, {"type": "Feature", "geometry": {"type": "Point", "coordinates": [100.51524161351523, 13.750433520824371]}, "properties": {"id": 240234, "name": "คลินิกส่งเสริมศักยภาพทารกในครรภ์ โรงพยาบาลหัวเฉียว", "district": "ป้อมปราบศัตรูพ่าย", "snapDistanceMeters": 49.03}}, {"type": "Feature", "geometry": {"type": "Point", "coordinates": [100.51524161351523, 13.750433520824371]}, "properties": {"id": 240235, "name": "คลินิกตรวจความสมบูรณ์ของทารกในครรภ์ โรงพยาบาลหัวเฉียว", "district": "ป้อมปราบศัตรูพ่าย", "snapDistanceMeters": 49.03}}, {"type": "Feature", "geometry": {"type": "Point", "coordinates": [100.51524161351523, 13.750433520824371]}, "properties": {"id": 240236, "name": "คลินิกวางแผนครอบครัว โรงพยาบาลหัวเฉียว", "district": "ป้อมปราบศัตรูพ่าย", "snapDistanceMeters": 49.03}}, {"type": "Feature", "geometry": {"type": "Point", "coordinates": [100.51524161351523, 13.750433520824371]}, "properties": {"id": 240504, "name": "คลินิกอายุรกรรม โรงพยาบาลหัวเฉียว", "district": "ป้อมปราบศัตรูพ่าย", "snapDistanceMeters": 49.03}}, {"type": "Feature", "geometry": {"type": "Point", "coordinates": [100.51398800161255, 13.750505552056318]}, "properties": {"id": 240264, "name": "โรงพยาบาลธนบุรีบำรุงเมือง", "district": "ป้อมปราบศัตรูพ่าย", "snapDistanceMeters": 34.04}}, {"type": "Feature", "geometry": {"type": "Point", "coordinates": [100.48031700224495, 13.75221277750265]}, "properties": {"id": 239375, "name": "คลินิกศัลยกรรมมือ โรงพยาบาลธนบุรี", "district": "บางกอกน้อย", "snapDistanceMeters": 36.94}}, {"type": "Feature", "geometry": {"type": "Point", "coordinates": [100.48031700224495, 13.75221277750265]}, "properties": {"id": 239376, "name": "คลินิกศัลยกรรมประสาท โรงพยาบาลธนบุรี", "district": "บางกอกน้อย", "snapDistanceMeters": 36.94}}, {"type": "Feature", "geometry": {"type": "Point", "coordinates": [100.48031700224495, 13.75221277750265]}, "properties": {"id": 239377, "name": "คลินิกอายุรกรรมโภชนาการ โรงพยาบาลธนบุรี", "district": "บางกอกน้อย", "snapDistanceMeters": 36.94}}, {"type": "Feature", "geometry": {"type": "Point", "coordinates": [100.48031700224495, 13.75221277750265]}, "properties": {"id": 239645, "name": "คลินิกโรคทางเดินปัสสาวะ โรงพยาบาลธนบุรี", "district": "บางกอกน้อย", "snapDistanceMeters": 36.94}}, {"type": "Feature", "geometry": {"type": "Point", "coordinates": [100.53381631878355, 13.782732636282615]}, "properties": {"id": 9324, "name": "โรงพยาบาลวิชัยยุทธอาคารเหนือ", "district": "พญาไท", "snapDistanceMeters": 57.32}}, {"type": "Feature", "geometry": {"type": "Point", "coordinates": [100.58541721477648, 13.745226753797168]}, "properties": {"id": 223944, "name": "ศูนย์ทันตกรรมโรงพยาบาลกรุงเทพ", "district": "ห้วยขวาง", "snapDistanceMeters": 24.13}}, {"type": "Feature", "geometry": {"type": "Point", "coordinates": [100.54611866270847, 13.784588756526247]}, "properties": {"id": 241355, "name": "สูตินารี โรงพยาบาลประสานมิตร", "district": "พญาไท", "snapDistanceMeters": 12.89}}, {"type": "Feature", "geometry": {"type": "Point", "coordinates": [100.54611866270847, 13.784588756526247]}, "properties": {"id": 241356, "name": "โรคภูมิแพ้และหอบหืดในเด็ก โรงพยาบาลประสานมิตร", "district": "พญาไท", "snapDistanceMeters": 12.89}}, {"type": "Feature", "geometry": {"type": "Point", "coordinates": [100.47467924082878, 13.68236654245831]}, "properties": {"id": 241368, "name": "ศูนย์กายภาพบำบัด โรงพยาบาลบางปะกอก 9 อินเตอร์เนชั่นแนล", "district": "จอมทอง", "snapDistanceMeters": 45.81}}, {"type": "Feature", "geometry": {"type": "Point", "coordinates": [100.47467924082878, 13.68236654245831]}, "properties": {"id": 241369, "name": "ศูนย์กุมารเวชเฉพาะทาง โรงพยาบาลบางปะกอก 9 อินเตอร์เนชั่นแนล", "district": "จอมทอง", "snapDistanceMeters": 45.81}}, {"type": "Feature", "geometry": {"type": "Point", "coordinates": [100.63837857849222, 13.667362235596755]}, "properties": {"id": 241384, "name": "คลินิกแพทย์แผนจีน โรงพยาบาลไทยนครินทร์", "district": "บางนา", "snapDistanceMeters": 86.24}}, {"type": "Feature", "geometry": {"type": "Point", "coordinates": [100.53855235478339, 13.831412334644961]}, "properties": {"id": 241385, "name": "ศูนย์ศัลยกรรมทางเดินปัสสาวะ โรงพยาบาลเกษมราษฎร์ประชาชื่น", "district": "บางซื่อ", "snapDistanceMeters": 31.02}}, {"type": "Feature", "geometry": {"type": "Point", "coordinates": [100.57645217110442, 13.732739752831728]}, "properties": {"id": 240474, "name": "ทันตกรรมความงาม โรงพยาบาลฟัน", "district": "วัฒนา", "snapDistanceMeters": 29.77}}, {"type": "Feature", "geometry": {"type": "Point", "coordinates": [100.57645217110442, 13.732739752831728]}, "properties": {"id": 240475, "name": "ทันตกรรมจัดฟัน โรงพยาบาลฟัน", "district": "วัฒนา", "snapDistanceMeters": 29.77}}, {"type": "Feature", "geometry": {"type": "Point", "coordinates": [100.57645217110442, 13.732739752831728]}, "properties": {"id": 240476, "name": "ทันตกรรมประดิษฐ์ โรงพยาบาลฟัน", "district": "วัฒนา", "snapDistanceMeters": 29.77}}, {"type": "Feature", "geometry": {"type": "Point", "coordinates": [100.57645217110442, 13.732739752831728]}, "properties": {"id": 240477, "name": "การรักษาคลองรากฟัน โรงพยาบาลฟัน", "district": "วัฒนา", "snapDistanceMeters": 29.77}}, {"type": "Feature", "geometry": {"type": "Point", "coordinates": [100.57645217110442, 13.732739752831728]}, "properties": {"id": 240478, "name": "ทันตกรรมสำหรับเด็ก โรงพยาบาลฟัน", "district": "วัฒนา", "snapDistanceMeters": 29.77}}, {"type": "Feature", "geometry": {"type": "Point", "coordinates": [100.57645217110442, 13.732739752831728]}, "properties": {"id": 240479, "name": "ศัลยศาสตร์ช่องปากและกระดูกขากรรไกร โรงพยาบาลฟัน", "district": "วัฒนา", "snapDistanceMeters": 29.77}}, {"type": "Feature", "geometry": {"type": "Point", "coordinates": [100.60764194739691, 13.882377249907798]}, "properties": {"id": 241055, "name": "แผนกส่งเสริมสุขภาพ โรงพยาบาลสายหยุด", "district": "บางเขน", "snapDistanceMeters": 35.59}}, {"type": "Feature", "geometry": {"type": "Point", "coordinates": [100.60764194739691, 13.882377249907798]}, "properties": {"id": 241056, "name": "แผนกทันตกรรม โรงพยาบาลสายหยุด", "district": "บางเขน", "snapDistanceMeters": 35.59}}, {"type": "Feature", "geometry": {"type": "Point", "coordinates": [100.60764194739691, 13.882377249907798]}, "properties": {"id": 241057, "name": "แผนกเยี่ยมบ้าน โรงพยาบาลสายหยุด", "district": "บางเขน", "snapDistanceMeters": 35.59}}, {"type": "Feature", "geometry": {"type": "Point", "coordinates": [100.60764194739691, 13.882377249907798]}, "properties": {"id": 241058, "name": "แผนกเอกซเรย์ โรงพยาบาลสายหยุด", "district": "บางเขน", "snapDistanceMeters": 35.59}}, {"type": "Feature", "geometry": {"type": "Point", "coordinates": [100.47467924082878, 13.68236654245831]}, "properties": {"id": 241363, "name": "ศูนย์หูคอจมูก โรงพยาบาลบางปะกอก 9 อินเตอร์เนชั่นแนล", "district": "จอมทอง", "snapDistanceMeters": 45.81}}, {"type": "Feature", "geometry": {"type": "Point", "coordinates": [100.47467924082878, 13.68236654245831]}, "properties": {"id": 241364, "name": "คลินิกโรคหูและการได้ยิน โรงพยาบาลบางปะกอก 9 อินเตอร์เนชั่นแนล", "district": "จอมทอง", "snapDistanceMeters": 45.81}}, {"type": "Feature", "geometry": {"type": "Point", "coordinates": [100.47467924082878, 13.68236654245831]}, "properties": {"id": 241365, "name": "คลินิกโรคจมูกและการรับกลิ่น โรงพยาบาลบางปะกอก 9 อินเตอร์เนชั่นแนล", "district": "จอมทอง", "snapDistanceMeters": 45.81}}, {"type": "Feature", "geometry": {"type": "Point", "coordinates": [100.47467924082878, 13.68236654245831]}, "properties": {"id": 241366, "name": "คลินิกโรคศีรษะและลำคอ โรงพยาบาลบางปะกอก 9 อินเตอร์เนชั่นแนล", "district": "จอมทอง", "snapDistanceMeters": 45.81}}, {"type": "Feature", "geometry": {"type": "Point", "coordinates": [100.47467924082878, 13.68236654245831]}, "properties": {"id": 241367, "name": "ศูนย์สายเสียงและการกลืน โรงพยาบาลบางปะกอก 9 อินเตอร์เนชั่นแนล", "district": "จอมทอง", "snapDistanceMeters": 45.81}}, {"type": "Feature", "geometry": {"type": "Point", "coordinates": [100.51524161351523, 13.750433520824371]}, "properties": {"id": 241095, "name": "คลินิกหูคอจมูก โรงพยาบาลหัวเฉียว", "district": "ป้อมปราบศัตรูพ่าย", "snapDistanceMeters": 49.03}}, {"type": "Feature", "geometry": {"type": "Point", "coordinates": [100.51524161351523, 13.750433520824371]}, "properties": {"id": 241096, "name": "คลินิกทันตกรรม โรงพยาบาลหัวเฉียว", "district": "ป้อมปราบศัตรูพ่าย", "snapDistanceMeters": 49.03}}, {"type": "Feature", "geometry": {"type": "Point", "coordinates": [100.51524161351523, 13.750433520824371]}, "properties": {"id": 241371, "name": "คลินิกผิวพรรณและความงาม โรงพยาบาลหัวเฉียว", "district": "ป้อมปราบศัตรูพ่าย", "snapDistanceMeters": 49.03}}, {"type": "Feature", "geometry": {"type": "Point", "coordinates": [100.51524161351523, 13.750433520824371]}, "properties": {"id": 241372, "name": "คลินิกวัคซีน โรงพยาบาลหัวเฉียว", "district": "ป้อมปราบศัตรูพ่าย", "snapDistanceMeters": 49.03}}, {"type": "Feature", "geometry": {"type": "Point", "coordinates": [100.51524161351523, 13.750433520824371]}, "properties": {"id": 241373, "name": "คลินิกโรคภูมิแพ้ โรงพยาบาลหัวเฉียว", "district": "ป้อมปราบศัตรูพ่าย", "snapDistanceMeters": 49.03}}, {"type": "Feature", "geometry": {"type": "Point", "coordinates": [100.51524161351523, 13.750433520824371]}, "properties": {"id": 241374, "name": "คลินิกเวชศาสตร์ฟื้นฟูและกายภาพบำบัด โรงพยาบาลหัวเฉียว", "district": "ป้อมปราบศัตรูพ่าย", "snapDistanceMeters": 49.03}}, {"type": "Feature", "geometry": {"type": "Point", "coordinates": [100.51524161351523, 13.750433520824371]}, "properties": {"id": 241375, "name": "คลินิกเด็กฟันสวย โรงพยาบาลหัวเฉียว", "district": "ป้อมปราบศัตรูพ่าย", "snapDistanceMeters": 49.03}}, {"type": "Feature", "geometry": {"type": "Point", "coordinates": [100.51524161351523, 13.750433520824371]}, "properties": {"id": 241376, "name": "คลินิกเต้านม โรงพยาบาลหัวเฉียว", "district": "ป้อมปราบศัตรูพ่าย", "snapDistanceMeters": 49.03}}, {"type": "Feature", "geometry": {"type": "Point", "coordinates": [100.51524161351523, 13.750433520824371]}, "properties": {"id": 241377, "name": "คลินิกรักษ์เท้า โรงพยาบาลหัวเฉียว", "district": "ป้อมปราบศัตรูพ่าย", "snapDistanceMeters": 49.03}}, {"type": "Feature", "geometry": {"type": "Point", "coordinates": [100.63837857849222, 13.667362235596755]}, "properties": {"id": 241378, "name": "ศูนย์หัวใจไทยนครินทร์ โรงพยาบาลไทยนครินทร์", "district": "บางนา", "snapDistanceMeters": 86.24}}, {"type": "Feature", "geometry": {"type": "Point", "coordinates": [100.46961038938052, 13.755990612027276]}, "properties": {"id": 240213, "name": "คลินิกโรคกระดูกสันหลัง โรงพยาบาลวิชัยเวชแยกไฟฉาย", "district": "บางกอกน้อย", "snapDistanceMeters": 20.78}}, {"type": "Feature", "geometry": {"type": "Point", "coordinates": [100.46961038938052, 13.755990612027276]}, "properties": {"id": 240214, "name": "คลินิกศัลยกรรมทางมือและจุลศัลยกรรม โรงพยาบาลวิชัยเวชแยกไฟฉาย", "district": "บางกอกน้อย", "snapDistanceMeters": 20.78}}, {"type": "Feature", "geometry": {"type": "Point", "coordinates": [100.46961038938052, 13.755990612027276]}, "properties": {"id": 240215, "name": "คลินิกโรคกระดูกพรุน โรงพยาบาลวิชัยเวชแยกไฟฉาย", "district": "บางกอกน้อย", "snapDistanceMeters": 20.78}}, {"type": "Feature", "geometry": {"type": "Point", "coordinates": [100.46961038938052, 13.755990612027276]}, "properties": {"id": 240216, "name": "คลินิกเวชศาสตร์ฟื้นฟู โรงพยาบาลวิชัยเวชแยกไฟฉาย", "district": "บางกอกน้อย", "snapDistanceMeters": 20.78}}, {"type": "Feature", "geometry": {"type": "Point", "coordinates": [100.46961038938052, 13.755990612027276]}, "properties": {"id": 240217, "name": "คลินิกโรคกระดูกในเด็ก โรงพยาบาลวิชัยเวชแยกไฟฉาย", "district": "บางกอกน้อย", "snapDistanceMeters": 20.78}}, {"type": "Feature", "geometry": {"type": "Point", "coordinates": [100.46961038938052, 13.755990612027276]}, "properties": {"id": 240218, "name": "คลินิกเนื้องอกกระดูกและเนื้อเยื่อ โรงพยาบาลวิชัยเวชแยกไฟฉาย", "district": "บางกอกน้อย", "snapDistanceMeters": 20.78}}, {"type": "Feature", "geometry": {"type": "Point", "coordinates": [100.46961038938052, 13.755990612027276]}, "properties": {"id": 240219, "name": "คลินิกโรคกระดูกทั่วไป โรงพยาบาลวิชัยเวชแยกไฟฉาย", "district": "บางกอกน้อย", "snapDistanceMeters": 20.78}}, {"type": "Feature", "geometry": {"type": "Point", "coordinates": [100.46961038938052, 13.755990612027276]}, "properties": {"id": 240490, "name": "ศูนย์ทันตกรรมเฉพาะทางสไมล์บายไอสกาย โรงพยาบาลวิชัยเวชแยกไฟฉาย", "district": "บางกอกน้อย", "snapDistanceMeters": 20.78}}, {"type": "Feature", "geometry": {"type": "Point", "coordinates": [100.46961038938052, 13.755990612027276]}, "properties": {"id": 240491, "name": "คลินิกอายุรกรรมเฉพาะทาง โรงพยาบาลวิชัยเวชแยกไฟฉาย", "district": "บางกอกน้อย", "snapDistanceMeters": 20.78}}, {"type": "Feature", "geometry": {"type": "Point", "coordinates": [100.46961038938052, 13.755990612027276]}, "properties": {"id": 240492, "name": "คลินิกกุมารเวช โรงพยาบาลวิชัยเวชแยกไฟฉาย", "district": "บางกอกน้อย", "snapDistanceMeters": 20.78}}, {"type": "Feature", "geometry": {"type": "Point", "coordinates": [100.46961038938052, 13.755990612027276]}, "properties": {"id": 240493, "name": "ศูนย์อุบัติเหตุ-ฉุกเฉิน โรงพยาบาลวิชัยเวชแยกไฟฉาย", "district": "บางกอกน้อย", "snapDistanceMeters": 20.78}}, {"type": "Feature", "geometry": {"type": "Point", "coordinates": [100.46961038938052, 13.755990612027276]}, "properties": {"id": 240494, "name": "ศูนย์เวชศาสตร์การกีฬา โรงพยาบาลวิชัยเวชแยกไฟฉาย", "district": "บางกอกน้อย", "snapDistanceMeters": 20.78}}, {"type": "Feature", "geometry": {"type": "Point", "coordinates": [100.46961038938052, 13.755990612027276]}, "properties": {"id": 240495, "name": "ศูนย์เอกซเรย์ โรงพยาบาลวิชัยเวชแยกไฟฉาย", "district": "บางกอกน้อย", "snapDistanceMeters": 20.78}}, {"type": "Feature", "geometry": {"type": "Point", "coordinates": [100.46961038938052, 13.755990612027276]}, "properties": {"id": 240496, "name": "ศูนย์ไตเทียม โรงพยาบาลวิชัยเวชแยกไฟฉาย", "district": "บางกอกน้อย", "snapDistanceMeters": 20.78}}, {"type": "Feature", "geometry": {"type": "Point", "coordinates": [100.40705382179443, 13.663509470726716]}, "properties": {"id": 240497, "name": "ศูนย์อายุรกรรม โรงพยาบาลบางปะกอก 8", "district": "บางบอน", "snapDistanceMeters": 36.08}}, {"type": "Feature", "geometry": {"type": "Point", "coordinates": [100.54611866270847, 13.784588756526247]}, "properties": {"id": 241051, "name": "อายุรกรรมทางเดินหายใจ โรงพยาบาลประสานมิตร", "district": "พญาไท", "snapDistanceMeters": 12.89}}, {"type": "Feature", "geometry": {"type": "Point", "coordinates": [100.54611866270847, 13.784588756526247]}, "properties": {"id": 241052, "name": "โรคหัวใจและหลอดเลือด โรงพยาบาลประสานมิตร", "district": "พญาไท", "snapDistanceMeters": 12.89}}, {"type": "Feature", "geometry": {"type": "Point", "coordinates": [100.54611866270847, 13.784588756526247]}, "properties": {"id": 241053, "name": "เบาหวานและระบบต่อมไร้ท่อ โรงพยาบาลประสานมิตร", "district": "พญาไท", "snapDistanceMeters": 12.89}}, {"type": "Feature", "geometry": {"type": "Point", "coordinates": [100.54611866270847, 13.784588756526247]}, "properties": {"id": 241054, "name": "หูคอจมูก โรงพยาบาลประสานมิตร", "district": "พญาไท", "snapDistanceMeters": 12.89}}, {"type": "Feature", "geometry": {"type": "Point", "coordinates": [100.40705382179443, 13.663509470726716]}, "properties": {"id": 240767, "name": "ศูนย์ศัลยกรรมกระดูกกล้ามเนื้อข้อเข่าข้อไหล่และสะโพก โรงพยาบาลบางปะกอก 8", "district": "บางบอน", "snapDistanceMeters": 36.08}}, {"type": "Feature", "geometry": {"type": "Point", "coordinates": [100.40705382179443, 13.663509470726716]}, "properties": {"id": 240768, "name": "แผนกรังสีวิทยาวินิจฉัย โรงพยาบาลบางปะกอก 8", "district": "บางบอน", "snapDistanceMeters": 36.08}}, {"type": "Feature", "geometry": {"type": "Point", "coordinates": [100.63561979148525, 13.66718362693701]}, "properties": {"id": 240769, "name": "แผนกตรวจสุขภาพ โรงพยาบาลบางนา 1", "district": "บางนา", "snapDistanceMeters": 37.25}}, {"type": "Feature", "geometry": {"type": "Point", "coordinates": [100.63561979148525, 13.66718362693701]}, "properties": {"id": 240770, "name": "แผนกทันตกรรม โรงพยาบาลบางนา 1", "district": "บางนา", "snapDistanceMeters": 37.25}}, {"type": "Feature", "geometry": {"type": "Point", "coordinates": [100.63561979148525, 13.66718362693701]}, "properties": {"id": 240771, "name": "แผนกรักษาโรคทั่วไป โรงพยาบาลบางนา 1", "district": "บางนา", "snapDistanceMeters": 37.25}}, {"type": "Feature", "geometry": {"type": "Point", "coordinates": [100.63561979148525, 13.66718362693701]}, "properties": {"id": 241071, "name": "แผนกการคลอดและทารกหลังคลอด โรงพยาบาลบางนา 1", "district": "บางนา", "snapDistanceMeters": 37.25}}, {"type": "Feature", "geometry": {"type": "Point", "coordinates": [100.63561979148525, 13.66718362693701]}, "properties": {"id": 241072, "name": "แผนกวัคซีน โรงพยาบาลบางนา 1", "district": "บางนา", "snapDistanceMeters": 37.25}}, {"type": "Feature", "geometry": {"type": "Point", "coordinates": [100.63561979148525, 13.66718362693701]}, "properties": {"id": 241073, "name": "แผนกโสตสอนาสิก โรงพยาบาลบางนา 1", "district": "บางนา", "snapDistanceMeters": 37.25}}, {"type": "Feature", "geometry": {"type": "Point", "coordinates": [100.63561979148525, 13.66718362693701]}, "properties": {"id": 241074, "name": "แผนกกายภาพบำบัด โรงพยาบาลบางนา 1", "district": "บางนา", "snapDistanceMeters": 37.25}}, {"type": "Feature", "geometry": {"type": "Point", "coordinates": [100.53855235478339, 13.831412334644961]}, "properties": {"id": 240782, "name": "ศูนย์ศัลยกรรมเพื่อความงาม โรงพยาบาลเกษมราษฎร์ประชาชื่น", "district": "บางซื่อ", "snapDistanceMeters": 31.02}}, {"type": "Feature", "geometry": {"type": "Point", "coordinates": [100.63837857849222, 13.667362235596755]}, "properties": {"id": 241379, "name": "ศูนย์กระดูกและข้อ โรงพยาบาลไทยนครินทร์", "district": "บางนา", "snapDistanceMeters": 86.24}}, {"type": "Feature", "geometry": {"type": "Point", "coordinates": [100.63837857849222, 13.667362235596755]}, "properties": {"id": 241380, "name": "ศูนย์มะเร็งโฮลิสติค โรงพยาบาลไทยนครินทร์", "district": "บางนา", "snapDistanceMeters": 86.24}}, {"type": "Feature", "geometry": {"type": "Point", "coordinates": [100.63837857849222, 13.667362235596755]}, "properties": {"id": 241381, "name": "ศูนย์ไตเทียม โรงพยาบาลไทยนครินทร์", "district": "บางนา", "snapDistanceMeters": 86.24}}, {"type": "Feature", "geometry": {"type": "Point", "coordinates": [100.63837857849222, 13.667362235596755]}, "properties": {"id": 241382, "name": "ศูนย์ตรวจสุขภาพ โรงพยาบาลไทยนครินทร์", "district": "บางนา", "snapDistanceMeters": 86.24}}, {"type": "Feature", "geometry": {"type": "Point", "coordinates": [100.63837857849222, 13.667362235596755]}, "properties": {"id": 241383, "name": "ศูนย์ผิวหนังและเลเซอร์ โรงพยาบาลไทยนครินทร์", "district": "บางนา", "snapDistanceMeters": 86.24}}, {"type": "Feature", "geometry": {"type": "Point", "coordinates": [100.55991657151105, 13.738571567157079]}, "properties": {"id": 300218, "name": "โรงพยาบาลศัลยกรรมเกาหลีจิวเวลรี่", "district": "วัฒนา", "snapDistanceMeters": 41.98}}, {"type": "Feature", "geometry": {"type": "Point", "coordinates": [100.5116146063109, 13.780728703331292]}, "properties": {"id": 298276, "name": "โรงพยาบาลมาสเตอร์พีซ", "district": "ดุสิต", "snapDistanceMeters": 25.89}}, {"type": "Feature", "geometry": {"type": "Point", "coordinates": [100.46494339193697, 13.725376342210652]}, "properties": {"id": 239613, "name": "คลินิกโรคผิวหนัง โรงพยาบาลบางไผ่", "district": "ภาษีเจริญ", "snapDistanceMeters": 22.56}}, {"type": "Feature", "geometry": {"type": "Point", "coordinates": [100.46494339193697, 13.725376342210652]}, "properties": {"id": 239614, "name": "คลินิกต่อมไร้ท่อ โรงพยาบาลบางไผ่", "district": "ภาษีเจริญ", "snapDistanceMeters": 22.56}}, {"type": "Feature", "geometry": {"type": "Point", "coordinates": [100.46494339193697, 13.725376342210652]}, "properties": {"id": 239615, "name": "คลินิกศัลยกรรมทั่วไป โรงพยาบาลบางไผ่", "district": "ภาษีเจริญ", "snapDistanceMeters": 22.56}}, {"type": "Feature", "geometry": {"type": "Point", "coordinates": [100.51673535040298, 13.74938179447319]}, "properties": {"id": 239352, "name": "คลินิกรักษาโรคต้อ โรงพยาบาลการแพทย์แผนไทยและการแพทย์ผสมผสาน", "district": "ป้อมปราบศัตรูพ่าย", "snapDistanceMeters": 23.52}}, {"type": "Feature", "geometry": {"type": "Point", "coordinates": [100.51673535040298, 13.74938179447319]}, "properties": {"id": 239353, "name": "คลินิกตอกเส้น โรงพยาบาลการแพทย์แผนไทยและการแพทย์ผสมผสาน", "district": "ป้อมปราบศัตรูพ่าย", "snapDistanceMeters": 23.52}}, {"type": "Feature", "geometry": {"type": "Point", "coordinates": [100.46494339193697, 13.725376342210652]}, "properties": {"id": 239616, "name": "คลินิกศัลยกรรมสมอง โรงพยาบาลบางไผ่", "district": "ภาษีเจริญ", "snapDistanceMeters": 22.56}}, {"type": "Feature", "geometry": {"type": "Point", "coordinates": [100.46494339193697, 13.725376342210652]}, "properties": {"id": 239617, "name": "คลินิกระบบทางเดินปัสสาวะ โรงพยาบาลบางไผ่", "district": "ภาษีเจริญ", "snapDistanceMeters": 22.56}}, {"type": "Feature", "geometry": {"type": "Point", "coordinates": [100.46494339193697, 13.725376342210652]}, "properties": {"id": 239618, "name": "คลินิกเวชศาสตร์ฟื้นฟู โรงพยาบาลบางไผ่", "district": "ภาษีเจริญ", "snapDistanceMeters": 22.56}}, {"type": "Feature", "geometry": {"type": "Point", "coordinates": [100.46494339193697, 13.725376342210652]}, "properties": {"id": 239619, "name": "แผนกกายภาพบำบัด โรงพยาบาลบางไผ่", "district": "ภาษีเจริญ", "snapDistanceMeters": 22.56}}, {"type": "Feature", "geometry": {"type": "Point", "coordinates": [100.51673535040298, 13.74938179447319]}, "properties": {"id": 239354, "name": "คลินิกฝังเข็ม โรงพยาบาลการแพทย์แผนไทยและการแพทย์ผสมผสาน", "district": "ป้อมปราบศัตรูพ่าย", "snapDistanceMeters": 23.52}}, {"type": "Feature", "geometry": {"type": "Point", "coordinates": [100.51673535040298, 13.74938179447319]}, "properties": {"id": 239355, "name": "คลินิกมารดาหลังคลอด โรงพยาบาลการแพทย์แผนไทยและการแพทย์ผสมผสาน", "district": "ป้อมปราบศัตรูพ่าย", "snapDistanceMeters": 23.52}}, {"type": "Feature", "geometry": {"type": "Point", "coordinates": [100.6438512707174, 13.816671302778003]}, "properties": {"id": 329488, "name": "โรงพยาบาลนวเวชอินเตอร์เนชั่นแนล", "district": "บึงกุ่ม", "snapDistanceMeters": 68.0}}, {"type": "Feature", "geometry": {"type": "Point", "coordinates": [100.54581421110565, 13.784639290216024]}, "properties": {"id": 120957, "name": "โรงพยาบาลนวุติสมเด็จย่า", "district": "พญาไท", "snapDistanceMeters": 24.91}}, {"type": "Feature", "geometry": {"type": "Point", "coordinates": [100.57066961143312, 13.753220662236194]}, "properties": {"id": 241323, "name": "ศูนย์หูคอจมูก โรงพยาบาลพระรามเก้า", "district": "ห้วยขวาง", "snapDistanceMeters": 33.41}}, {"type": "Feature", "geometry": {"type": "Point", "coordinates": [100.57066961143312, 13.753220662236194]}, "properties": {"id": 241324, "name": "ศูนย์ทันตกรรม โรงพยาบาลพระรามเก้า", "district": "ห้วยขวาง", "snapDistanceMeters": 33.41}}, {"type": "Feature", "geometry": {"type": "Point", "coordinates": [100.60680665757616, 13.888721462576479]}, "properties": {"id": 241030, "name": "คลินิกโรคหูคอจมูก โรงพยาบาลซีจีเอช สะพานใหม่", "district": "บางเขน", "snapDistanceMeters": 45.93}}, {"type": "Feature", "geometry": {"type": "Point", "coordinates": [100.60680665757616, 13.888721462576479]}, "properties": {"id": 241311, "name": "คลินิกสูติ-นรีเวช โรงพยาบาลซีจีเอช สะพานใหม่", "district": "บางเขน", "snapDistanceMeters": 45.93}}, {"type": "Feature", "geometry": {"type": "Point", "coordinates": [100.60680665757616, 13.888721462576479]}, "properties": {"id": 241312, "name": "คลินิกอายุรกรรมระบบประสาท โรงพยาบาลซีจีเอช สะพานใหม่", "district": "บางเขน", "snapDistanceMeters": 45.93}}, {"type": "Feature", "geometry": {"type": "Point", "coordinates": [100.60680665757616, 13.888721462576479]}, "properties": {"id": 241313, "name": "คลินิกศัลยกรรมประสาทและสมอง โรงพยาบาลซีจีเอช สะพานใหม่", "district": "บางเขน", "snapDistanceMeters": 45.93}}, {"type": "Feature", "geometry": {"type": "Point", "coordinates": [100.60680665757616, 13.888721462576479]}, "properties": {"id": 241314, "name": "คลินิกโรคหัวใจ โรงพยาบาลซีจีเอช สะพานใหม่", "district": "บางเขน", "snapDistanceMeters": 45.93}}, {"type": "Feature", "geometry": {"type": "Point", "coordinates": [100.51280026492918, 13.737951217687064]}, "properties": {"id": 241315, "name": "สถาบันสุขภาพผิวพรรณ โรงพยาบาลสมิติเวชไชน่าทาวน์", "district": "สัมพันธวงค์", "snapDistanceMeters": 30.86}}, {"type": "Feature", "geometry": {"type": "Point", "coordinates": [100.51280026492918, 13.737951217687064]}, "properties": {"id": 241316, "name": "สถาบันจักษุ โรงพยาบาลสมิติเวชไชน่าทาวน์", "district": "สัมพันธวงค์", "snapDistanceMeters": 30.86}}, {"type": "Feature", "geometry": {"type": "Point", "coordinates": [100.50268600690393, 13.678197460239854]}, "properties": {"id": 241327, "name": "ทันตกรรม โรงพยาบาลราษฎร์บูรณะ", "district": "ราษฎร์บูรณะ", "snapDistanceMeters": 23.98}}, {"type": "Feature", "geometry": {"type": "Point", "coordinates": [100.50268600690393, 13.678197460239854]}, "properties": {"id": 241328, "name": "กายภาพบำบัดและฟื้นฟู โรงพยาบาลราษฎร์บูรณะ", "district": "ราษฎร์บูรณะ", "snapDistanceMeters": 23.98}}, {"type": "Feature", "geometry": {"type": "Point", "coordinates": [100.50268600690393, 13.678197460239854]}, "properties": {"id": 241329, "name": "ศูนย์ไตเทียม โรงพยาบาลราษฎร์บูรณะ", "district": "ราษฎร์บูรณะ", "snapDistanceMeters": 23.98}}, {"type": "Feature", "geometry": {"type": "Point", "coordinates": [100.50268600690393, 13.678197460239854]}, "properties": {"id": 241330, "name": "แผนกอายุรกรรม โรงพยาบาลราษฎร์บูรณะ", "district": "ราษฎร์บูรณะ", "snapDistanceMeters": 23.98}}, {"type": "Feature", "geometry": {"type": "Point", "coordinates": [100.57066961143312, 13.753220662236194]}, "properties": {"id": 241016, "name": "คลินิกเต้านม โรงพยาบาลพระรามเก้า", "district": "ห้วยขวาง", "snapDistanceMeters": 33.41}}, {"type": "Feature", "geometry": {"type": "Point", "coordinates": [100.57066961143312, 13.753220662236194]}, "properties": {"id": 241017, "name": "ศูนย์สุขภาพเส้นผม โรงพยาบาลพระรามเก้า", "district": "ห้วยขวาง", "snapDistanceMeters": 33.41}}, {"type": "Feature", "geometry": {"type": "Point", "coordinates": [100.57066961143312, 13.753220662236194]}, "properties": {"id": 241018, "name": "ศูนย์จักษุ โรงพยาบาลพระรามเก้า", "district": "ห้วยขวาง", "snapDistanceMeters": 33.41}}, {"type": "Feature", "geometry": {"type": "Point", "coordinates": [100.57066961143312, 13.753220662236194]}, "properties": {"id": 241019, "name": "ศูนย์สูตินรีเวช โรงพยาบาลพระรามเก้า", "district": "ห้วยขวาง", "snapDistanceMeters": 33.41}}, {"type": "Feature", "geometry": {"type": "Point", "coordinates": [100.57066961143312, 13.753220662236194]}, "properties": {"id": 241020, "name": "ศูนย์กระดูกและข้อพระรามเก้า โรงพยาบาลพระรามเก้า", "district": "ห้วยขวาง", "snapDistanceMeters": 33.41}}, {"type": "Feature", "geometry": {"type": "Point", "coordinates": [100.57066961143312, 13.753220662236194]}, "properties": {"id": 241021, "name": "ศูนย์อายุรกรรม โรงพยาบาลพระรามเก้า", "district": "ห้วยขวาง", "snapDistanceMeters": 33.41}}, {"type": "Feature", "geometry": {"type": "Point", "coordinates": [100.57066961143312, 13.753220662236194]}, "properties": {"id": 241022, "name": "ศูนย์ศัลยกรรม โรงพยาบาลพระรามเก้า", "district": "ห้วยขวาง", "snapDistanceMeters": 33.41}}, {"type": "Feature", "geometry": {"type": "Point", "coordinates": [100.60680665757616, 13.888721462576479]}, "properties": {"id": 241023, "name": "คลินิกอายุรกรรม โรงพยาบาลซีจีเอช สะพานใหม่", "district": "บางเขน", "snapDistanceMeters": 45.93}}, {"type": "Feature", "geometry": {"type": "Point", "coordinates": [100.60680665757616, 13.888721462576479]}, "properties": {"id": 241024, "name": "ศูนย์ส่องกล้อง โรงพยาบาลซีจีเอช สะพานใหม่", "district": "บางเขน", "snapDistanceMeters": 45.93}}, {"type": "Feature", "geometry": {"type": "Point", "coordinates": [100.60680665757616, 13.888721462576479]}, "properties": {"id": 241025, "name": "คลินิกโรคระบบทางเดินอาหาร โรงพยาบาลซีจีเอช สะพานใหม่", "district": "บางเขน", "snapDistanceMeters": 45.93}}, {"type": "Feature", "geometry": {"type": "Point", "coordinates": [100.60680665757616, 13.888721462576479]}, "properties": {"id": 241026, "name": "คลินิกโรคเบาหวาน โรงพยาบาลซีจีเอช สะพานใหม่", "district": "บางเขน", "snapDistanceMeters": 45.93}}, {"type": "Feature", "geometry": {"type": "Point", "coordinates": [100.51280026492918, 13.737951217687064]}, "properties": {"id": 241317, "name": "ศูนย์ผ่าตัดข้อเทียม โรงพยาบาลสมิติเวชไชน่าทาวน์", "district": "สัมพันธวงค์", "snapDistanceMeters": 30.86}}, {"type": "Feature", "geometry": {"type": "Point", "coordinates": [100.51280026492918, 13.737951217687064]}, "properties": {"id": 241318, "name": "สถาบันตับและทางเดินอาหาร โรงพยาบาลสมิติเวชไชน่าทาวน์", "district": "สัมพันธวงค์", "snapDistanceMeters": 30.86}}, {"type": "Feature", "geometry": {"type": "Point", "coordinates": [100.51280026492918, 13.737951217687064]}, "properties": {"id": 241319, "name": "ไลฟ์เซ็นเตอร์ โรงพยาบาลสมิติเวชไชน่าทาวน์", "district": "สัมพันธวงค์", "snapDistanceMeters": 30.86}}, {"type": "Feature", "geometry": {"type": "Point", "coordinates": [100.51280026492918, 13.737951217687064]}, "properties": {"id": 241320, "name": "ศูนย์ศัลยกรรมความงาม โรงพยาบาลสมิติเวชไชน่าทาวน์", "district": "สัมพันธวงค์", "snapDistanceMeters": 30.86}}, {"type": "Feature", "geometry": {"type": "Point", "coordinates": [100.51280026492918, 13.737951217687064]}, "properties": {"id": 241321, "name": "คลินิกเวชศาสตร์ฟื้นฟู (กายภาพ) โรงพยาบาลสมิติเวชไชน่าทาวน์", "district": "สัมพันธวงค์", "snapDistanceMeters": 30.86}}, {"type": "Feature", "geometry": {"type": "Point", "coordinates": [100.57066961143312, 13.753220662236194]}, "properties": {"id": 241322, "name": "ศูนย์กุมารเวชกรรม โรงพยาบาลพระรามเก้า", "district": "ห้วยขวาง", "snapDistanceMeters": 33.41}}, {"type": "Feature", "geometry": {"type": "Point", "coordinates": [100.53422396102356, 13.765743840545307]}, "properties": {"id": 241034, "name": "คลินิกโรคเขตร้อน (พยาธิ) โรงพยาบาลเวชศาสตร์เขตร้อน", "district": "ราขเทวี", "snapDistanceMeters": 29.71}}, {"type": "Feature", "geometry": {"type": "Point", "coordinates": [100.53422396102356, 13.765743840545307]}, "properties": {"id": 241035, "name": "คลินิกเวชศาสตร์ท่องเที่ยวและการเดินทาง โรงพยาบาลเวชศาสตร์เขตร้อน", "district": "ราขเทวี", "snapDistanceMeters": 29.71}}, {"type": "Feature", "geometry": {"type": "Point", "coordinates": [100.53422396102356, 13.765743840545307]}, "properties": {"id": 241036, "name": "คลินิกอายุรกรรมทั่วไปและเฉพาะทาง/คลินิกพิเศษ โรงพยาบาลเวชศาสตร์เขตร้อน", "district": "ราขเทวี", "snapDistanceMeters": 29.71}}, {"type": "Feature", "geometry": {"type": "Point", "coordinates": [100.53422396102356, 13.765743840545307]}, "properties": {"id": 241037, "name": "คลินิกแพทย์ทางเลือก โรงพยาบาลเวชศาสตร์เขตร้อน", "district": "ราขเทวี", "snapDistanceMeters": 29.71}}, {"type": "Feature", "geometry": {"type": "Point", "coordinates": [100.53422396102356, 13.765743840545307]}, "properties": {"id": 241038, "name": "คลินิกกายภาพบำบัด โรงพยาบาลเวชศาสตร์เขตร้อน", "district": "ราขเทวี", "snapDistanceMeters": 29.71}}, {"type": "Feature", "geometry": {"type": "Point", "coordinates": [100.57060980706599, 13.878076281893104]}, "properties": {"id": 241039, "name": "ศูนย์หัวใจและหลอดเลือด ศูนย์การแพทย์เฉลิมพระเกียรติโรงพยาบาลจุฬาภรณ์", "district": "หลักสี่", "snapDistanceMeters": 36.2}}, {"type": "Feature", "geometry": {"type": "Point", "coordinates": [100.57060980706599, 13.878076281893104]}, "properties": {"id": 241040, "name": "ศูนย์ศัลยกรรมกระดูกและข้อ ศูนย์การแพทย์เฉลิมพระเกียรติโรงพยาบาลจุฬาภรณ์", "district": "หลักสี่", "snapDistanceMeters": 36.2}}, {"type": "Feature", "geometry": {"type": "Point", "coordinates": [100.50268600690393, 13.678197460239854]}, "properties": {"id": 241331, "name": "แผนกตา โรงพยาบาลราษฎร์บูรณะ", "district": "ราษฎร์บูรณะ", "snapDistanceMeters": 23.98}}, {"type": "Feature", "geometry": {"type": "Point", "coordinates": [100.50268600690393, 13.678197460239854]}, "properties": {"id": 241332, "name": "แผนกศัลยกรรม โรงพยาบาลราษฎร์บูรณะ", "district": "ราษฎร์บูรณะ", "snapDistanceMeters": 23.98}}, {"type": "Feature", "geometry": {"type": "Point", "coordinates": [100.50268600690393, 13.678197460239854]}, "properties": {"id": 241333, "name": "แผนกโรคหัวใจ โรงพยาบาลราษฎร์บูรณะ", "district": "ราษฎร์บูรณะ", "snapDistanceMeters": 23.98}}, {"type": "Feature", "geometry": {"type": "Point", "coordinates": [100.50268600690393, 13.678197460239854]}, "properties": {"id": 241334, "name": "แผนกทันตกรรม โรงพยาบาลราษฎร์บูรณะ", "district": "ราษฎร์บูรณะ", "snapDistanceMeters": 23.98}}, {"type": "Feature", "geometry": {"type": "Point", "coordinates": [100.50268600690393, 13.678197460239854]}, "properties": {"id": 241335, "name": "แผนกสูตินรีเวช โรงพยาบาลราษฎร์บูรณะ", "district": "ราษฎร์บูรณะ", "snapDistanceMeters": 23.98}}, {"type": "Feature", "geometry": {"type": "Point", "coordinates": [100.50268600690393, 13.678197460239854]}, "properties": {"id": 241336, "name": "แผนกหูคอจมูก โรงพยาบาลราษฎร์บูรณะ", "district": "ราษฎร์บูรณะ", "snapDistanceMeters": 23.98}}, {"type": "Feature", "geometry": {"type": "Point", "coordinates": [100.50268600690393, 13.678197460239854]},