{"type": "FeatureCollection", "features": [{"type": "Feature", "geometry": {"type": "Point", "coordinates": [100.56023559788017, 13.737125684757702]}, "properties": {"id": 1133, "name": "สถานีรถไฟฟ้าบีทีเอสอโศก", "district": "คลองเตย", "snapDistanceMeters": 15.87}}, {"type": "Feature", "geometry": {"type": "Point", "coordinates": [100.56363968013137, 13.74994866887714]}, "properties": {"id": 1082, "name": "สถานีรถไฟฟ้าเอ็มอาร์ทีเพชรบุรี ประตู 1", "district": "ห้วยขวาง", "snapDistanceMeters": 48.11}}, {"type": "Feature", "geometry": {"type": "Point", "coordinates": [100.56080921760588, 13.718346893675273]}, "properties": {"id": 1195, "name": "ตลาดท่าเรือคลองเตย", "district": "คลองเตย", "snapDistanceMeters": 61.24}}, {"type": "Feature", "geometry": {"type": "Point", "coordinates": [100.4577028508843, 13.72184952338123]}, "properties": {"id": 92930, "name": "สถานีรถไฟฟ้าบีทีเอสบางหว้า ประตู 1", "district": "ภาษีเจริญ", "snapDistanceMeters": 7.86}}, {"type": "Feature", "geometry": {"type": "Point", "coordinates": [100.46811797441077, 13.713527884828128]}, "properties": {"id": 92934, "name": "สถานีรถไฟฟ้าบีทีเอสวุฒากาศ ประตู 1", "district": "จอมทอง", "snapDistanceMeters": 17.95}}, {"type": "Feature", "geometry": {"type": "Point", "coordinates": [100.52419894519848, 13.749782542083445]}, "properties": {"id": 91286, "name": "ท่าเรือสะพานเจริญผล", "district": "ปทุมวัน", "snapDistanceMeters": 14.21}}, {"type": "Feature", "geometry": {"type": "Point", "coordinates": [100.54308888283094, 13.744085424919284]}, "properties": {"id": 90970, "name": "สถานีรถไฟฟ้าบีทีเอสชิดลม", "district": "ปทุมวัน", "snapDistanceMeters": 2.94}}, {"type": "Feature", "geometry": {"type": "Point", "coordinates": [100.54171437671081, 13.749090392672926]}, "properties": {"id": 91154, "name": "ท่าเรือประตูน้ำ", "district": "ปทุมวัน", "snapDistanceMeters": 22.08}}, {"type": "Feature", "geometry": {"type": "Point", "coordinates": [100.48934396522947, 13.749730352666424]}, "properties": {"id": 17308, "name": "ท่าเรือราชวรดิฐ", "district": "พระนคร", "snapDistanceMeters": 68.59}}, {"type": "Feature", "geometry": {"type": "Point", "coordinates": [100.46730532761987, 13.792191280116489]}, "properties": {"id": 15301, "name": "ท่าเทียบเรือโดยสารสาธารณะวัดน้อยใน", "district": "ตลิ่งชัน", "snapDistanceMeters": 47.04}}, {"type": "Feature", "geometry": {"type": "Point", "coordinates": [100.53440652675896, 13.745583157934197]}, "properties": {"id": 91087, "name": "สถานีรถไฟฟ้าบีทีเอสสยาม", "district": "ปทุมวัน", "snapDistanceMeters": 16.51}}, {"type": "Feature", "geometry": {"type": "Point", "coordinates": [100.4833733087299, 13.760740833719545]}, "properties": {"id": 30152, "name": "ท่าเรือพิพิธภัณฑสถานแห่งชาติเรือพระราชพิธี", "district": "บางกอกน้อย", "snapDistanceMeters": 113.11}}, {"type": "Feature", "geometry": {"type": "Point", "coordinates": [100.49467478159978, 13.743909716730924]}, "properties": {"id": 15466, "name": "สถานีรถไฟฟ้าเอ็มอาร์ทีสนามไชย", "district": "พระนคร", "snapDistanceMeters": 3.52}}, {"type": "Feature", "geometry": {"type": "Point", "coordinates": [100.51326222751311, 13.719248316379792]}, "properties": {"id": 133050, "name": "ท่าเรือสาทร", "district": "บางรัก", "snapDistanceMeters": 15.3}}, {"type": "Feature", "geometry": {"type": "Point", "coordinates": [100.50568627053731, 13.707014870249555]}, "properties": {"id": 37564, "name": "ท่าเรือโรงแรมแม่น้ำรามาดาพลาซา", "district": "บางคอแหลม", "snapDistanceMeters": 97.86}}, {"type": "Feature", "geometry": {"type": "Point", "coordinates": [100.49468858740016, 13.763995564642844]}, "properties": {"id": 36379, "name": "ท่าเรือพระอาทิตย์", "district": "พระนคร", "snapDistanceMeters": 88.97}}, {"type": "Feature", "geometry": {"type": "Point", "coordinates": [100.5750304860269, 13.799491056988915]}, "properties": {"id": 35878, "name": "สถานีรถไฟฟ้าเอ็มอาร์ทีรัชดาภิเษก ประตู 3", "district": "ห้วยขวาง", "snapDistanceMeters": 19.52}}, {"type": "Feature", "geometry": {"type": "Point", "coordinates": [100.59824058779468, 13.742058980332608]}, "properties": {"id": 36172, "name": "ท่าเรือสะพานคลองตัน", "district": "ห้วยขวาง", "snapDistanceMeters": 10.32}}, {"type": "Feature", "geometry": {"type": "Point", "coordinates": [100.50069540444015, 13.772517856937883]}, "properties": {"id": 131198, "name": "ท่าเรือวัดเทวราชกุญชรวรวิหาร", "district": "ดุสิต", "snapDistanceMeters": 22.21}}, {"type": "Feature", "geometry": {"type": "Point", "coordinates": [100.51679894663583, 13.755309627349675]}, "properties": {"id": 131226, "name": "ท่าเรือแยกหลานหลวง", "district": "ป้อมปราบศัตรูพ่าย", "snapDistanceMeters": 22.02}}, {"type": "Feature", "geometry": {"type": "Point", "coordinates": [100.60314561279604, 13.713227421309101]}, "properties": {"id": 54755, "name": "ท่าเรือวัดใต้", "district": "สวนหลวง", "snapDistanceMeters": 37.92}}, {"type": "Feature", "geometry": {"type": "Point", "coordinates": [100.54463734978127, 13.779711067362221]}, "properties": {"id": 78061, "name": "สถานีรถไฟฟ้าบีทีเอสอารีย์", "district": "พญาไท", "snapDistanceMeters": 4.31}}, {"type": "Feature", "geometry": {"type": "Point", "coordinates": [100.48908979027458, 13.756480569787515]}, "properties": {"id": 78148, "name": "ท่าเรือข้ามฟากท่าพระจันทร์", "district": "พระนคร", "snapDistanceMeters": 44.97}}, {"type": "Feature", "geometry": {"type": "Point", "coordinates": [100.56532076924229, 13.757688539902757]}, "properties": {"id": 56663, "name": "สถานีรถไฟฟ้าเอ็มอาร์ทีพระรามเก้า ประตู 1", "district": "ดินแดง", "snapDistanceMeters": 23.3}}, {"type": "Feature", "geometry": {"type": "Point", "coordinates": [100.48929029038183, 13.74422122960934]}, "properties": {"id": 55876, "name": "ท่าเรือวัดอรุณ", "district": "บางกอกใหญ่", "snapDistanceMeters": 61.01}}, {"type": "Feature", "geometry": {"type": "Point", "coordinates": [100.59723562575144, 13.711205645772257]}, "properties": {"id": 54805, "name": "ท่าเรือพระโขนง", "district": "วัฒนา", "snapDistanceMeters": 10.3}}, {"type": "Feature", "geometry": {"type": "Point", "coordinates": [100.48545382343391, 13.727569532990552]}, "properties": {"id": 55442, "name": "ท่าเรือเนาวจำเนียร", "district": "บางกอกใหญ่", "snapDistanceMeters": 25.04}}, {"type": "Feature", "geometry": {"type": "Point", "coordinates": [100.54941292197051, 13.694748228997664]}, "properties": {"id": 54868, "name": "ท่าเรือสาธารณะช่องนนทรี", "district": "ยานนาวา", "snapDistanceMeters": 56.92}}, {"type": "Feature", "geometry": {"type": "Point", "coordinates": [100.56518521744047, 13.708868053894944]}, "properties": {"id": 55052, "name": "สหภาพแรงงานรัฐวิสาหกิจการท่าเรือแห่งประเทศไทย", "district": "คลองเตย", "snapDistanceMeters": 33.31}}, {"type": "Feature", "geometry": {"type": "Point", "coordinates": [100.54949550318376, 13.680288731994763]}, "properties": {"id": 54784, "name": "ท่าเรือวัดคลองภูมิ", "district": "ยานนาวา", "snapDistanceMeters": 101.61}}, {"type": "Feature", "geometry": {"type": "Point", "coordinates": [100.57356958300382, 13.779175072986048]}, "properties": {"id": 32150, "name": "สถานีรถไฟฟ้าเอ็มอาร์ทีห้วยขวาง ประตู 4", "district": "ดินแดง", "snapDistanceMeters": 13.24}}, {"type": "Feature", "geometry": {"type": "Point", "coordinates": [100.49137721968799, 13.761403606095325]}, "properties": {"id": 32523, "name": "ท่าเรือท่าช้างวังหน้า", "district": "พระนคร", "snapDistanceMeters": 34.77}}, {"type": "Feature", "geometry": {"type": "Point", "coordinates": [100.54782097854091, 13.79766316100428]}, "properties": {"id": 128301, "name": "สถานีรถไฟฟ้าเอ็มอาร์ทีกำแพงเพชร ประตู 3", "district": "จตุจักร", "snapDistanceMeters": 32.11}}, {"type": "Feature", "geometry": {"type": "Point", "coordinates": [100.58572469980855, 13.743201269163583]}, "properties": {"id": 128808, "name": "ท่าเรือซอยทองหล่อ", "district": "ห้วยขวาง", "snapDistanceMeters": 18.04}}, {"type": "Feature", "geometry": {"type": "Point", "coordinates": [100.5207672102281, 13.676818680031854]}, "properties": {"id": 129180, "name": "ท่าเรือวัดแจงร้อน", "district": "ราษฎร์บูรณะ", "snapDistanceMeters": 67.56}}, {"type": "Feature", "geometry": {"type": "Point", "coordinates": [100.55288955239419, 13.802250049679415]}, "properties": {"id": 128176, "name": "สถานีรถไฟฟ้าเอ็มอาร์ทีสวนจตุจักร ประตู 1", "district": "จตุจักร", "snapDistanceMeters": 21.21}}, {"type": "Feature", "geometry": {"type": "Point", "coordinates": [100.51146828154765, 13.722216566191644]}, "properties": {"id": 30749, "name": "ท่าเรือแกรนด์เพิร์ล", "district": "คลองสาน", "snapDistanceMeters": 17.12}}, {"type": "Feature", "geometry": {"type": "Point", "coordinates": [100.51072483273236, 13.72025240478577]}, "properties": {"id": 30751, "name": "ท่าเรือข้ามฟากตากสิน", "district": "คลองสาน", "snapDistanceMeters": 53.83}}, {"type": "Feature", "geometry": {"type": "Point", "coordinates": [100.57402008534439, 13.788672346126512]}, "properties": {"id": 31219, "name": "สถานีรถไฟฟ้าเอ็มอาร์ทีสุทธิสาร ประตู 4", "district": "ดินแดง", "snapDistanceMeters": 17.69}}, {"type": "Feature", "geometry": {"type": "Point", "coordinates": [100.4324610031892, 13.70964338187597]}, "properties": {"id": 31815, "name": "ท่าเรือเพชรเกษม 35", "district": "ภาษีเจริญ", "snapDistanceMeters": 7.69}}, {"type": "Feature", "geometry": {"type": "Point", "coordinates": [100.51889154830435, 13.806541960990488]}, "properties": {"id": 32114, "name": "ท่าเรือบางโพ", "district": "บางซื่อ", "snapDistanceMeters": 19.1}}, {"type": "Feature", "geometry": {"type": "Point", "coordinates": [100.64342292453426, 13.764669455298748]}, "properties": {"id": 31263, "name": "ท่าเรือเดอะมอลล์บางกะปิ", "district": "บางกะปิ", "snapDistanceMeters": 5.97}}, {"type": "Feature", "geometry": {"type": "Point", "coordinates": [100.58795646142694, 13.676766471573389]}, "properties": {"id": 23807, "name": "ท่าเรือสรรพวุธ-บางนา", "district": "บางนา", "snapDistanceMeters": 30.6}}, {"type": "Feature", "geometry": {"type": "Point", "coordinates": [100.51870632632553, 13.808909537896591]}, "properties": {"id": 23085, "name": "ท่าเรือวัดบางโพ", "district": "บางซื่อ", "snapDistanceMeters": 7.88}}, {"type": "Feature", "geometry": {"type": "Point", "coordinates": [100.50972279031815, 13.788622779617938]}, "properties": {"id": 23266, "name": "ท่าเรือกรมชลประทาน", "district": "ดุสิต", "snapDistanceMeters": 32.0}}, {"type": "Feature", "geometry": {"type": "Point", "coordinates": [100.52939038084641, 13.723670869189025]}, "properties": {"id": 23276, "name": "สถานีรถไฟฟ้าบีทีเอสช่องนนทรี", "district": "บางรัก", "snapDistanceMeters": 24.9}}, {"type": "Feature", "geometry": {"type": "Point", "coordinates": [100.47294848962117, 13.767469582941699]}, "properties": {"id": 61009, "name": "ท่าเรือวัดศรีสุดาราม", "district": "บางกอกน้อย", "snapDistanceMeters": 51.03}}, {"type": "Feature", "geometry": {"type": "Point", "coordinates": [100.49687644364157, 13.772039513082907]}, "properties": {"id": 98818, "name": "ท่าเรือวัดคฤหบดี", "district": "บางพลัด", "snapDistanceMeters": 37.34}}, {"type": "Feature", "geometry": {"type": "Point", "coordinates": [100.49034856696342, 13.762724948840107]}, "properties": {"id": 23899, "name": "ท่าเรือสะพานสมเด็จพระปิ่นเกล้า", "district": "บางกอกน้อย", "snapDistanceMeters": 46.83}}, {"type": "Feature", "geometry": {"type": "Point", "coordinates": [100.5658012146862, 13.747286854615512]}, "properties": {"id": 24653, "name": "ท่าเรือมศว. ประสานมิตร", "district": "วัฒนา", "snapDistanceMeters": 5.64}}, {"type": "Feature", "geometry": {"type": "Point", "coordinates": [100.45418112356086, 13.716967481218422]}, "properties": {"id": 59563, "name": "ท่าเรือวัดอ่างแก้ว", "district": "ภาษีเจริญ", "snapDistanceMeters": 40.92}}, {"type": "Feature", "geometry": {"type": "Point", "coordinates": [100.50420775658529, 13.706211815931741]}, "properties": {"id": 99467, "name": "ท่าเรือวัดราชสิงขร", "district": "บางคอแหลม", "snapDistanceMeters": 55.77}}, {"type": "Feature", "geometry": {"type": "Point", "coordinates": [100.51585962842643, 13.753512819497251]}, "properties": {"id": 64819, "name": "ท่าเรือโบ๊เบ๊", "district": "ป้อมปราบศัตรูพ่าย", "snapDistanceMeters": 11.29}}, {"type": "Feature", "geometry": {"type": "Point", "coordinates": [100.51619921768288, 13.738729392081382]}, "properties": {"id": 65027, "name": "สถานีรถไฟฟ้าเอ็มอาร์ทีหัวลำโพง ประตู 2", "district": "ปทุมวัน", "snapDistanceMeters": 15.59}}, {"type": "Feature", "geometry": {"type": "Point", "coordinates": [100.5813984893325, 13.744006597199261]}, "properties": {"id": 48722, "name": "ท่าเรือสุเหร่าบ้านดอน", "district": "วัฒนา", "snapDistanceMeters": 17.3}}, {"type": "Feature", "geometry": {"type": "Point", "coordinates": [100.62144434885393, 13.711689452217685]}, "properties": {"id": 46234, "name": "ท่าเรือวัดทองใน", "district": "สวนหลวง", "snapDistanceMeters": 3.15}}, {"type": "Feature", "geometry": {"type": "Point", "coordinates": [100.5606299264694, 13.750961160474697]}, "properties": {"id": 46738, "name": "สถานีรถไฟฟ้าเออาร์แอลมักกะสัน", "district": "ราขเทวี", "snapDistanceMeters": 41.48}}, {"type": "Feature", "geometry": {"type": "Point", "coordinates": [100.55922428893346, 13.72194283451589]}, "properties": {"id": 64023, "name": "สถานีรถไฟฟ้าเอ็มอาร์ทีศูนย์การประชุมแห่งชาติสิริกิติ์ ประตู 2", "district": "คลองเตย", "snapDistanceMeters": 23.57}}, {"type": "Feature", "geometry": {"type": "Point", "coordinates": [100.55410459814078, 13.722241782476948]}, "properties": {"id": 514, "name": "สถานีรถไฟฟ้าเอ็มอาร์ทีคลองเตย ประตู 2", "district": "คลองเตย", "snapDistanceMeters": 29.85}}, {"type": "Feature", "geometry": {"type": "Point", "coordinates": [100.49946691674499, 13.685161866428873]}, "properties": {"id": 64647, "name": "ท่าเรือราษฎร์บูรณะ (บิ๊กซี)", "district": "ราษฎร์บูรณะ", "snapDistanceMeters": 75.64}}, {"type": "Feature", "geometry": {"type": "Point", "coordinates": [100.64747786844516, 13.765055653345657]}, "properties": {"id": 63712, "name": "ท่าเรือบางกะปิ", "district": "บางกะปิ", "snapDistanceMeters": 9.54}}, {"type": "Feature", "geometry": {"type": "Point", "coordinates": [100.63344770734166, 13.763497180679238]}, "properties": {"id": 64372, "name": "ท่าเรือวัดกลาง", "district": "บางกะปิ", "snapDistanceMeters": 9.55}}, {"type": "Feature", "geometry": {"type": "Point", "coordinates": [100.56045507805321, 13.717477116391496]}, "properties": {"id": 74587, "name": "ชุมชนตลาดท่าเรือคลองเตย", "district": "คลองเตย", "snapDistanceMeters": 51.45}}, {"type": "Feature", "geometry": {"type": "Point", "coordinates": [100.55370199114694, 13.718159539156852]}, "properties": {"id": 69084, "name": "ลานกีฬาชุมชนริมทางรถไฟสายท่าเรือ", "district": "คลองเตย", "snapDistanceMeters": 3.07}}, {"type": "Feature", "geometry": {"type": "Point", "coordinates": [100.57379988297077, 13.712522845499223]}, "properties": {"id": 68480, "name": "มัสยิดนูรุ้ลฮิดาย่าติ้ลอิสลาม (ท่าเรือคลองเตย)", "district": "คลองเตย", "snapDistanceMeters": 6.02}}, {"type": "Feature", "geometry": {"type": "Point", "coordinates": [100.57127490395935, 13.76715038806838]}, "properties": {"id": 74597, "name": "สถานีรถไฟฟ้าเอ็มอาร์ทีศูนย์วัฒนธรรมแห่งประเทศไทย ประตู 1", "district": "ห้วยขวาง", "snapDistanceMeters": 16.87}}, {"type": "Feature", "geometry": {"type": "Point", "coordinates": [100.48908754348454, 13.693273996572646]}, "properties": {"id": 74017, "name": "ท่าเรือวี. คอนออสเตรเลีย", "district": "ราษฎร์บูรณะ", "snapDistanceMeters": 24.28}}, {"type": "Feature", "geometry": {"type": "Point", "coordinates": [100.5628869670777, 13.711467748506868]}, "properties": {"id": 73492, "name": "ด่านท่าเรือ 1", "district": "คลองเตย", "snapDistanceMeters": 1.2}}, {"type": "Feature", "geometry": {"type": "Point", "coordinates": [100.5337329576103, 13.67242877543553]}, "properties": {"id": 73544, "name": "ท่าเรือตลาดบางกอกสแควร์", "district": "ยานนาวา", "snapDistanceMeters": 63.99}}, {"type": "Feature", "geometry": {"type": "Point", "coordinates": [100.48872959403649, 13.755254326939179]}, "properties": {"id": 113600, "name": "ท่าเรือวัดมหาธาตุ", "district": "พระนคร", "snapDistanceMeters": 12.93}}, {"type": "Feature", "geometry": {"type": "Point", "coordinates": [100.64497403945735, 13.766206093841086]}, "properties": {"id": 39312, "name": "เภสัชท่าเรือ", "district": "บางกะปิ", "snapDistanceMeters": 28.18}}, {"type": "Feature", "geometry": {"type": "Point", "coordinates": [100.4865004157365, 13.719352793692313]}, "properties": {"id": 135692, "name": "สถานีรถไฟฟ้าบีทีเอสโพธิ์นิมิตร", "district": "ธนบุรี", "snapDistanceMeters": 12.15}}, {"type": "Feature", "geometry": {"type": "Point", "coordinates": [100.54908383107336, 13.743033208613234]}, "properties": {"id": 89828, "name": "สถานีรถไฟฟ้าบีทีเอสเพลินจิต", "district": "ปทุมวัน", "snapDistanceMeters": 10.23}}, {"type": "Feature", "geometry": {"type": "Point", "coordinates": [100.49205087962669, 13.761072479292483]}, "properties": {"id": 89336, "name": "ท่าเรือข้ามฟากพระปิ่นเกล้าฝั่งพระนคร", "district": "พระนคร", "snapDistanceMeters": 43.63}}, {"type": "Feature", "geometry": {"type": "Point", "coordinates": [100.51100697833206, 13.73054580307134]}, "properties": {"id": 4609, "name": "ท่าเรือปลายถนนลาดหญ้า", "district": "คลองสาน", "snapDistanceMeters": 8.61}}, {"type": "Feature", "geometry": {"type": "Point", "coordinates": [100.55009430643713, 13.690929095115646]}, "properties": {"id": 3942, "name": "ท่าเรือวัดบางกระเจ้านอก", "district": "ยานนาวา", "snapDistanceMeters": 7.14}}, {"type": "Feature", "geometry": {"type": "Point", "coordinates": [100.54470132243726, 13.748647547599594]}, "properties": {"id": 89754, "name": "ท่าเรือชิดลม", "district": "ปทุมวัน", "snapDistanceMeters": 16.79}}, {"type": "Feature", "geometry": {"type": "Point", "coordinates": [100.54474510362432, 13.726284389711669]}, "properties": {"id": 89975, "name": "สถานีรถไฟฟ้าเอ็มอาร์ทีลุมพินี ประตู 3", "district": "ปทุมวัน", "snapDistanceMeters": 38.45}}, {"type": "Feature", "geometry": {"type": "Point", "coordinates": [100.50698651047655, 13.712772284909374]}, "properties": {"id": 659, "name": "ท่าเรือวัดเศวตฉัตร", "district": "คลองสาน", "snapDistanceMeters": 26.56}}, {"type": "Feature", "geometry": {"type": "Point", "coordinates": [100.43855137343368, 13.711799388015972]}, "properties": {"id": 58463, "name": "ท่าเรือวัดรางบัว", "district": "ภาษีเจริญ", "snapDistanceMeters": 21.8}}, {"type": "Feature", "geometry": {"type": "Point", "coordinates": [100.47730460088539, 13.714487273330564]}, "properties": {"id": 41621, "name": "สถานีรถไฟฟ้าบีทีเอสตลาดพลู ประตู 2", "district": "ธนบุรี", "snapDistanceMeters": 6.3}}, {"type": "Feature", "geometry": {"type": "Point", "coordinates": [100.51642641556899, 13.74500104722754]}, "properties": {"id": 41305, "name": "ท่าเรือนพวงศ์", "district": "ปทุมวัน", "snapDistanceMeters": 12.75}}, {"type": "Feature", "geometry": {"type": "Point", "coordinates": [100.49468858740016, 13.763995564642844]}, "properties": {"id": 2588, "name": "ท่าเรือบางลำภู", "district": "พระนคร", "snapDistanceMeters": 36.94}}, {"type": "Feature", "geometry": {"type": "Point", "coordinates": [100.51149900065255, 13.724865098504644]}, "properties": {"id": 703, "name": "ท่าเรือมัสยิดสุวรรณภูมิ", "district": "คลองสาน", "snapDistanceMeters": 38.64}}, {"type": "Feature", "geometry": {"type": "Point", "coordinates": [100.61184817307723, 13.758008590239495]}, "properties": {"id": 2799, "name": "ท่าเรือรามคำแหง 29", "district": "บางกะปิ", "snapDistanceMeters": 8.85}}, {"type": "Feature", "geometry": {"type": "Point", "coordinates": [100.52779533041388, 13.677574279860881]}, "properties": {"id": 57640, "name": "ท่าเรือสาธุประดิษฐ์", "district": "ยานนาวา", "snapDistanceMeters": 59.92}}, {"type": "Feature", "geometry": {"type": "Point", "coordinates": [100.51167427700967, 13.724107750625809]}, "properties": {"id": 57328, "name": "ท่าเรือวัดสุวรรณ", "district": "คลองสาน", "snapDistanceMeters": 18.8}}, {"type": "Feature", "geometry": {"type": "Point", "coordinates": [100.5295760922674, 13.732200943917007]}, "properties": {"id": 57048, "name": "สถานีรถไฟฟ้าเอ็มอาร์ทีสามย่าน ประตู 1", "district": "บางรัก", "snapDistanceMeters": 23.28}}, {"type": "Feature", "geometry": {"type": "Point", "coordinates": [100.51590074835977, 13.740934322130133]}, "properties": {"id": 41232, "name": "ท่าเรือหัวลำโพง", "district": "ปทุมวัน", "snapDistanceMeters": 4.05}}, {"type": "Feature", "geometry": {"type": "Point", "coordinates": [100.69064702428616, 13.733242168118453]}, "properties": {"id": 41546, "name": "สถานีรถไฟฟ้าเออาร์แอลบ้านทับช้าง", "district": "ประเวศ", "snapDistanceMeters": 44.85}}, {"type": "Feature", "geometry": {"type": "Point", "coordinates": [100.46358301653385, 13.720358230627676]}, "properties": {"id": 58044, "name": "ท่าเรือประชารัฐ", "district": "ภาษีเจริญ", "snapDistanceMeters": 3.35}}, {"type": "Feature", "geometry": {"type": "Point", "coordinates": [100.47104077470789, 13.723502283786212]}, "properties": {"id": 58127, "name": "ท่าเรือภาษีเจริญ", "district": "ภาษีเจริญ", "snapDistanceMeters": 88.5}}, {"type": "Feature", "geometry": {"type": "Point", "coordinates": [100.4292247832395, 13.70849087138564]}, "properties": {"id": 58998, "name": "ท่าเรือเพชรเกษม 39", "district": "ภาษีเจริญ", "snapDistanceMeters": 9.86}}, {"type": "Feature", "geometry": {"type": "Point", "coordinates": [100.4821433587573, 13.693806264266811]}, "properties": {"id": 59219, "name": "ท่าเรือดาวคะนอง", "district": "ราษฎร์บูรณะ", "snapDistanceMeters": 12.05}}, {"type": "Feature", "geometry": {"type": "Point", "coordinates": [100.53019752659561, 13.731594485459246]}, "properties": {"id": 76753, "name": "ลานจอดรถสถานีรถไฟฟ้าสามย่าน", "district": "บางรัก", "snapDistanceMeters": 28.87}}, {"type": "Feature", "geometry": {"type": "Point", "coordinates": [100.72127591944057, 13.806312065561364]}, "properties": {"id": 76507, "name": "ท่าเรือรามคำแหง 199", "district": "มีนบุรี", "snapDistanceMeters": 11.1}}, {"type": "Feature", "geometry": {"type": "Point", "coordinates": [100.51013840983236, 13.763196554305226]}, "properties": {"id": 77311, "name": "ท่าเรือราชดำเนินนอก", "district": "ป้อมปราบศัตรูพ่าย", "snapDistanceMeters": 37.84}}, {"type": "Feature", "geometry": {"type": "Point", "coordinates": [100.49286860789759, 13.742973236751695]}, "properties": {"id": 77131, "name": "ท่าเรือราชินีเหนือ", "district": "พระนคร", "snapDistanceMeters": 23.0}}, {"type": "Feature", "geometry": {"type": "Point", "coordinates": [100.51385007812188, 13.723355499048902]}, "properties": {"id": 75398, "name": "ท่าเรือโอเรียนเต็ล", "district": "บางรัก", "snapDistanceMeters": 31.61}}, {"type": "Feature", "geometry": {"type": "Point", "coordinates": [100.51547663607714, 13.80117818663261]}, "properties": {"id": 5678, "name": "ท่าเรือวัดฉัตรแก้วจงกลณี", "district": "บางพลัด", "snapDistanceMeters": 34.24}}, {"type": "Feature", "geometry": {"type": "Point", "coordinates": [100.59893420924962, 13.743249483644249]}, "properties": {"id": 137851, "name": "ท่าเรือรามหนึ่ง", "district": "สวนหลวง", "snapDistanceMeters": 17.26}}, {"type": "Feature", "geometry": {"type": "Point", "coordinates": [100.5309071357956, 13.806073215229567]}, "properties": {"id": 137775, "name": "สถานีรถไฟฟ้าเอ็มอาร์ทีเตาปูน", "district": "บางซื่อ", "snapDistanceMeters": 14.15}}, {"type": "Feature", "geometry": {"type": "Point", "coordinates": [100.53242722029822, 13.81957219620304]}, "properties": {"id": 137776, "name": "สถานีรถไฟฟ้าเอ็มอาร์ทีบางซ่อน", "district": "บางซื่อ", "snapDistanceMeters": 13.28}}, {"type": "Feature", "geometry": {"type": "Point", "coordinates": [100.52730591277145, 13.829251200486503]}, "properties": {"id": 137777, "name": "สถานีรถไฟฟ้าเอ็มอาร์ทีวงศ์สว่าง", "district": "บางซื่อ", "snapDistanceMeters": 38.26}}, {"type": "Feature", "geometry": {"type": "Point", "coordinates": [100.53389662990116, 13.757024491434665]}, "properties": {"id": 45374, "name": "สถานีรถไฟฟ้าบีทีเอสพญาไท", "district": "ราขเทวี", "snapDistanceMeters": 9.73}}, {"type": "Feature", "geometry": {"type": "Point", "coordinates": [100.53946118280861, 13.73948113977899]}, "properties": {"id": 45956, "name": "สถานีรถไฟฟ้าบีทีเอสราชดำริ", "district": "ปทุมวัน", "snapDistanceMeters": 3.41}}, {"type": "Feature", "geometry": {"type": "Point", "coordinates": [100.50805690374985, 13.734933234417385]}, "properties": {"id": 1289, "name": "ท่าเรือวัดทองธรรมชาติ", "district": "คลองสาน", "snapDistanceMeters": 38.52}}, {"type": "Feature", "geometry": {"type": "Point", "coordinates": [100.56635176305268, 13.715190902681643]}, "properties": {"id": 45487, "name": "สำนักงานแพทย์และอนามัยการท่าเรือแห่งประเทศไทย (สหคลินิก)", "district": "คลองเตย", "snapDistanceMeters": 19.71}}, {"type": "Feature", "geometry": {"type": "Point", "coordinates": [100.50206514449445, 13.774858115767895]}, "properties": {"id": 45967, "name": "ท่าเรือวาสุกรี", "district": "ดุสิต", "snapDistanceMeters": 38.37}}, {"type": "Feature", "geometry": {"type": "Point", "coordinates": [100.5037865281577, 13.736629429055636]}, "properties": {"id": 1330, "name": "ท่าเรือท่าดินแดง", "district": "คลองสาน", "snapDistanceMeters": 25.23}}, {"type": "Feature", "geometry": {"type": "Point", "coordinates": [100.5660278136208, 13.714949231275408]}, "properties": {"id": 1512, "name": "ชมรมผู้สูงอายุการท่าเรือแห่งประเทศไทย", "district": "คลองเตย", "snapDistanceMeters": 18.05}}, {"type": "Feature", "geometry": {"type": "Point", "coordinates": [100.55437638819814, 13.71855918185499]}, "properties": {"id": 45247, "name": "ชุมชนริมทางรถไฟ-สายท่าเรือคลองเตย", "district": "คลองเตย", "snapDistanceMeters": 11.7}}, {"type": "Feature", "geometry": {"type": "Point", "coordinates": [100.48754259510966, 13.73632803532642]}, "properties": {"id": 44823, "name": "ท่าเรือเจริญพาศน์", "district": "บางกอกใหญ่", "snapDistanceMeters": 9.74}}, {"type": "Feature", "geometry": {"type": "Point", "coordinates": [100.51679717487173, 13.794148687485368]}, "properties": {"id": 45057, "name": "ท่าเรือมาตุลี", "district": "ดุสิต", "snapDistanceMeters": 251.95}}, {"type": "Feature", "geometry": {"type": "Point", "coordinates": [100.51378519256508, 13.727289681439627]}, "properties": {"id": 51504, "name": "ท่าเรือเจริญกรุง 32", "district": "บางรัก", "snapDistanceMeters": 18.58}}, {"type": "Feature", "geometry": {"type": "Point", "coordinates": [100.5654284441242, 13.714572572869992]}, "properties": {"id": 1514, "name": "จุดควบคุมสัญญาณไฟจราจรสถานีตำรวจนครบาลท่าเรือ", "district": "คลองเตย", "snapDistanceMeters": 21.71}}, {"type": "Feature", "geometry": {"type": "Point", "coordinates": [100.562782887365, 13.71383149934483]}, "properties": {"id": 45734, "name": "อาคารจอดรถการท่าเรือแห่งประเทศไทย", "district": "คลองเตย", "snapDistanceMeters": 29.55}}, {"type": "Feature", "geometry": {"type": "Point", "coordinates": [100.64282557369359, 13.715708233835773]}, "properties": {"id": 35229, "name": "ท่าเรือตลาดเอี่ยมสมบัติ", "district": "สวนหลวง", "snapDistanceMeters": 9.05}}, {"type": "Feature", "geometry": {"type": "Point", "coordinates": [100.64107436269278, 13.715322754808804]}, "properties": {"id": 34813, "name": "ท่าเรือวัดขจรศิริ", "district": "สวนหลวง", "snapDistanceMeters": 9.46}}, {"type": "Feature", "geometry": {"type": "Point", "coordinates": [100.58089889670738, 13.709571092195361]}, "properties": {"id": 34379, "name": "ด่านตรวจพืชท่าเรือกรุงเทพ", "district": "คลองเตย", "snapDistanceMeters": 18.33}}, {"type": "Feature", "geometry": {"type": "Point", "coordinates": [100.4823721402699, 13.723587086473167]}, "properties": {"id": 49244, "name": "ท่าเรือวัดอินทาราม", "district": "บางกอกใหญ่", "snapDistanceMeters": 24.74}}, {"type": "Feature", "geometry": {"type": "Point", "coordinates": [100.51384436456902, 13.730454285052021]}, "properties": {"id": 35115, "name": "ท่าเรือริเวอร์ซิตี้ 1", "district": "สัมพันธวงค์", "snapDistanceMeters": 114.29}}, {"type": "Feature", "geometry": {"type": "Point", "coordinates": [100.51144488356819, 13.729103149958103]}, "properties": {"id": 1047, "name": "ท่าเรือข้ามฟากคลองสาน", "district": "คลองสาน", "snapDistanceMeters": 16.35}}, {"type": "Feature", "geometry": {"type": "Point", "coordinates": [100.5541487104363, 13.74823957650006]}, "properties": {"id": 35184, "name": "ท่าเรือนานาเหนือ", "district": "วัฒนา", "snapDistanceMeters": 17.02}}, {"type": "Feature", "geometry": {"type": "Point", "coordinates": [100.42727137914595, 13.707271750763823]}, "properties": {"id": 34728, "name": "ท่าเรือวัดนิมมานรดี", "district": "ภาษีเจริญ", "snapDistanceMeters": 50.72}}, {"type": "Feature", "geometry": {"type": "Point", "coordinates": [100.56231147542408, 13.812489780933142]}, "properties": {"id": 34259, "name": "สถานีรถไฟฟ้าเอ็มอาร์ทีพหลโยธิน ประตู 5", "district": "จตุจักร", "snapDistanceMeters": 12.81}}, {"type": "Feature", "geometry": {"type": "Point", "coordinates": [100.48895332157757, 13.744888378463889]}, "properties": {"id": 32952, "name": "ท่าเรือโพธิ์อรุณ", "district": "บางกอกใหญ่", "snapDistanceMeters": 8.93}}, {"type": "Feature", "geometry": {"type": "Point", "coordinates": [100.49346537738288, 13.698719985312987]}, "properties": {"id": 34012, "name": "ท่าเรือหะริน", "district": "บางคอแหลม", "snapDistanceMeters": 132.84}}, {"type": "Feature", "geometry": {"type": "Point", "coordinates": [100.61832921336608, 13.761514360590008]}, "properties": {"id": 33860, "name": "ท่าเรือม.รามคำแหง", "district": "บางกะปิ", "snapDistanceMeters": 3.02}}, {"type": "Feature", "geometry": {"type": "Point", "coordinates": [100.56287854668177, 13.748020364597204]}, "properties": {"id": 33730, "name": "ท่าเรืออโศก", "district": "ราขเทวี", "snapDistanceMeters": 18.29}}, {"type": "Feature", "geometry": {"type": "Point", "coordinates": [100.49266090525875, 13.693250249308544]}, "properties": {"id": 35318, "name": "ท่าเรือถนนตก", "district": "บางคอแหลม", "snapDistanceMeters": 100.89}}, {"type": "Feature", "geometry": {"type": "Point", "coordinates": [100.62845131483607, 13.715241333331985]}, "properties": {"id": 35457, "name": "ท่าเรือมัสยิดอัลกุ๊บรอ", "district": "สวนหลวง", "snapDistanceMeters": 6.11}}, {"type": "Feature", "geometry": {"type": "Point", "coordinates": [100.4977976050865, 13.767458379138732]}, "properties": {"id": 35328, "name": "ท่าเรือพระราม 8", "district": "พระนคร", "snapDistanceMeters": 28.61}}, {"type": "Feature", "geometry": {"type": "Point", "coordinates": [100.46360904110075, 13.730567330326911]}, "properties": {"id": 26803, "name": "ท่าเรือวัดกำแพงบางจาก", "district": "ภาษีเจริญ", "snapDistanceMeters": 37.82}}, {"type": "Feature", "geometry": {"type": "Point", "coordinates": [100.45803823741173, 13.689618740693684]}, "properties": {"id": 26989, "name": "ท่าเรือวัดไทร", "district": "จอมทอง", "snapDistanceMeters": 15.2}}, {"type": "Feature", "geometry": {"type": "Point", "coordinates": [100.53816956467203, 13.7288956409062]}, "properties": {"id": 25452, "name": "สถานีรถไฟฟ้าเอ็มอาร์ทีสีลม ประตู 1", "district": "ปทุมวัน", "snapDistanceMeters": 60.6}}, {"type": "Feature", "geometry": {"type": "Point", "coordinates": [100.57031509238983, 13.714056411135001]}, "properties": {"id": 170334, "name": "ชุมชนคลองเตยแฟลต 1-10 การท่าเรือแห่งประเทศไทย", "district": "คลองเตย", "snapDistanceMeters": 38.51}}, {"type": "Feature", "geometry": {"type": "Point", "coordinates": [100.56975535014426, 13.730431021626185]}, "properties": {"id": 169981, "name": "สถานีรถไฟฟ้าบีทีเอสพร้อมพงษ์", "district": "คลองเตย", "snapDistanceMeters": 8.41}}, {"type": "Feature", "geometry": {"type": "Point", "coordinates": [100.57896912590972, 13.723938189947532]}, "properties": {"id": 169983, "name": "สถานีรถไฟฟ้าบีทีเอสทองหล่อ", "district": "คลองเตย", "snapDistanceMeters": 59.13}}, {"type": "Feature", "geometry": {"type": "Point", "coordinates": [100.5607207116066, 13.71642024839353]}, "properties": {"id": 165113, "name": "สิงห์ท่าเรือเอฟซี", "district": "คลองเตย", "snapDistanceMeters": 18.21}}, {"type": "Feature", "geometry": {"type": "Point", "coordinates": [100.540059743787, 13.803428281994501]}, "properties": {"id": 163450, "name": "ที่จอดรถสถานีรถไฟฟ้าไต้ดินบางซื่อ", "district": "จตุจักร", "snapDistanceMeters": 79.51}}, {"type": "Feature", "geometry": {"type": "Point", "coordinates": [100.57924649505863, 13.702489215791278]}, "properties": {"id": 164174, "name": "ด่านตรวจคนเข้าเมืองท่าเรือกรุงเทพ", "district": "คลองเตย", "snapDistanceMeters": 35.28}}, {"type": "Feature", "geometry": {"type": "Point", "coordinates": [100.48869195920568, 13.754418431986888]}, "properties": {"id": 101726, "name": "ท่าเรือมหาราช", "district": "พระนคร", "snapDistanceMeters": 38.27}}, {"type": "Feature", "geometry": {"type": "Point", "coordinates": [100.49064390127238, 13.702141623666465]}, "properties": {"id": 100182, "name": "ท่าเรือสะพานกรุงเทพ", "district": "ธนบุรี", "snapDistanceMeters": 8.04}}, {"type": "Feature", "geometry": {"type": "Point", "coordinates": [100.57412534645445, 13.805554790672593]}, "properties": {"id": 101124, "name": "สถานีรถไฟฟ้าเอ็มอาร์ทีลาดพร้าว ประตู 1", "district": "จตุจักร", "snapDistanceMeters": 19.26}}, {"type": "Feature", "geometry": {"type": "Point", "coordinates": [100.50463004563365, 13.768585870721976]}, "properties": {"id": 100546, "name": "ท่าเรือเทเวศร์", "district": "พระนคร", "snapDistanceMeters": 12.38}}, {"type": "Feature", "geometry": {"type": "Point", "coordinates": [100.48611169231111, 13.732820765094067]}, "properties": {"id": 100902, "name": "ท่าเรือวัดสังข์กระจาย", "district": "บางกอกใหญ่", "snapDistanceMeters": 6.4}}, {"type": "Feature", "geometry": {"type": "Point", "coordinates": [100.49105850515394, 13.744980611647618]}, "properties": {"id": 102647, "name": "ท่าเรือสุพรรณ", "district": "พระนคร", "snapDistanceMeters": 15.73}}, {"type": "Feature", "geometry": {"type": "Point", "coordinates": [100.54974583925902, 13.793881236727566]}, "properties": {"id": 101996, "name": "สถานีรถไฟฟ้าบีทีเอสสะพานควาย", "district": "พญาไท", "snapDistanceMeters": 2.76}}, {"type": "Feature", "geometry": {"type": "Point", "coordinates": [100.56670580467379, 13.709713535922559]}, "properties": {"id": 187659, "name": "แผนกช่างโทรศัพท์ ท่าเรือกรุงเทพ (ท่าเรือคลองเตย)", "district": "คลองเตย", "snapDistanceMeters": 15.81}}, {"type": "Feature", "geometry": {"type": "Point", "coordinates": [100.5066313581889, 13.755533082997538]}, "properties": {"id": 101341, "name": "ท่าเรือผ่านฟ้าลีลาศ", "district": "ป้อมปราบศัตรูพ่าย", "snapDistanceMeters": 15.21}}, {"type": "Feature", "geometry": {"type": "Point", "coordinates": [100.48876037714145, 13.752226345311678]}, "properties": {"id": 101315, "name": "ท่าเรือท่าช้าง", "district": "พระนคร", "snapDistanceMeters": 59.88}}, {"type": "Feature", "geometry": {"type": "Point", "coordinates": [100.4768347923449, 13.722481521383571]}, "properties": {"id": 100421, "name": "ท่าเรือรัชดาภิเษก", "district": "บางกอกใหญ่", "snapDistanceMeters": 24.6}}, {"type": "Feature", "geometry": {"type": "Point", "coordinates": [100.48884284453155, 13.750158630567443]}, "properties": {"id": 101319, "name": "ท่าเรือนิเวศน์วรดิฐ", "district": "พระนคร", "snapDistanceMeters": 18.77}}, {"type": "Feature", "geometry": {"type": "Point", "coordinates": [100.50641328662944, 13.708419203876382]}, "properties": {"id": 100135, "name": "ท่าเรือวัดวรจรรยาวาส", "district": "บางคอแหลม", "snapDistanceMeters": 116.05}}, {"type": "Feature", "geometry": {"type": "Point", "coordinates": [100.49356131066516, 13.76210770569585]}, "properties": {"id": 101394, "name": "ท่าเรือด่วนพระอาทิตย์", "district": "พระนคร", "snapDistanceMeters": 78.83}}, {"type": "Feature", "geometry": {"type": "Point", "coordinates": [100.59191286111427, 13.702800818464915]}, "properties": {"id": 100801, "name": "ด่านอาจณรงค์ 2 (ท่าเรือ)", "district": "คลองเตย", "snapDistanceMeters": 7.9}}, {"type": "Feature", "geometry": {"type": "Point", "coordinates": [100.49422426327455, 13.741862118698254]}, "properties": {"id": 100811, "name": "ท่าเรือราชินี", "district": "พระนคร", "snapDistanceMeters": 42.82}}, {"type": "Feature", "geometry": {"type": "Point", "coordinates": [100.54205335629953, 13.772527690954735]}, "properties": {"id": 102260, "name": "สถานีรถไฟฟ้าบีทีเอสสนามเป้า", "district": "พญาไท", "snapDistanceMeters": 14.09}}, {"type": "Feature", "geometry": {"type": "Point", "coordinates": [100.55844633969319, 13.715416553453109]}, "properties": {"id": 165047, "name": "ที่พักสายตรวจสถานีตำรวจนครบาลท่าเรือ", "district": "คลองเตย", "snapDistanceMeters": 14.01}}, {"type": "Feature", "geometry": {"type": "Point", "coordinates": [100.68147671199492, 13.784681532358347]}, "properties": {"id": 164614, "name": "ท่าเรือหมู่บ้านร่มไทร", "district": "สะพานสูง", "snapDistanceMeters": 1.47}}, {"type": "Feature", "geometry": {"type": "Point", "coordinates": [100.55325350868596, 13.719717875975208]}, "properties": {"id": 164996, "name": "ศูนย์บรรเทาสาธารณภัยฐานชุมชนริมทางรถไฟสายท่าเรือ", "district": "คลองเตย", "snapDistanceMeters": 21.28}}, {"type": "Feature", "geometry": {"type": "Point", "coordinates": [100.4890631935763, 13.738829316837766]}, "properties": {"id": 53098, "name": "ท่าเรือวัดหงส์รัตนาราม", "district": "บางกอกใหญ่", "snapDistanceMeters": 30.22}}, {"type": "Feature", "geometry": {"type": "Point", "coordinates": [100.48992389112303, 13.739842929338971]}, "properties": {"id": 52919, "name": "ท่าเรือวัดกัลยาณมิตร", "district": "ธนบุรี", "snapDistanceMeters": 15.25}}, {"type": "Feature", "geometry": {"type": "Point", "coordinates": [100.62367396727674, 13.762131487154901]}, "properties": {"id": 53850, "name": "ท่าเรือสะพานมิตรมหาดไทย", "district": "บางกะปิ", "snapDistanceMeters": 4.71}}, {"type": "Feature", "geometry": {"type": "Point", "coordinates": [100.52945403913766, 13.74644715104537]}, "properties": {"id": 53860, "name": "สถานีรถไฟฟ้าบีทีเอสสนามกีฬาแห่งชาติ", "district": "ปทุมวัน", "snapDistanceMeters": 42.94}}, {"type": "Feature", "geometry": {"type": "Point", "coordinates": [100.58497392128562, 13.719514975822372]}, "properties": {"id": 53516, "name": "สถานีรถไฟฟ้าบีทีเอสเอกมัย", "district": "คลองเตย", "snapDistanceMeters": 18.87}}, {"type": "Feature", "geometry": {"type": "Point", "coordinates": [100.56167528836613, 13.738498365797906]}, "properties": {"id": 53522, "name": "สถานีรถไฟฟ้าเอ็มอาร์ทีสุขุมวิท ประตู 1", "district": "วัฒนา", "snapDistanceMeters": 23.22}}, {"type": "Feature", "geometry": {"type": "Point", "coordinates": [100.56014335505431, 13.716659066718995]}, "properties": {"id": 53776, "name": "สนามฟุตบอลการท่าเรือแห่งประเทศไทย", "district": "คลองเตย", "snapDistanceMeters": 17.41}}, {"type": "Feature", "geometry": {"type": "Point", "coordinates": [100.50243656622877, 13.720688716802638]}, "properties": {"id": 168898, "name": "สถานีรถไฟฟ้าบีทีเอสกรุงธนบุรี", "district": "คลองสาน", "snapDistanceMeters": 29.1}}, {"type": "Feature", "geometry": {"type": "Point", "coordinates": [100.53686654924866, 13.762358612673937]}, "properties": {"id": 170541, "name": "สถานีรถไฟฟ้าบีทีเอสอนุสาวรีย์ชัยสมรภูมิ", "district": "ราขเทวี", "snapDistanceMeters": 46.48}}, {"type": "Feature", "geometry": {"type": "Point", "coordinates": [100.78157793382657, 13.824230222202]}, "properties": {"id": 187148, "name": "ตลาดน้ำบ้านเกาะท่าเรือ", "district": "มีนบุรี", "snapDistanceMeters": 9.62}}, {"type": "Feature", "geometry": {"type": "Point", "coordinates": [100.53859089486207, 13.670381666976683]}, "properties": {"id": 205700, "name": "ท่าเรือพระราม 3", "district": "ยานนาวา", "snapDistanceMeters": 18.92}}, {"type": "Feature", "geometry": {"type": "Point", "coordinates": [100.48575412426311, 13.74711728993527]}, "properties": {"id": 168666, "name": "ท่าเรือคลองมอญ", "district": "บางกอกใหญ่", "snapDistanceMeters": 19.21}}, {"type": "Feature", "geometry": {"type": "Point", "coordinates": [100.56378910017042, 13.713691573981533]}, "properties": {"id": 254791, "name": "สำนักท่าเรือภูมิภาค การท่าเรือแห่งประเทศไทย", "district": "คลองเตย", "snapDistanceMeters": 30.81}}, {"type": "Feature", "geometry": {"type": "Point", "coordinates": [100.56378910017042, 13.713691573981533]}, "properties": {"id": 254792, "name": "สำนักบริหารความเสี่ยงและควบคุมภายใน การท่าเรือแห่งประเทศไทย", "district": "คลองเตย", "snapDistanceMeters": 30.81}}, {"type": "Feature", "geometry": {"type": "Point", "coordinates": [100.56378910017042, 13.713691573981533]}, "properties": {"id": 254793, "name": "ฝ่ายตรวจสอบ การท่าเรือแห่งประเทศไทย", "district": "คลองเตย", "snapDistanceMeters": 30.81}}, {"type": "Feature", "geometry": {"type": "Point", "coordinates": [100.56378910017042, 13.713691573981533]}, "properties": {"id": 254514, "name": "สำนักเลขานุการคณะกรรมการ การท่าเรือแห่งประเทศไทย", "district": "คลองเตย", "snapDistanceMeters": 30.81}}, {"type": "Feature", "geometry": {"type": "Point", "coordinates": [100.55917210823067, 13.748311587902956]}, "properties": {"id": 71494, "name": "ท่าเรือนานาชาติ", "district": "วัฒนา", "snapDistanceMeters": 8.38}}, {"type": "Feature", "geometry": {"type": "Point", "coordinates": [100.49504392849357, 13.741281719720568]}, "properties": {"id": 210549, "name": "ท่าเรือยอดพิมาน", "district": "พระนคร", "snapDistanceMeters": 47.16}}, {"type": "Feature", "geometry": {"type": "Point", "coordinates": [100.63336059686063, 13.71498795320418]}, "properties": {"id": 210550, "name": "ท่าเรือชุมชนคลองจวน", "district": "สวนหลวง", "snapDistanceMeters": 1.9}}, {"type": "Feature", "geometry": {"type": "Point", "coordinates": [100.6267743146262, 13.713416113445861]}, "properties": {"id": 210551, "name": "ท่าเรือวัดต้นไทรย์", "district": "สวนหลวง", "snapDistanceMeters": 2.54}}, {"type": "Feature", "geometry": {"type": "Point", "coordinates": [100.61584275543245, 13.710514547602349]}, "properties": {"id": 210552, "name": "ท่าเรือชุมชนคลองเจ็ดขนัด", "district": "สวนหลวง", "snapDistanceMeters": 2.34}}, {"type": "Feature", "geometry": {"type": "Point", "coordinates": [100.61593946976046, 13.712216552274075]}, "properties": {"id": 210553, "name": "ท่าเรือคอนโดมิเนียม", "district": "สวนหลวง", "snapDistanceMeters": 2.95}}, {"type": "Feature", "geometry": {"type": "Point", "coordinates": [100.61067458260675, 13.715541875575845]}, "properties": {"id": 210554, "name": "ท่าเรือสวนหลวง", "district": "สวนหลวง", "snapDistanceMeters": 6.87}}, {"type": "Feature", "geometry": {"type": "Point", "coordinates": [100.57355551059423, 13.745955098543998]}, "properties": {"id": 72427, "name": "ท่าเรืออิตัลไทย", "district": "วัฒนา", "snapDistanceMeters": 1.29}}, {"type": "Feature", "geometry": {"type": "Point", "coordinates": [100.57977603689578, 13.702235304091916]}, "properties": {"id": 71309, "name": "ตึกบัญชาการการท่าเรือแห่งประเทศไทย", "district": "คลองเตย", "snapDistanceMeters": 36.55}}, {"type": "Feature", "geometry": {"type": "Point", "coordinates": [100.51321528494897, 13.731379743656296]}, "properties": {"id": 71293, "name": "ท่าเรือริเวอร์ซิตี้ 2", "district": "สัมพันธวงค์", "snapDistanceMeters": 109.48}}, {"type": "Feature", "geometry": {"type": "Point", "coordinates": [100.63372385694868, 13.694576525174902]}, "properties": {"id": 70938, "name": "ชุมชนหมู่บ้านการท่าเรือ", "district": "พระโขนง", "snapDistanceMeters": 17.96}}, {"type": "Feature", "geometry": {"type": "Point", "coordinates": [100.4862948911036, 13.759336407287119]}, "properties": {"id": 252946, "name": "วินท่าเรือรถไฟธนบุรี", "district": "บางกอกน้อย", "snapDistanceMeters": 13.87}}, {"type": "Feature", "geometry": {"type": "Point", "coordinates": [100.47335249542068, 13.7196134758936]}, "properties": {"id": 252209, "name": "ก๋วยเตี๋ยวเรือท่าเรือ", "district": "ธนบุรี", "snapDistanceMeters": 15.87}}, {"type": "Feature", "geometry": {"type": "Point", "coordinates": [100.60057984378162, 13.706544501989603]}, "properties": {"id": 8833, "name": "สถานีรถไฟฟ้าบีทีเอสอ่อนนุช", "district": "คลองเตย", "snapDistanceMeters": 80.8}}, {"type": "Feature", "geometry": {"type": "Point", "coordinates": [100.50327407057536, 13.785645898698489]}, "properties": {"id": 139510, "name": "ท่าเรือวัดเทพากร", "district": "บางพลัด", "snapDistanceMeters": 21.46}}, {"type": "Feature", "geometry": {"type": "Point", "coordinates": [100.59407123241344, 13.74149597841016]}, "properties": {"id": 139511, "name": "ท่าเรือโรงเรียนวิจิตรวิทยา", "district": "วัฒนา", "snapDistanceMeters": 4.5}}, {"type": "Feature", "geometry": {"type": "Point", "coordinates": [100.51396997707577, 13.722240276177631]}, "properties": {"id": 8662, "name": "ท่าเรือสวนพลู", "district": "บางรัก", "snapDistanceMeters": 41.76}}, {"type": "Feature", "geometry": {"type": "Point", "coordinates": [100.53886609280366, 13.802861823249593]}, "properties": {"id": 10044, "name": "สถานีรถไฟฟ้าเอ็มอาร์ทีบางซื่อ ประตู 1", "district": "บางซื่อ", "snapDistanceMeters": 18.48}}, {"type": "Feature", "geometry": {"type": "Point", "coordinates": [100.50082557050773, 13.781870762558308]}, "properties": {"id": 9486, "name": "ท่าเรือสะพานกรุงธน (ซังฮี้)", "district": "บางพลัด", "snapDistanceMeters": 38.45}}, {"type": "Feature", "geometry": {"type": "Point", "coordinates": [100.50506272798035, 13.73850193147501]}, "properties": {"id": 9244, "name": "ท่าเรือราชวงศ์", "district": "สัมพันธวงค์", "snapDistanceMeters": 34.65}}, {"type": "Feature", "geometry": {"type": "Point", "coordinates": [100.51748206745921, 13.798644562073449]}, "properties": {"id": 7904, "name": "ท่าเรือเกียกกาย", "district": "ดุสิต", "snapDistanceMeters": 44.05}}, {"type": "Feature", "geometry": {"type": "Point", "coordinates": [100.51424229492554, 13.718984198888242]}, "properties": {"id": 8728, "name": "สถานีรถไฟฟ้าบีทีเอสสะพานตากสิน", "district": "สาทร", "snapDistanceMeters": 19.25}}, {"type": "Feature", "geometry": {"type": "Point", "coordinates": [100.50226720858696, 13.783980994119363]}, "properties": {"id": 9842, "name": "ท่าเรือวัดเทพนารี", "district": "บางพลัด", "snapDistanceMeters": 9.15}}, {"type": "Feature", "geometry": {"type": "Point", "coordinates": [100.49748157669177, 13.774464435301939]}, "properties": {"id": 9612, "name": "ท่าเรือวัดบวรมงคล", "district": "บางพลัด", "snapDistanceMeters": 69.83}}, {"type": "Feature", "geometry": {"type": "Point", "coordinates": [100.45892603696976, 13.718741003990901]}, "properties": {"id": 205559, "name": "ท่าเรือบางหว้า", "district": "ภาษีเจริญ", "snapDistanceMeters": 19.09}}, {"type": "Feature", "geometry": {"type": "Point", "coordinates": [100.4211427162881, 13.705695775720303]}, "properties": {"id": 205560, "name": "ท่าเรือเกษตรบางแค", "district": "บางแค", "snapDistanceMeters": 9.68}}, {"type": "Feature", "geometry": {"type": "Point", "coordinates": [100.39259072856723, 13.695368536921732]}, "properties": {"id": 205561, "name": "ท่าเรือวัดม่วง", "district": "บางแค", "snapDistanceMeters": 7.09}}, {"type": "Feature", "geometry": {"type": "Point", "coordinates": [100.38126891173538, 13.691768399143305]}, "properties": {"id": 205556, "name": "ท่าเรือเพชรเกษม 69", "district": "บางแค", "snapDistanceMeters": 18.42}}, {"type": "Feature", "geometry": {"type": "Point", "coordinates": [100.49511428431455, 13.763544536149894]}, "properties": {"id": 236818, "name": "วินท่าเรือบางลำภูถนนพระอาทิตย์", "district": "พระนคร", "snapDistanceMeters": 84.43}}, {"type": "Feature", "geometry": {"type": "Point", "coordinates": [100.5170714043532, 13.749054493743]}, "properties": {"id": 121124, "name": "ท่าเรือกระทรวงพลังงาน", "district": "ปทุมวัน", "snapDistanceMeters": 11.15}}, {"type": "Feature", "geometry": {"type": "Point", "coordinates": [100.54143295995212, 13.74981452559621]}, "properties": {"id": 302201, "name": "วินท่าเรือประตูน้ำ", "district": "ราขเทวี", "snapDistanceMeters": 13.38}}, {"type": "Feature", "geometry": {"type": "Point", "coordinates": [100.55427304644611, 13.749078422550683]}, "properties": {"id": 301880, "name": "วินท่าเรือนานา", "district": "ราขเทวี", "snapDistanceMeters": 48.3}}, {"type": "Feature", "geometry": {"type": "Point", "coordinates": [100.55309959471202, 13.721645332470617]}, "properties": {"id": 120712, "name": "บ้านหนังสือกรุงเทพมหานครชุมชนริมทางรถไฟสายท่าเรือ", "district": "คลองเตย", "snapDistanceMeters": 12.81}}, {"type": "Feature", "geometry": {"type": "Point", "coordinates": [100.49105850515394, 13.744980611647618]}, "properties": {"id": 120789, "name": "ท่าเรือแดง", "district": "พระนคร", "snapDistanceMeters": 54.53}}, {"type": "Feature", "geometry": {"type": "Point", "coordinates": [100.54841730992698, 13.74837813509969]}, "properties": {"id": 120960, "name": "ท่าเรือสะพานวิทยุ", "district": "ปทุมวัน", "snapDistanceMeters": 17.63}}, {"type": "Feature", "geometry": {"type": "Point", "coordinates": [100.85704380701233, 13.844301037886298]}, "properties": {"id": 326492, "name": "ก๋วยเตี๋ยวท่าเรือเนื้อตุ๋น", "district": "หนองจอก", "snapDistanceMeters": 21.3}}, {"type": "Feature", "geometry": {"type": "Point", "coordinates": [100.50691571478687, 13.789532257520817]}, "properties": {"id": 9622, "name": "ท่าเรือวัดอาวุธวิกสิตาราม", "district": "บางพลัด", "snapDistanceMeters": 19.13}}, {"type": "Feature", "geometry": {"type": "Point", "coordinates": [100.48655093167486, 13.756170606409272]}, "properties": {"id": 236775, "name": "ร้านนมห้อยท่าเรือวังหลังศิริราช", "district": "บางกอกน้อย", "snapDistanceMeters": 25.06}}, {"type": "Feature", "geometry": {"type": "Point", "coordinates": [100.56438346185028, 13.70747907150584]}, "properties": {"id": 1545, "name": "สำนักงานศุลกากรส่งออกท่าเรือกรุงเทพ", "district": "คลองเตย", "snapDistanceMeters": 37.58}}, {"type": "Feature", "geometry": {"type": "Point", "coordinates": [100.56017174949726, 13.722922071112631]}, "properties": {"id": 174953, "name": "ที่จอดรถเฉพาะผู้ใช้บริการจอดรถรายเดือน สถานีรถไฟฟ้าเอ็มอาร์ทีศูนย์การประชุมฯ", "district": "คลองเตย", "snapDistanceMeters": 12.36}}, {"type": "Feature", "geometry": {"type": "Point", "coordinates": [100.57922153523947, 13.710927184683314]}, "properties": {"id": 174631, "name": "สถานีตรวจสอบสินค้า 3 ท่าเรือกรุงเทพอาจณรงค์", "district": "คลองเตย", "snapDistanceMeters": 23.75}}, {"type": "Feature", "geometry": {"type": "Point", "coordinates": [100.46291144108427, 13.732889207196948]}, "properties": {"id": 174025, "name": "ท่าเรือวัดคูหาสวรรควรวิหาร", "district": "ภาษีเจริญ", "snapDistanceMeters": 47.33}}, {"type": "Feature", "geometry": {"type": "Point", "coordinates": [100.56205015243926, 13.816630077809108]}, "properties": {"id": 343349, "name": "สถานีรถไฟฟ้าบีทีเอสห้าแยกลาดพร้าว", "district": "จตุจักร", "snapDistanceMeters": 7.23}}, {"type": "Feature", "geometry": {"type": "Point", "coordinates": [100.38466661675277, 13.660453571542874]}, "properties": {"id": 335277, "name": "ครัวท่าเรือ", "district": "บางบอน", "snapDistanceMeters": 22.6}}, {"type": "Feature", "geometry": {"type": "Point", "coordinates": [100.73128933474904, 13.812302491787033]}, "properties": {"id": 116395, "name": "ท่าเรือเขตมีนบุรี", "district": "มีนบุรี", "snapDistanceMeters": 15.23}}, {"type": "Feature", "geometry": {"type": "Point", "coordinates": [100.5104816086532, 13.71911158715943]}, "properties": {"id": 122860, "name": "ท่าเรือเจ้าพระยาปริ้นเซส 2", "district": "คลองสาน", "snapDistanceMeters": 61.51}}, {"type": "Feature", "geometry": {"type": "Point", "coordinates": [100.51098099091462, 13.719588863387436]}, "properties": {"id": 122861, "name": "ท่าเรือเจ้าพระยาปริ้นเซส", "district": "คลองสาน", "snapDistanceMeters": 5.45}}, {"type": "Feature", "geometry": {"type": "Point", "coordinates": [100.50990871015178, 13.717170232501841]}, "properties": {"id": 122862, "name": "ท่าเรือนิติบุคคลอาคารชุดเดอะฟายน์แอทริเวอร์", "district": "คลองสาน", "snapDistanceMeters": 26.18}}, {"type": "Feature", "geometry": {"type": "Point", "coordinates": [100.51314099627196, 13.719067408829064]}, "properties": {"id": 121559, "name": "ท่าเรือสาทร (ตากสิน)", "district": "สาทร", "snapDistanceMeters": 60.95}}, {"type": "Feature", "geometry": {"type": "Point", "coordinates": [100.4817743526422, 13.723310621805252]}, "properties": {"id": 325959, "name": "ก๋วยจั๊บท่าเรือวัดอินทาราม", "district": "ธนบุรี", "snapDistanceMeters": 13.82}}, {"type": "Feature", "geometry": {"type": "Point", "coordinates": [100.5097998752299, 13.729111843011214]}, "properties": {"id": 369464, "name": "ข้าวมันไก่ตอนท่าเรือคลองสาน (เจ้าเก่า)", "district": "คลองสาน", "snapDistanceMeters": 74.03}}, {"type": "Feature", "geometry": {"type": "Point", "coordinates": [100.56300276171046, 13.748523183320268]}, "properties": {"id": 313347, "name": "วินท่าเรืออโศก", "district": "ห้วยขวาง", "snapDistanceMeters": 43.98}}, {"type": "Feature", "geometry": {"type": "Point", "coordinates": [100.47345647349154, 13.763476782055758]}, "properties": {"id": 317259, "name": "สถานีรถไฟฟ้าเอ็มอาร์ทีบางขุนนนท์", "district": "บางกอกน้อย", "snapDistanceMeters": 12.45}}, {"type": "Feature", "geometry": {"type": "Point", "coordinates": [100.46934325645911, 13.755725098705813]}, "properties": {"id": 317260, "name": "สถานีรถไฟฟ้าเอ็มอาร์ทีไฟฉาย", "district": "บางกอกน้อย", "snapDistanceMeters": 1.6}}, {"type": "Feature", "geometry": {"type": "Point", "coordinates": [100.47074516812825, 13.740034634745344]}, "properties": {"id": 317261, "name": "สถานีรถไฟฟ้าเอ็มอาร์ทีจรัญฯ 13", "district": "บางกอกใหญ่", "snapDistanceMeters": 5.93}}, {"type": "Feature", "geometry": {"type": "Point", "coordinates": [100.52085460053519, 13.806407120294516]}, "properties": {"id": 317254, "name": "สถานีรถไฟฟ้าเอ็มอาร์ทีบางโพ", "district": "บางซื่อ", "snapDistanceMeters": 20.2}}, {"type": "Feature", "geometry": {"type": "Point", "coordinates": [100.50980797396147, 13.798989777462305]}, "properties": {"id": 317255, "name": "สถานีรถไฟฟ้าเอ็มอาร์ทีบางอ้อ", "district": "บางพลัด", "snapDistanceMeters": 4.98}}, {"type": "Feature", "geometry": {"type": "Point", "coordinates": [100.50499013223985, 13.792530713998502]}, "properties": {"id": 317256, "name": "สถานีรถไฟฟ้าเอ็มอาร์ทีบางพลัด", "district": "บางพลัด", "snapDistanceMeters": 8.41}}, {"type": "Feature", "geometry": {"type": "Point", "coordinates": [100.49335239123373, 13.783860716046428]}, "properties": {"id": 317257, "name": "สถานีรถไฟฟ้าเอ็มอาร์ทีสิรินธร", "district": "บางพลัด", "snapDistanceMeters": 23.43}}, {"type": "Feature", "geometry": {"type": "Point", "coordinates": [100.48542815148741, 13.777589530801201]}, "properties": {"id": 317258, "name": "สถานีรถไฟฟ้าเอ็มอาร์ทีบางยี่ขัน", "district": "บางพลัด", "snapDistanceMeters": 13.69}}, {"type": "Feature", "geometry": {"type": "Point", "coordinates": [100.53050404211253, 13.806676527344457]}, "properties": {"id": 354144, "name": "สถานีรถไฟฟ้าเอ็มอาร์ทีเตาปูน ลิฟต์ประตู 2", "district": "บางซื่อ", "snapDistanceMeters": 21.16}}, {"type": "Feature", "geometry": {"type": "Point", "coordinates": [100.53066803111956, 13.805926732695795]}, "properties": {"id": 354145, "name": "สถานีรถไฟฟ้าเอ็มอาร์ทีเตาปูน ลิฟต์ประตู 1", "district": "บางซื่อ", "snapDistanceMeters": 16.23}}, {"type": "Feature", "geometry": {"type": "Point", "coordinates": [100.48526857193716, 13.738223410285164]}, "properties": {"id": 354420, "name": "สถานีรถไฟฟ้าเอ็มอาร์ทีอิสรภาพ ประตู 2", "district": "บางกอกใหญ่", "snapDistanceMeters": 20.14}}, {"type": "Feature", "geometry": {"type": "Point", "coordinates": [100.48512077939597, 13.73845342442678]}, "properties": {"id": 354421, "name": "สถานีรถไฟฟ้าเอ็มอาร์ทีอิสรภาพ ลิฟต์ประตู 1", "district": "บางกอกใหญ่", "snapDistanceMeters": 14.62}}, {"type": "Feature", "geometry": {"type": "Point", "coordinates": [100.48525275208009, 13.738248031422431]}, "properties": {"id": 354422, "name": "สถานีรถไฟฟ้าเอ็มอาร์ทีอิสรภาพ ลิฟต์ประตู 2", "district": "บางกอกใหญ่", "snapDistanceMeters": 16.1}}, {"type": "Feature", "geometry": {"type": "Point", "coordinates": [100.51041455791729, 13.741910316226411]}, "properties": {"id": 357589, "name": "สถานีรถไฟฟ้าเอ็มอาร์ทีวัดมังกร ประตู 1", "district": "สัมพันธวงค์", "snapDistanceMeters": 16.25}}, {"type": "Feature", "geometry": {"type": "Point", "coordinates": [100.576857127776, 13.841852649287176]}, "properties": {"id": 357592, "name": "สถานีรถไฟฟ้าบีทีเอสมหาวิทยาลัยเกษตรศาสตร์ ประตู 1", "district": "จตุจักร", "snapDistanceMeters": 22.03}}, {"type": "Feature", "geometry": {"type": "Point", "coordinates": [100.46499369495581, 13.724671458960941]}, "properties": {"id": 357303, "name": "สถานีรถไฟฟ้าเอ็มอาร์ทีบางไผ่ ลิฟต์ประตู 3", "district": "ภาษีเจริญ", "snapDistanceMeters": 39.15}}, {"type": "Feature", "geometry": {"type": "Point", "coordinates": [100.45624523366193, 13.720065358923085]}, "properties": {"id": 357304, "name": "สถานีรถไฟฟ้าเอ็มอาร์ทีบางหว้า ประตู 1", "district": "ภาษีเจริญ", "snapDistanceMeters": 48.5}}, {"type": "Feature", "geometry": {"type": "Point", "coordinates": [100.45628149757627, 13.719993388856318]}, "properties": {"id": 357306, "name": "สถานีรถไฟฟ้าเอ็มอาร์ทีบางหว้า ลิฟต์ประตู 1", "district": "ภาษีเจริญ", "snapDistanceMeters": 19.89}}, {"type": "Feature", "geometry": {"type": "Point", "coordinates": [100.5698173740759, 13.829875579492322]}, "properties": {"id": 357875, "name": "สถานีรถไฟฟ้าบีทีเอสรัชโยธิน ลิฟต์ประตู 3", "district": "จตุจักร", "snapDistanceMeters": 21.6}}, {"type": "Feature", "geometry": {"type": "Point", "coordinates": [100.57008754329564, 13.830335513536848]}, "properties": {"id": 357876, "name": "สถานีรถไฟฟ้าบีทีเอสรัชโยธิน ประตู 3", "district": "จตุจักร", "snapDistanceMeters": 16.34}}, {"type": "Feature", "geometry": {"type": "Point", "coordinates": [100.57008754329564, 13.830335513536848]}, "properties": {"id": 357877, "name": "สถานีรถไฟฟ้าบีทีเอสรัชโยธิน ลิฟต์ประตู 4", "district": "จตุจักร", "snapDistanceMeters": 15.08}}, {"type": "Feature", "geometry": {"type": "Point", "coordinates": [100.56205015243926, 13.816630077809108]}, "properties": {"id": 357023, "name": "สถานีรถไฟฟ้าบีทีเอสห้าแยกลาดพร้าว ลิฟต์ประตู 3", "district": "จตุจักร", "snapDistanceMeters": 46.03}}, {"type": "Feature", "geometry": {"type": "Point", "coordinates": [100.56216933069734, 13.81656729456668]}, "properties": {"id": 357024, "name": "สถานีรถไฟฟ้าบีทีเอสห้าแยกลาดพร้าว ลิฟต์ประตู 2", "district": "จตุจักร", "snapDistanceMeters": 9.48}}, {"type": "Feature", "geometry": {"type": "Point", "coordinates": [100.5736659365375, 13.836437889104968]}, "properties": {"id": 357025, "name": "สถานีรถไฟฟ้าบีทีเอสเสนานิคม ประตู 1", "district": "จตุจักร", "snapDistanceMeters": 18.59}}, {"type": "Feature", "geometry": {"type": "Point", "coordinates": [100.5737975864054, 13.836662610429597]}, "properties": {"id": 357027, "name": "สถานีรถไฟฟ้าบีทีเอสเสนานิคม ลิฟต์ประตู 4", "district": "จตุจักร", "snapDistanceMeters": 23.14}}, {"type": "Feature", "geometry": {"type": "Point", "coordinates": [100.42203743636996, 13.711986651912126]}, "properties": {"id": 357029, "name": "สถานีรถไฟฟ้าเอ็มอาร์ทีบางแค ประตู 1", "district": "บางแค", "snapDistanceMeters": 24.48}}, {"type": "Feature", "geometry": {"type": "Point", "coordinates": [100.42203009926723, 13.711884593186195]}, "properties": {"id": 357296, "name": "สถานีรถไฟฟ้าเอ็มอาร์ทีบางแค ลิฟต์ประตู 4", "district": "บางแค", "snapDistanceMeters": 15.22}}, {"type": "Feature", "geometry": {"type": "Point", "coordinates": [100.42203743636996, 13.711986651912126]}, "properties": {"id": 357297, "name": "สถานีรถไฟฟ้าเอ็มอาร์ทีบางแค ลิฟต์ประตู 1", "district": "บางแค", "snapDistanceMeters": 11.42}}, {"type": "Feature", "geometry": {"type": "Point", "coordinates": [100.46538277703748, 13.724599089528512]}, "properties": {"id": 357298, "name": "สถานีรถไฟฟ้าเอ็มอาร์ทีบางไผ่ ประตู 1", "district": "ภาษีเจริญ", "snapDistanceMeters": 28.77}}, {"type": "Feature", "geometry": {"type": "Point", "coordinates": [100.55575067882829, 13.740315849687578]}, "properties": {"id": 194052, "name": "สถานีรถไฟฟ้าบีทีเอสนานา ประตู 4", "district": "คลองเตย", "snapDistanceMeters": 17.71}}, {"type": "Feature", "geometry": {"type": "Point", "coordinates": [100.49467478159978, 13.743909716730924]}, "properties": {"id": 356734, "name": "สถานีรถไฟฟ้าเอ็มอาร์ทีสนามไชย ลิฟต์ประตู 3", "district": "พระนคร", "snapDistanceMeters": 15.07}}, {"type": "Feature", "geometry": {"type": "Point", "coordinates": [100.49458001452228, 13.744530891856373]}, "properties": {"id": 356735, "name": "สถานีรถไฟฟ้าเอ็มอาร์ทีสนามไชย ลิฟต์ประตู 1", "district": "พระนคร", "snapDistanceMeters": 14.61}}, {"type": "Feature", "geometry": {"type": "Point", "coordinates": [100.50303846164769, 13.746958797019742]}, "properties": {"id": 356736, "name": "สถานีรถไฟฟ้าเอ็มอาร์ทีสามยอด ประตู 1", "district": "พระนคร", "snapDistanceMeters": 17.63}}, {"type": "Feature", "geometry": {"type": "Point", "coordinates": [100.40943275313762, 13.711034861384368]}, "properties": {"id": 357017, "name": "สถานีรถไฟฟ้าเอ็มอาร์ทีหลักสอง ประตู 1", "district": "บางแค", "snapDistanceMeters": 9.8}}, {"type": "Feature", "geometry": {"type": "Point", "coordinates": [100.40948494113186, 13.710868418355272]}, "properties": {"id": 357021, "name": "สถานีรถไฟฟ้าเอ็มอาร์ทีหลักสอง ลิฟต์ประตู 1", "district": "บางแค", "snapDistanceMeters": 38.99}}, {"type": "Feature", "geometry": {"type": "Point", "coordinates": [100.4095203257696, 13.710701294615793]}, "properties": {"id": 357022, "name": "สถานีรถไฟฟ้าเอ็มอาร์ทีหลักสอง ลิฟต์ประตู 2", "district": "บางแค", "snapDistanceMeters": 33.39}}, {"type": "Feature", "geometry": {"type": "Point", "coordinates": [100.46538277703748, 13.724599089528512]}, "properties": {"id": 357302, "name": "สถานีรถไฟฟ้าเอ็มอาร์ทีบางไผ่ ลิฟต์ประตู 1", "district": "ภาษีเจริญ", "snapDistanceMeters": 8.0}}, {"type": "Feature", "geometry": {"type": "Point", "coordinates": [100.58169085889267, 13.850092880035536]}, "properties": {"id": 357624, "name": "สถานีรถไฟฟ้าบีทีเอสกรมป่าไม้", "district": "จตุจักร", "snapDistanceMeters": 17.32}}, {"type": "Feature", "geometry": {"type": "Point", "coordinates": [100.58554239730569, 13.856088221056831]}, "properties": {"id": 357625, "name": "สถานีรถไฟฟ้าบีทีเอสบางบัว", "district": "จตุจักร", "snapDistanceMeters": 35.11}}, {"type": "Feature", "geometry": {"type": "Point", "coordinates": [100.5917863428744, 13.867242419463764]}, "properties": {"id": 357626, "name": "สถานีรถไฟฟ้าบีทีเอสกรมทหารราบที่ 11", "district": "บางเขน", "snapDistanceMeters": 45.82}}, {"type": "Feature", "geometry": {"type": "Point", "coordinates": [100.59669140612884, 13.87554575524954]}, "properties": {"id": 357627, "name": "สถานีรถไฟฟ้าบีทีเอสวัดพระศรีมหาธาตุ", "district": "บางเขน", "snapDistanceMeters": 28.46}}, {"type": "Feature", "geometry": {"type": "Point", "coordinates": [100.52001407521047, 13.806402845726858]}, "properties": {"id": 356164, "name": "สถานีรถไฟฟ้าเอ็มอาร์ทีบางโพ ลิฟต์ประตู 1 เอ", "district": "บางซื่อ", "snapDistanceMeters": 11.42}}, {"type": "Feature", "geometry": {"type": "Point", "coordinates": [100.52085460053519, 13.806407120294516]}, "properties": {"id": 356165, "name": "สถานีรถไฟฟ้าเอ็มอาร์ทีบางโพ ลิฟต์ประตู 1 บี", "district": "บางซื่อ", "snapDistanceMeters": 27.57}}, {"type": "Feature", "geometry": {"type": "Point", "coordinates": [100.53094657901585, 13.806367026489749]}, "properties": {"id": 356166, "name": "สถานีรถไฟฟ้าเอ็มอาร์ทีเตาปูน ลิฟต์ประตู 3", "district": "บางซื่อ", "snapDistanceMeters": 22.23}}, {"type": "Feature", "geometry": {"type": "Point", "coordinates": [100.44527716919994, 13.715467445467697]}, "properties": {"id": 356449, "name": "สถานีรถไฟฟ้าเอ็มอาร์ทีเพชรเกษม 48 ประตู 1", "district": "ภาษีเจริญ", "snapDistanceMeters": 14.82}}, {"type": "Feature", "geometry": {"type": "Point", "coordinates": [100.44566192013492, 13.715594791681994]}, "properties": {"id": 356722, "name": "สถานีรถไฟฟ้าเอ็มอาร์ทีเพชรเกษม 48 ลิฟต์ประตู 3", "district": "ภาษีเจริญ", "snapDistanceMeters": 20.86}}, {"type": "Feature", "geometry": {"type": "Point", "coordinates": [100.56603821748156, 13.823425777550803]}, "properties": {"id": 356723, "name": "สถานีรถไฟฟ้าบีทีเอสพหลโยธิน 24 ประตู 1", "district": "จตุจักร", "snapDistanceMeters": 27.41}}, {"type": "Feature", "geometry": {"type": "Point", "coordinates": [100.5665063491524, 13.824223851399664]}, "properties": {"id": 356726, "name": "สถานีรถไฟฟ้าบีทีเอสพหลโยธิน 24 ลิฟต์ประตู 4", "district": "จตุจักร", "snapDistanceMeters": 18.99}}, {"type": "Feature", "geometry": {"type": "Point", "coordinates": [100.56636208486584, 13.823977908937144]}, "properties": {"id": 356728, "name": "สถานีรถไฟฟ้าบีทีเอสพหลโยธิน 24 ลิฟต์ประตู 1", "district": "จตุจักร", "snapDistanceMeters": 18.3}}, {"type": "Feature", "geometry": {"type": "Point", "coordinates": [100.55312630079003, 13.802312432107067]}, "properties": {"id": 193719, "name": "สถานีรถไฟฟ้าบีทีเอสหมอชิต ประตู 1", "district": "จตุจักร", "snapDistanceMeters": 23.21}}, {"type": "Feature", "geometry": {"type": "Point", "coordinates": [100.48486726025547, 13.776927572357769]}, "properties": {"id": 356155, "name": "สถานีรถไฟฟ้าเอ็มอาร์ทีบางยี่ขัน ลิฟต์ประตู 1", "district": "บางพลัด", "snapDistanceMeters": 16.55}}, {"type": "Feature", "geometry": {"type": "Point", "coordinates": [100.48543697464005, 13.777599944321766]}, "properties": {"id": 356156, "name": "สถานีรถไฟฟ้าเอ็มอาร์ทีบางยี่ขัน ลิฟต์ประตู 3", "district": "บางพลัด", "snapDistanceMeters": 23.99}}, {"type": "Feature", "geometry": {"type": "Point", "coordinates": [100.50950194460175, 13.798464527135813]}, "properties": {"id": 356437, "name": "สถานีรถไฟฟ้าเอ็มอาร์ทีบางอ้อ ลิฟต์ประตู 1", "district": "บางพลัด", "snapDistanceMeters": 9.53}}, {"type": "Feature", "geometry": {"type": "Point", "coordinates": [100.50944426349899, 13.79850645520186]}, "properties": {"id": 356438, "name": "สถานีรถไฟฟ้าเอ็มอาร์ทีบางอ้อ ลิฟต์ประตู 2", "district": "บางพลัด", "snapDistanceMeters": 13.65}}, {"type": "Feature", "geometry": {"type": "Point", "coordinates": [100.43516549922842, 13.712949862831286]}, "properties": {"id": 356439, "name": "สถานีรถไฟฟ้าเอ็มอาร์ทีภาษีเจริญ ประตู 1", "district": "ภาษีเจริญ", "snapDistanceMeters": 20.83}}, {"type": "Feature", "geometry": {"type": "Point", "coordinates": [100.43516549922842, 13.712949862831286]}, "properties": {"id": 356443, "name": "สถานีรถไฟฟ้าเอ็มอาร์ทีภาษีเจริญ ลิฟต์ประตู 1", "district": "ภาษีเจริญ", "snapDistanceMeters": 42.53}}, {"type": "Feature", "geometry": {"type": "Point", "coordinates": [100.43394757339745, 13.71285074904071]}, "properties": {"id": 356444, "name": "สถานีรถไฟฟ้าเอ็มอาร์ทีภาษีเจริญ ลิฟต์ประตู 3", "district": "ภาษีเจริญ", "snapDistanceMeters": 13.01}}, {"type": "Feature", "geometry": {"type": "Point", "coordinates": [100.5606299264694, 13.750961160474697]}, "properties": {"id": 354180, "name": "ที่จอดรถสถานีรถไฟฟ้าเออาร์แอลมักกะสัน", "district": "ราขเทวี", "snapDistanceMeters": 45.91}}, {"type": "Feature", "geometry": {"type": "Point", "coordinates": [100.60207602332338, 13.661804077412226]}, "properties": {"id": 193414, "name": "สถานีรถไฟฟ้าบีทีเอสแบริ่ง ประตู 1", "district": "บางนา", "snapDistanceMeters": 12.44}}, {"type": "Feature", "geometry": {"type": "Point", "coordinates": [100.57366108419882, 13.710695303800208]}, "properties": {"id": 193066, "name": "โรงน้ำแข็งกุ่ยท่าเรือ", "district": "คลองเตย", "snapDistanceMeters": 15.67}}, {"type": "Feature", "geometry": {"type": "Point", "coordinates": [100.47401565682229, 13.729745497409748]}, "properties": {"id": 316256, "name": "สถานีรถไฟฟ้าเอ็มอาร์ทีท่าพระ", "district": "บางกอกใหญ่", "snapDistanceMeters": 4.54}}, {"type": "Feature", "geometry": {"type": "Point", "coordinates": [100.4939876934775, 13.78436540403519]}, "properties": {"id": 354417, "name": "สถานีรถไฟฟ้าเอ็มอาร์ทีสิรินธร ลิฟต์ประตู 3 เอ", "district": "บางพลัด", "snapDistanceMeters": 5.92}}, {"type": "Feature", "geometry": {"type": "Point", "coordinates": [100.49396855609665, 13.784150551263256]}, "properties": {"id": 354418, "name": "สถานีรถไฟฟ้าเอ็มอาร์ทีสิรินธร ลิฟต์ประตู 1", "district": "บางพลัด", "snapDistanceMeters": 9.43}}, {"type": "Feature", "geometry": {"type": "Point", "coordinates": [100.5104203964073, 13.741784468554416]}, "properties": {"id": 354997, "name": "สถานีรถไฟฟ้าเอ็มอาร์ทีวัดมังกร ประตู", "district": "สัมพันธวงค์", "snapDistanceMeters": 12.57}}, {"type": "Feature", "geometry": {"type": "Point", "coordinates": [100.574037753449, 13.78900808291807]}, "properties": {"id": 354431, "name": "ลานจอดรถสถานีรถไฟฟ้าเอ็มอาร์ทีสุทธิสาร", "district": "ดินแดง", "snapDistanceMeters": 13.42}}, {"type": "Feature", "geometry": {"type": "Point", "coordinates": [100.573252235397, 13.835894218238439]}, "properties": {"id": 354707, "name": "สถานีรถไฟฟ้าบีทีเอสเสนานิคม ลิฟต์ประตู 1", "district": "จตุจักร", "snapDistanceMeters": 11.04}}, {"type": "Feature", "geometry": {"type": "Point", "coordinates": [100.46903768981741, 13.755348814193896]}, "properties": {"id": 354991, "name": "สถานีรถไฟฟ้าเอ็มอาร์ทีไฟฉาย ลิฟต์ประตู 2", "district": "บางกอกน้อย", "snapDistanceMeters": 25.45}}, {"type": "Feature", "geometry": {"type": "Point", "coordinates": [100.46930316947719, 13.756134108536468]}, "properties": {"id": 354992, "name": "สถานีรถไฟฟ้าเอ็มอาร์ทีไฟฉาย ลิฟต์ประตู 4", "district": "บางกอกน้อย", "snapDistanceMeters": 31.5}}, {"type": "Feature", "geometry": {"type": "Point", "coordinates": [100.42155486832075, 13.527702026161458]}, "properties": {"id": 376145, "name": "ท่าเรือสู่ร้านจุดชมวิวทะเลกรุงเทพ", "district": "บางขุนเทียน", "snapDistanceMeters": 60.68}}, {"type": "Feature", "geometry": {"type": "Point", "coordinates": [100.47061705859836, 13.739752769418967]}, "properties": {"id": 355838, "name": "สถานีรถไฟฟ้าเอ็มอาร์ทีจรัญฯ 13 ลิฟต์ประตู 1", "district": "บางกอกใหญ่", "snapDistanceMeters": 14.25}}, {"type": "Feature", "geometry": {"type": "Point", "coordinates": [100.47072616440144, 13.740395847361299]}, "properties": {"id": 355839, "name": "สถานีรถไฟฟ้าเอ็มอาร์ทีจรัญฯ 13 ลิฟต์ประตู 3", "district": "บางกอกใหญ่", "snapDistanceMeters": 29.66}}, {"type": "Feature", "geometry": {"type": "Point", "coordinates": [100.47465020818126, 13.729670653709624]}, "properties": {"id": 355845, "name": "สถานีรถไฟฟ้าเอ็มอาร์ทีท่าพระ ลิฟต์ประตู 1", "district": "บางกอกใหญ่", "snapDistanceMeters": 14.39}}, {"type": "Feature", "geometry": {"type": "Point", "coordinates": [100.47353573910151, 13.729148336698591]}, "properties": {"id": 355846, "name": "สถานีรถไฟฟ้าเอ็มอาร์ทีท่าพระ ลิฟต์ประตู 3", "district": "บางกอกใหญ่", "snapDistanceMeters": 34.99}}, {"type": "Feature", "geometry": {"type": "Point", "coordinates": [100.4735922747179, 13.730576319250824]}, "properties": {"id": 355847, "name": "สถานีรถไฟฟ้าเอ็มอาร์ทีท่าพระ ลิฟต์ประตู 4", "district": "บางกอกใหญ่", "snapDistanceMeters": 42.59}}, {"type": "Feature", "geometry": {"type": "Point", "coordinates": [100.51369969366911, 13.726318125160578]}, "properties": {"id": 10102, "name": "ท่าเรือวัดม่วงแค", "district": "บางรัก", "snapDistanceMeters": 19.59}}, {"type": "Feature", "geometry": {"type": "Point", "coordinates": [100.60815100815871, 13.754615620756242]}, "properties": {"id": 10270, "name": "ท่าเรือเดอะมอลล์ 3", "district": "บางกะปิ", "snapDistanceMeters": 6.0}}, {"type": "Feature", "geometry": {"type": "Point", "coordinates": [100.62208105247208, 13.918019015750854]}, "properties": {"id": 356057, "name": "สถานีรถไฟฟ้าบีทีเอสพิพิธภัณฑ์กองทัพอากาศ", "district": "ดอนเมือง", "snapDistanceMeters": 42.47}}, {"type": "Feature", "geometry": {"type": "Point", "coordinates": [100.62580562379134, 13.92492908402452]}, "properties": {"id": 356058, "name": "สถานีรถไฟฟ้าบีทีเอสแยก คปอ.", "district": "ดอนเมือง", "snapDistanceMeters": 3.3}}, {"type": "Feature", "geometry": {"type": "Point", "coordinates": [100.61737645527828, 13.91064221519488]}, "properties": {"id": 356059, "name": "สถานีรถไฟฟ้าบีทีเอสโรงพยาบาลภูมิพลอดุลยเดช", "district": "ดอนเมือง", "snapDistanceMeters": 2.83}}, {"type": "Feature", "geometry": {"type": "Point", "coordinates": [100.60948614528792, 13.896216273890147]}, "properties": {"id": 356060, "name": "สถานีรถไฟฟ้าบีทีเอสสะพานใหม่", "district": "บางเขน", "snapDistanceMeters": 59.79}}, {"type": "Feature", "geometry": {"type": "Point", "coordinates": [100.60095778417102, 13.882794714756969]}, "properties": {"id": 356061, "name": "สถานีรถไฟฟ้าบีทีเอสพหลโยธิน 59", "district": "บางเขน", "snapDistanceMeters": 43.31}}, {"type": "Feature", "geometry": {"type": "Point", "coordinates": [100.60410526385436, 13.888136489504557]}, "properties": {"id": 356062, "name": "สถานีรถไฟฟ้าบีทีเอสสายหยุด", "district": "บางเขน", "snapDistanceMeters": 27.92}}, {"type": "Feature", "geometry": {"type": "Point", "coordinates": [100.61684559753901, 13.684841337848475]}, "properties": {"id": 357525, "name": "ท่าเรือบางพลี", "district": "พระโขนง", "snapDistanceMeters": 42.28}}, {"type": "Feature", "geometry": {"type": "Point", "coordinates": [100.44527716919994, 13.715467445467697]}, "properties": {"id": 356721, "name": "สถานีรถไฟฟ้าเอ็มอาร์ทีเพชรเกษม 48 ลิฟต์ประตู 1", "district": "ภาษีเจริญ", "snapDistanceMeters": 29.05}}, {"type": "Feature", "geometry": {"type": "Point", "coordinates": [100.57733835189232, 13.842674999787068]}, "properties": {"id": 357871, "name": "สถานีรถไฟฟ้าบีทีเอสมหาวิทยาลัยเกษตรศาสตร์ ลิฟต์ประตู 4", "district": "จตุจักร", "snapDistanceMeters": 16.04}}, {"type": "Feature", "geometry": {"type": "Point", "coordinates": [100.57731185810717, 13.842629740935443]}, "properties": {"id": 357873, "name": "สถานีรถไฟฟ้าบีทีเอสมหาวิทยาลัยเกษตรศาสตร์ ลิฟต์ประตู 3", "district": "จตุจักร", "snapDistanceMeters": 27.06}}, {"type": "Feature", "geometry": {"type": "Point", "coordinates": [100.64372414568909, 13.738207194765074]}, "properties": {"id": 357274, "name": "ลานจอดรถสถานีรถไฟฟ้าเออาร์แอลหัวหมาก", "district": "สวนหลวง", "snapDistanceMeters": 16.62}}, {"type": "Feature", "geometry": {"type": "Point", "coordinates": [100.5215176125168, 13.71938714180171]}, "properties": {"id": 10151, "name": "สถานีรถไฟฟ้าบีทีเอสสุรศักดิ์", "district": "สาทร", "snapDistanceMeters": 9.28}}, {"type": "Feature", "geometry": {"type": "Point", "coordinates": [100.51200773267166, 13.790823994538771]}, "properties": {"id": 10389, "name": "ท่าเรือเขียวไข่กา", "district": "ดุสิต", "snapDistanceMeters": 55.81}}, {"type": "Feature", "geometry": {"type": "Point", "coordinates": [100.50462209574268, 13.792036758739734]}, "properties": {"id": 353824, "name": "สถานีรถไฟฟ้าเอ็มอาร์ทีบางพลัด ลิฟต์ประตู 1", "district": "บางพลัด", "snapDistanceMeters": 40.56}}, {"type": "Feature", "geometry": {"type": "Point", "coordinates": [100.47307898023985, 13.762957754255353]}, "properties": {"id": 353818, "name": "สถานีรถไฟฟ้าเอ็มอาร์ทีบางขุนนนท์ ลิฟต์ประตู 1", "district": "บางกอกน้อย", "snapDistanceMeters": 28.15}}, {"type": "Feature", "geometry": {"type": "Point", "coordinates": [100.47303845965558, 13.762987468064146]}, "properties": {"id": 353819, "name": "สถานีรถไฟฟ้าเอ็มอาร์ทีบางขุนนนท์ ลิฟต์ประตู 2", "district": "บางกอกน้อย", "snapDistanceMeters": 28.03}}, {"type": "Feature", "geometry": {"type": "Point", "coordinates": [100.49583370946658, 13.721293486366]}, "properties": {"id": 193586, "name": "สถานีรถไฟฟ้าบีทีเอสวงเวียนใหญ่ ประตู 3", "district": "คลองสาน", "snapDistanceMeters": 15.49}}, {"type": "Feature", "geometry": {"type": "Point", "coordinates": [100.60906016195278, 13.678840289991786]}, "properties": {"id": 193590, "name": "สถานีรถไฟฟ้าบีทีเอสอุดมสุข ประตู 4", "district": "บางนา", "snapDistanceMeters": 46.96}}, {"type": "Feature", "geometry": {"type": "Point", "coordinates": [100.5339643964301, 13.757008917958801]}, "properties": {"id": 192931, "name": "สถานีรถไฟฟ้าเออาร์แอลพญาไท ประตู 2", "district": "ราขเทวี", "snapDistanceMeters": 76.78}}, {"type": "Feature", "geometry": {"type": "Point", "coordinates": [100.54217418203932, 13.755134478015496]}, "properties": {"id": 192933, "name": "สถานีรถไฟฟ้าเออาร์แอลราชปรารภ ประตู", "district": "ราขเทวี", "snapDistanceMeters": 13.79}}, {"type": "Feature", "geometry": {"type": "Point", "coordinates": [100.59950162760215, 13.742834737975866]}, "properties": {"id": 192936, "name": "สถานีรถไฟฟ้าเออาร์แอลรามคำแหง ประตู", "district": "สวนหลวง", "snapDistanceMeters": 34.74}}, {"type": "Feature", "geometry": {"type": "Point", "coordinates": [100.64527322245195, 13.738180524788945]}, "properties": {"id": 192937, "name": "สถานีรถไฟฟ้าเออาร์แอลหัวหมาก ประตู", "district": "สวนหลวง", "snapDistanceMeters": 33.98}}, {"type": "Feature", "geometry": {"type": "Point", "coordinates": [100.69064702428616, 13.733242168118453]}, "properties": {"id": 192938, "name": "สถานีรถไฟฟ้าเออาร์แอลบ้านทับช้าง ประตู", "district": "ประเวศ", "snapDistanceMeters": 55.88}}, {"type": "Feature", "geometry": {"type": "Point", "coordinates": [100.74917784973722, 13.728058402743201]}, "properties": {"id": 192939, "name": "สถานีรถไฟฟ้าเออาร์แอลลาดกระบัง ประตู", "district": "ลาดกระบัง", "snapDistanceMeters": 43.74}}, {"type": "Feature", "geometry": {"type": "Point", "coordinates": [100.50526866007506, 13.792783786006634]}, "properties": {"id": 357252, "name": "สถานีรถไฟฟ้าเอ็มอาร์ทีบางพลัด ลิฟต์ประตู 3", "district": "บางพลัด", "snapDistanceMeters": 20.83}}, {"type": "Feature", "geometry": {"type": "Point", "coordinates": [100.56608821695666, 13.760424974821811]}, "properties": {"id": 356990, "name": "ลานจอดรถสถานีรถไฟฟ้าพระราม 9 (รัชดาภิเษกซอย 2)", "district": "ห้วยขวาง", "snapDistanceMeters": 30.78}}, {"type": "Feature", "geometry": {"type": "Point", "coordinates": [100.53509490163697, 13.7288306532847]}, "properties": {"id": 193805, "name": "สถานีรถไฟฟ้าบีทีเอสศาลาแดง ประตู 5", "district": "บางรัก", "snapDistanceMeters": 9.87}}, {"type": "Feature", "geometry": {"type": "Point", "coordinates": [100.60450485807682, 13.667726971408547]}, "properties": {"id": 193424, "name": "สถานีรถไฟฟ้าบีทีเอสบางนา ประตู 4", "district": "บางนา", "snapDistanceMeters": 31.35}}, {"type": "Feature", "geometry": {"type": "Point", "coordinates": [100.6057560878088, 13.695968717834363]}, "properties": {"id": 193431, "name": "สถานีรถไฟฟ้าบีทีเอสบางจาก ประตู 4", "district": "พระโขนง", "snapDistanceMeters": 28.76}}, {"type": "Feature", "geometry": {"type": "Point", "coordinates": [100.59106838751197, 13.715535640194567]}, "properties": {"id": 194124, "name": "สถานีรถไฟฟ้าบีทีเอสพระโขนง ประตู 1", "district": "คลองเตย", "snapDistanceMeters": 9.0}}, {"type": "Feature", "geometry": {"type": "Point", "coordinates": [100.56436505245699, 13.709051036241691]}, "properties": {"id": 193473, "name": "ด่านกักโรคท่าเรือกรุงเทพมหานคร", "district": "คลองเตย", "snapDistanceMeters": 23.49}}, {"type": "Feature", "geometry": {"type": "Point", "coordinates": [100.60933305917379, 13.688648237078935]}, "properties": {"id": 193495, "name": "สถานีรถไฟฟ้าบีทีเอสปุณณวิถี ประตู 3", "district": "พระโขนง", "snapDistanceMeters": 12.44}}, {"type": "Feature", "geometry": {"type": "Point", "coordinates": [100.53145800755652, 13.75159516880183]}, "properties": {"id": 193882, "name": "สถานีรถไฟฟ้าบีทีเอสราชเทวี ประตู 1", "district": "ราขเทวี", "snapDistanceMeters": 16.19}}, {"type": "Feature", "geometry": {"type": "Point", "coordinates": [100.56305730533836, 13.71139173008438]}, "properties": {"id": 193479, "name": "ด่านชั่งน้ำหนักท่าเรือ 1", "district": "คลองเตย", "snapDistanceMeters": 8.02}}, {"type": "Feature", "geometry": {"type": "Point", "coordinates": [100.6392839800331, 13.715096240269075]}, "properties": {"id": 250427, "name": "ท่าเรือมัสยิดอัลเอี๊ยะติซอม", "district": "สวนหลวง", "snapDistanceMeters": 16.46}}, {"type": "Feature", "geometry": {"type": "Point", "coordinates": [100.56636166462116, 13.709817361533835]}, "properties": {"id": 144978, "name": "แผนกสุขาภิบาล ท่าเรือกรุงเทพ (ท่าเรือคลองเตย)", "district": "คลองเตย", "snapDistanceMeters": 18.8}}, {"type": "Feature", "geometry": {"type": "Point", "coordinates": [100.56362743066805, 13.711336335881137]}, "properties": {"id": 144979, "name": "ศูนย์ควบคุมการจราจรสถานีตำรวจนครบาลท่าเรือ", "district": "คลองเตย", "snapDistanceMeters": 5.53}}, {"type": "Feature", "geometry": {"type": "Point", "coordinates": [100.56366531116082, 13.70745866170617]}, "properties": {"id": 144980, "name": "ท่าเรือคลองเตย", "district": "คลองเตย", "snapDistanceMeters": 14.99}}, {"type": "Feature", "geometry": {"type": "Point", "coordinates": [100.56445486712413, 13.708532038145515]}, "properties": {"id": 144982, "name": "จุดรับแจ้งเหตุสถานีตำรวจนครบาลท่าเรือ", "district": "คลองเตย", "snapDistanceMeters": 19.31}}, {"type": "Feature", "geometry": {"type": "Point", "coordinates": [100.58072025532006, 13.710054293485397]}, "properties": {"id": 144829, "name": "สำนักงานภาคสนามแผนกที่ดินชุมชนการท่าเรือแห่งประเทศไทย", "district": "คลองเตย", "snapDistanceMeters": 5.05}}, {"type": "Feature", "geometry": {"type": "Point", "coordinates": [100.58146290926744, 13.710021744496698]}, "properties": {"id": 144831, "name": "ศูนย์ควบคุมการจราจรสี่แยกอาจณรงค์สถานีตำรวจนครบาลท่าเรือ", "district": "คลองเตย", "snapDistanceMeters": 23.54}}, {"type": "Feature", "geometry": {"type": "Point", "coordinates": [100.48655093167486, 13.756170606409272]}, "properties": {"id": 150483, "name": "ท่าเรือพรานนก", "district": "บางกอกน้อย", "snapDistanceMeters": 44.18}}, {"type": "Feature", "geometry": {"type": "Point", "coordinates": [100.51336283694896, 13.728552931315708]}, "properties": {"id": 150038, "name": "ท่าเรือสี่พระยา", "district": "บางรัก", "snapDistanceMeters": 33.21}}, {"type": "Feature", "geometry": {"type": "Point", "coordinates": [100.51396785249523, 13.72946075201188]}, "properties": {"id": 149724, "name": "ท่าเรือข้ามฟากสี่พระยา", "district": "สัมพันธวงค์", "snapDistanceMeters": 94.07}}, {"type": "Feature", "geometry": {"type": "Point", "coordinates": [100.48659680785553, 13.759385873929906]}, "properties": {"id": 150088, "name": "ท่าเรือท่ารถไฟ", "district": "บางกอกน้อย", "snapDistanceMeters": 131.37}}, {"type": "Feature", "geometry": {"type": "Point", "coordinates": [100.50903338467548, 13.726783863221957]}, "properties": {"id": 337287, "name": "สถานีรถไฟฟ้าบีทีเอสเจริญนคร", "district": "คลองสาน", "snapDistanceMeters": 29.88}}, {"type": "Feature", "geometry": {"type": "Point", "coordinates": [100.50796401679064, 13.730337376146021]}, "properties": {"id": 337288, "name": "สถานีรถไฟฟ้าบีทีเอสคลองสาน", "district": "คลองสาน", "snapDistanceMeters": 35.34}}, {"type": "Feature", "geometry": {"type": "Point", "coordinates": [100.50194989580567, 13.771168523501842]}, "properties": {"id": 422121, "name": "ท่าเทียบเรือตลาดเหวราช", "district": "พระนคร", "snapDistanceMeters": 9.84}}, {"type": "Feature", "geometry": {"type": "Point", "coordinates": [100.44445371242455, 13.765074511955312]}, "properties": {"id": 405224, "name": "ก๋วยจั๊บท่าเรือ", "district": "ตลิ่งชัน", "snapDistanceMeters": 67.59}}, {"type": "Feature", "geometry": {"type": "Point", "coordinates": [100.44589992530716, 13.541032591507484]}, "properties": {"id": 334340, "name": "ครัวท่าเรือเจ๊จุ๋มซีฟู้ด", "district": "บางขุนเทียน", "snapDistanceMeters": 17.9}}, {"type": "Feature", "geometry": {"type": "Point", "coordinates": [100.54101355939537, 13.74946730809826]}, "properties": {"id": 282998, "name": "ก๋วยเตี๋ยวไก่ท่าเรือประตูน้ำ", "district": "ราขเทวี", "snapDistanceMeters": 17.29}}, {"type": "Feature", "geometry": {"type": "Point", "coordinates": [100.58850436945569, 13.742758263856222]}, "properties": {"id": 376553, "name": "ท่าเรือชาญอิสระ", "district": "วัฒนา", "snapDistanceMeters": 4.72}}, {"type": "Feature", "geometry": {"type": "Point", "coordinates": [100.48655093167486, 13.756170606409272]}, "properties": {"id": 151076, "name": "ท่าเรือวังหลัง (ศิริราช)", "district": "บางกอกน้อย", "snapDistanceMeters": 42.67}}, {"type": "Feature", "geometry": {"type": "Point", "coordinates": [100.4063290208329, 13.700436170305611]}, "properties": {"id": 151868, "name": "ท่าเรือสะพานกาญจนาภิเษก", "district": "บางแค", "snapDistanceMeters": 15.0}}, {"type": "Feature", "geometry": {"type": "Point", "coordinates": [100.65227723397084, 13.76781079083393]}, "properties": {"id": 433461, "name": "ท่าเรือวัดศรีบุญเรือง", "district": "บางกะปิ", "snapDistanceMeters": 14.74}}, {"type": "Feature", "geometry": {"type": "Point", "coordinates": [100.4863836399086, 13.752542495745004]}, "properties": {"id": 151733, "name": "ท่าเรือวัดระฆัง", "district": "บางกอกน้อย", "snapDistanceMeters": 30.43}}, {"type": "Feature", "geometry": {"type": "Point", "coordinates": [100.5267839421063, 13.720703471304088]}, "properties": {"id": 380918, "name": "สถานีรถไฟฟ้าบีทีเอสเซนต์หลุยส์", "district": "สาทร", "snapDistanceMeters": 13.13}}, {"type": "Feature", "geometry": {"type": "Point", "coordinates": [100.56484151974053, 13.711543286611827]}, "properties": {"id": 377322, "name": "ด่านท่าเรือ 2", "district": "คลองเตย", "snapDistanceMeters": 11.6}}, {"type": "Feature", "geometry": {"type": "Point", "coordinates": [100.51206646422429, 13.732946855077287]}, "properties": {"id": 378494, "name": "ท่าเรือกรมเจ้าท่า", "district": "สัมพันธวงค์", "snapDistanceMeters": 51.91}}, {"type": "Feature", "geometry": {"type": "Point", "coordinates": [100.56378597769123, 13.713690422258974]}, "properties": {"id": 377714, "name": "การท่าเรือแห่งประเทศไทย", "district": "คลองเตย", "snapDistanceMeters": 37.0}}, {"type": "Feature", "geometry": {"type": "Point", "coordinates": [100.57437098315894, 13.745740030316897]}, "properties": {"id": 377721, "name": "ท่าเรือวัดใหม่ช่องลม", "district": "วัฒนา", "snapDistanceMeters": 3.44}}, {"type": "Feature", "geometry": {"type": "Point", "coordinates": [100.491921180497, 13.76495214893992]}, "properties": {"id": 103777, "name": "ท่าเรือวัดดาวดึงษ์", "district": "บางพลัด", "snapDistanceMeters": 60.81}}, {"type": "Feature", "geometry": {"type": "Point", "coordinates": [100.49034856696342, 13.762724948840107]}, "properties": {"id": 103778, "name": "ท่าเรือพระปิ่นเกล้า", "district": "บางพลัด", "snapDistanceMeters": 38.19}}, {"type": "Feature", "geometry": {"type": "Point", "coordinates": [100.54101355939537, 13.74946730809826]}, "properties": {"id": 291619, "name": "ผัดไทยสยาม 2562 (ท่าเรือประตูน้ำ)", "district": "ราขเทวี", "snapDistanceMeters": 15.83}}, {"type": "Feature", "geometry": {"type": "Point", "coordinates": [100.51160769978353, 13.728267907285867]}, "properties": {"id": 103919, "name": "ท่าเรือไอคอนสยาม", "district": "คลองสาน", "snapDistanceMeters": 87.57}}, {"type": "Feature", "geometry": {"type": "Point", "coordinates": [100.49031331507875, 13.746327245011775]}, "properties": {"id": 102984, "name": "ท่าเรือท่าเตียน", "district": "พระนคร", "snapDistanceMeters": 50.88}}, {"type": "Feature", "geometry": {"type": "Point", "coordinates": [100.74957425229623, 13.728253825718056]}, "properties": {"id": 106765, "name": "ที่จอดรถสถานีรถไฟฟ้าลาดกระบัง", "district": "ลาดกระบัง", "snapDistanceMeters": 55.37}}, {"type": "Feature", "geometry": {"type": "Point", "coordinates": [100.5726012782983, 13.706678669478897]}, "properties": {"id": 281259, "name": "โรงอาหารท่าเรือกรุงเทพ", "district": "คลองเตย", "snapDistanceMeters": 26.02}}, {"type": "Feature", "geometry": {"type": "Point", "coordinates": [100.55962486253875, 13.716398087608635]}, "properties": {"id": 51, "name": "สโมสรการท่าเรือแห่งประเทศไทย", "district": "คลองเตย", "snapDistanceMeters": 16.63}}, {"type": "Feature", "geometry": {"type": "Point", "coordinates": [100.54700796805714, 13.739926487416001]}, "properties": {"id": 399816, "name": "บริษัท เจ้าพระยาท่าเรือพัฒนา จำกัด", "district": "ปทุมวัน", "snapDistanceMeters": 85.53}}, {"type": "Feature", "geometry": {"type": "Point", "coordinates": [100.5804614550492, 13.709283877585575]}, "properties": {"id": 434422, "name": "สถานีตำรวจนครบาลท่าเรือ", "district": "คลองเตย", "snapDistanceMeters": 28.99}}, {"type": "Feature", "geometry": {"type": "Point", "coordinates": [100.51775576965656, 13.81191465509163]}, "properties": {"id": 434096, "name": "ท่าเรือวัดสร้อยทอง", "district": "บางซื่อ", "snapDistanceMeters": 33.7}}, {"type": "Feature", "geometry": {"type": "Point", "coordinates": [100.48844634552106, 13.696120643807951]}, "properties": {"id": 434779, "name": "ท่าเรือวัดดาวคนอง", "district": "ธนบุรี", "snapDistanceMeters": 42.85}}, {"type": "Feature", "geometry": {"type": "Point", "coordinates": [100.60672130328358, 13.714543592098849]}, "properties": {"id": 435466, "name": "ท่าเรือวัดมหาบุศย์", "district": "วัฒนา", "snapDistanceMeters": 69.55}}, {"type": "Feature", "geometry": {"type": "Point", "coordinates": [100.5816135514954, 13.704440237920233]}, "properties": {"id": 2306, "name": "สถานีไฟฟ้าย่อยการท่าเรือแห่งประเทศไทย", "district": "คลองเตย", "snapDistanceMeters": 22.04}}, {"type": "Feature", "geometry": {"type": "Point", "coordinates": [100.53104876215097, 13.749364924556948]}, "properties": {"id": 103026, "name": "ท่าเรือสะพานหัวช้าง", "district": "ปทุมวัน", "snapDistanceMeters": 24.52}}, {"type": "Feature", "geometry": {"type": "Point", "coordinates": [100.43116543746368, 13.709199233566382]}, "properties": {"id": 110108, "name": "ท่าเรือเพชรเกษม 37", "district": "ภาษีเจริญ", "snapDistanceMeters": 6.95}}, {"type": "Feature", "geometry": {"type": "Point", "coordinates": [100.50953224158278, 13.736496193449241]}, "properties": {"id": 124527, "name": "ท่าเรือสวัสดี", "district": "สัมพันธวงค์", "snapDistanceMeters": 33.2}}, {"type": "Feature", "geometry": {"type": "Point", "coordinates": [100.64510905456152, 13.738094462248553]}, "properties": {"id": 124273, "name": "สถานีรถไฟฟ้าเออาร์แอลหัวหมาก", "district": "สวนหลวง", "snapDistanceMeters": 24.39}}, {"type": "Feature", "geometry": {"type": "Point", "coordinates": [100.60096548070895, 13.742670266584495]}, "properties": {"id": 124275, "name": "สถานีรถไฟฟ้าเออาร์แอลรามคำแหง", "district": "สวนหลวง", "snapDistanceMeters": 33.92}}, {"type": "Feature", "geometry": {"type": "Point", "coordinates": [100.54217418203932, 13.755134478015496]}, "properties": {"id": 124271, "name": "สถานีรถไฟฟ้าเออาร์แอลราชปรารภ", "district": "ราขเทวี", "snapDistanceMeters": 20.13}}, {"type": "Feature", "geometry": {"type": "Point", "coordinates": [100.74823807743847, 13.7273469544105]}, "properties": {"id": 124272, "name": "สถานีรถไฟฟ้าเออาร์แอลลาดกระบัง", "district": "ลาดกระบัง", "snapDistanceMeters": 35.13}}, {"type": "Feature", "geometry": {"type": "Point", "coordinates": [100.55527097130843, 13.804610074815235]}, "properties": {"id": 125537, "name": "ที่จอดรถสถานีรถไฟฟ้าหมอชิต", "district": "จตุจักร", "snapDistanceMeters": 9.52}}, {"type": "Feature", "geometry": {"type": "Point", "coordinates": [100.61381502674756, 13.75991350870794]}, "properties": {"id": 124817, "name": "ท่าเรือวัดเทพลีลา", "district": "บางกะปิ", "snapDistanceMeters": 11.46}}, {"type": "Feature", "geometry": {"type": "Point", "coordinates": [100.50846356675326, 13.78728440956066]}, "properties": {"id": 125120, "name": "ท่าเรือพายัพ", "district": "ดุสิต", "snapDistanceMeters": 51.82}}, {"type": "Feature", "geometry": {"type": "Point", "coordinates": [100.50775102338996, 13.765064539567557]}, "properties": {"id": 124486, "name": "ท่าเรือประชาธิปไตย", "district": "พระนคร", "snapDistanceMeters": 18.52}}, {"type": "Feature", "geometry": {"type": "Point", "coordinates": [100.56460813361713, 13.711648582841088]}, "properties": {"id": 387080, "name": "สำนักงานศุลกากรท่าเรือกรุงเทพ", "district": "คลองเตย", "snapDistanceMeters": 24.06}}, {"type": "Feature", "geometry": {"type": "Point", "coordinates": [100.56205701723927, 13.746464248654455]}, "properties": {"id": 389206, "name": "เซนรูมส์ ท่าเรืออโศก", "district": "วัฒนา", "snapDistanceMeters": 25.74}}, {"type": "Feature", "geometry": {"type": "Point", "coordinates": [100.51292549013891, 13.717273763720584]}, "properties": {"id": 272437, "name": "ท่าเรือเมขลาครูสก์กรุงเทพ", "district": "สาทร", "snapDistanceMeters": 56.64}}, {"type": "Feature", "geometry": {"type": "Point", "coordinates": [100.51295659684678, 13.759840102622798]}, "properties": {"id": 260217, "name": "ท่าเรือนครสวรรค์", "district": "ป้อมปราบศัตรูพ่าย", "snapDistanceMeters": 20.85}}, {"type": "Feature", "geometry": {"type": "Point", "coordinates": [100.5163100273237, 13.746773836584442]}, "properties": {"id": 260218, "name": "ท่าเรือยศเส", "district": "ป้อมปราบศัตรูพ่าย", "snapDistanceMeters": 25.79}}, {"type": "Feature", "geometry": {"type": "Point", "coordinates": [100.54775014956823, 13.812037894224298]}, "properties": {"id": 263997, "name": "จุดจำหน่ายตั๋วรถตู้กรุงเทพ-บ้านหมอ-ท่าเรือ", "district": "จตุจักร", "snapDistanceMeters": 43.78}}, {"type": "Feature", "geometry": {"type": "Point", "coordinates": [100.5477607754201, 13.811386563269064]}, "properties": {"id": 263120, "name": "จุดจำหน่ายตั๋วรถตู้นู้ดท่าเรือ", "district": "จตุจักร", "snapDistanceMeters": 29.29}}, {"type": "Feature", "geometry": {"type": "Point", "coordinates": [100.58137581122465, 13.708175483683704]}, "properties": {"id": 127730, "name": "ท่าเรือกรุงเทพ (ท่าเรือคลองเตย)", "district": "คลองเตย", "snapDistanceMeters": 68.75}}, {"type": "Feature", "geometry": {"type": "Point", "coordinates": [100.61985056206098, 13.711532891917498]}, "properties": {"id": 128073, "name": "ท่าเรือวัดยาง", "district": "สวนหลวง", "snapDistanceMeters": 23.35}}, {"type": "Feature", "geometry": {"type": "Point", "coordinates": [100.46618080385329, 13.721248219330148]}, "properties": {"id": 125941, "name": "ท่าเรืออู่รถเมล์สาย 9", "district": "ภาษีเจริญ", "snapDistanceMeters": 14.21}}, {"type": "Feature", "geometry": {"type": "Point", "coordinates": [100.54474510362432, 13.726284389711669]}, "properties": {"id": 261312, "name": "จุดจอดรถจักรยานสถานีรถไฟฟ้าเอ็มอาร์ทีลุมพินี ประตู 3", "district": "ปทุมวัน", "snapDistanceMeters": 34.22}}, {"type": "Feature", "geometry": {"type": "Point", "coordinates": [100.56363968013137, 13.74994866887714]}, "properties": {"id": 261605, "name": "ลานจอดรถสถานีรถไฟฟ้าเพชรบุรี", "district": "ห้วยขวาง", "snapDistanceMeters": 41.44}}, {"type": "Feature", "geometry": {"type": "Point", "coordinates": [100.52941192577677, 13.675731719844292]}, "properties": {"id": 123722, "name": "ท่าเรือสยามแก๊ส (สาธุประดิษฐ์)", "district": "ยานนาวา", "snapDistanceMeters": 88.32}}, {"type": "Feature", "geometry": {"type": "Point", "coordinates": [100.63122324758908, 13.714944638002281]}, "properties": {"id": 128143, "name": "ท่าเรือวัดปากบ่อ", "district": "สวนหลวง", "snapDistanceMeters": 7.01}}, {"type": "Feature", "geometry": {"type": "Point", "coordinates": [100.44505965241835, 13.714108979721697]}, "properties": {"id": 125618, "name": "ท่าเรือเพชรเกษม 31", "district": "ภาษีเจริญ", "snapDistanceMeters": 17.4}}, {"type": "Feature", "geometry": {"type": "Point", "coordinates": [100.5713936232777, 13.766828198034291]}, "properties": {"id": 261607, "name": "ลานจอดรถสถานีรถไฟฟ้าศูนย์วัฒนธรรมแห่งประเทศไทย ประตู 1", "district": "ห้วยขวาง", "snapDistanceMeters": 5.09}}, {"type": "Feature", "geometry": {"type": "Point", "coordinates": [100.57551424851479, 13.79790252444718]}, "properties": {"id": 261608, "name": "ลานจอดรถสถานีรถไฟฟ้ารัชดาภิเษก", "district": "ห้วยขวาง", "snapDistanceMeters": 63.48}}, {"type": "Feature", "geometry": {"type": "Point", "coordinates": [100.49849748084898, 13.740007739961776]}, "properties": {"id": 126684, "name": "ท่าเรือสะพานพุทธ", "district": "พระนคร", "snapDistanceMeters": 40.79}}, {"type": "Feature", "geometry": {"type": "Point", "coordinates": [100.49447635853866, 13.741597034886981]}, "properties": {"id": 126686, "name": "ท่าเรือปากคลองตลาด", "district": "พระนคร", "snapDistanceMeters": 32.49}}, {"type": "Feature", "geometry": {"type": "Point", "coordinates": [100.53375980142327, 13.756780257374492]}, "properties": {"id": 256432, "name": "วินสถานีรถไฟฟ้าพญาไท", "district": "ราขเทวี", "snapDistanceMeters": 24.74}}, {"type": "Feature", "geometry": {"type": "Point", "coordinates": [100.54051587593605, 13.728019535157287]}, "properties": {"id": 311075001, "name": "สวนลุมพินี (ประตู 3)", "district": "", "snapDistanceMeters": 39.11}}, {"type": "Feature", "geometry": {"type": "Point", "coordinates": [100.52991835211421, 13.740486593318264]}, "properties": {"id": 373075078, "name": "โรงเรียนเตรียมอุดมศึกษา", "district": "", "snapDistanceMeters": 15.94}}, {"type": "Feature", "geometry": {"type": "Point", "coordinates": [100.53052356260358, 13.744470206497011]}, "properties": {"id": 373075446, "name": "มาบุญครอง", "district": "", "snapDistanceMeters": 21.56}}, {"type": "Feature", "geometry": {"type": "Point", "coordinates": [100.52988687222218, 13.738195303412141]}, "properties": {"id": 373075506, "name": "จุฬาฯ (ลานพระบรมรูป)", "district": "", "snapDistanceMeters": 19.97}}, {"type": "Feature", "geometry": {"type": "Point", "coordinates": [100.52929449371642, 13.736279530687728]}, "properties": {"id": 373075707, "name": "จุฬาฯ (คณะนิติศาสตร์)", "district": "", "snapDistanceMeters": 18.81}}, {"type": "Feature", "geometry": {"type": "Point", "coordinates": [100.5304593193541, 13.744063389890151]}, "properties": {"id": 373075746, "name": "โอสถศาลา", "district": "", "snapDistanceMeters": 61.12}}, {"type": "Feature", "geometry": {"type": "Point", "coordinates": [100.53490057421782, 13.739471975234512]}, "properties": {"id": 373076348, "name": "โรงเรียนสาธิต มศว ปทุมวัน", "district": "", "snapDistanceMeters": 28.23}}, {"type": "Feature", "geometry": {"type": "Point", "coordinates": [100.53404876517837, 13.734228697789483]}, "properties": {"id": 373076417, "name": "จุฬาฯ (คณะรัฐศาสตร์)", "district": "", "snapDistanceMeters": 60.72}}, {"type": "Feature", "geometry": {"type": "Point", "coordinates": [100.5357144412188, 13.744414917645285]}, "properties": {"id": 373076704, "name": "แยกเฉลิมเผ่า", "district": "", "snapDistanceMeters": 34.41}}, {"type": "Feature", "geometry": {"type": "Point", "coordinates": [100.53806399275679, 13.765820029424916]}, "properties": {"id": 373077898, "name": "อนุสาวรีย์ชัยสมรภูมิ (เกาะพหลโยธิน)", "district": "", "snapDistanceMeters": 7.15}}, {"type": "Feature", "geometry": {"type": "Point", "coordinates": [100.53753534929733, 13.764694676067581]}, "properties": {"id": 373077912, "name": "อนุสาวรีย์ชัยสมรภูมิ (เกาะราชวิถี)", "district": "", "snapDistanceMeters": 8.32}}, {"type": "Feature", "geometry": {"type": "Point", "coordinates": [100.53839484430499, 13.764259673001815]}, "properties": {"id": 373077947, "name": "อนุสาวรีย์ชัยสมรภูมิ (เกาะพญาไท)", "district": "", "snapDistanceMeters": 13.54}}, {"type": "Feature", "geometry": {"type": "Point", "coordinates": [100.53916394240422, 13.765285764776698]}, "properties": {"id": 373078013, "name": "อนุสาวรีย์ชัยสมรภูมิ (เกาะดินแดง)", "district": "", "snapDistanceMeters": 3.35}}, {"type": "Feature", "geometry": {"type": "Point", "coordinates": [100.53837944507983, 13.733953271528204]}, "properties": {"id": 373092732, "name": "ป้ายรถประจำทาง", "district": "", "snapDistanceMeters": 20.45}}, {"type": "Feature", "geometry": {"type": "Point", "coordinates": [100.53731922486395, 13.731259692649672]}, "properties": {"id": 373092883, "name": "โรงพยาบาลจุฬาลงกรณ์ (ฝั่งราชดำริ)", "district": "", "snapDistanceMeters": 47.48}}, {"type": "Feature", "geometry": {"type": "Point", "coordinates": [100.53845402661003, 13.732907729111163]}, "properties": {"id": 373093873, "name": "ป้ายรถประจำทาง", "district": "", "snapDistanceMeters": 33.77}}, {"type": "Feature", "geometry": {"type": "Point", "coordinates": [100.53946118280861, 13.73948113977899]}, "properties": {"id": 373093897, "name": "สถานีราชดำริ (ทางออก 1)", "district": "", "snapDistanceMeters": 15.54}}, {"type": "Feature", "geometry": {"type": "Point", "coordinates": [100.53756857163738, 13.731233475962785]}, "properties": {"id": 373094154, "name": "สวนลุมพินี (ฝั่งตะวันตก)", "district": "", "snapDistanceMeters": 30.14}}, {"type": "Feature", "geometry": {"type": "Point", "coordinates": [100.53475636152399, 13.730382757307169]}, "properties": {"id": 373094156, "name": "รพ.จุฬาฯ (ประตู 1)", "district": "", "snapDistanceMeters": 15.44}}, {"type": "Feature", "geometry": {"type": "Point", "coordinates": [100.53370950046623, 13.745706469845443]}, "properties": {"id": 373097475, "name": "สยามสแควร์", "district": "", "snapDistanceMeters": 32.92}}, {"type": "Feature", "geometry": {"type": "Point", "coordinates": [100.42229750257353, 13.780562975343226]}, "properties": {"id": 692446648, "name": "สถานีขนส่งผู้โดยสารกรุงเทพ (ถนนบรมราชชนนี)", "district": "", "snapDistanceMeters": 31.92}}, {"type": "Feature", "geometry": {"type": "Point", "coordinates": [100.5846366838647, 13.799920275670665]}, "properties": {"id": 742013624, "name": "ป้ายรถประจำทาง", "district": "", "snapDistanceMeters": 30.75}}, {"type": "Feature", "geometry": {"type": "Point", "coordinates": [100.57225530779058, 13.852498233474355]}, "properties": {"id": 891273705, "name": "ป้ายคณะอุตสาหกรรมฯ (สิ่งทอ)", "district": "", "snapDistanceMeters": 63.22}},