{"type": "FeatureCollection", "features": [{"type": "Feature", "geometry": {"type": "Point", "coordinates": [100.50460915516405, 13.719913824890222]}, "properties": {"id": 325, "name": "ชุมชนคลองต้นไทร", "district": "คลองสาน", "snapDistanceMeters": 43.3}}, {"type": "Feature", "geometry": {"type": "Point", "coordinates": [100.56035006559729, 13.720554432422023]}, "properties": {"id": 348, "name": "ศูนย์ประสานงาน อปพร. ชุมชนริมคลองไผ่สิงห์โต", "district": "คลองเตย", "snapDistanceMeters": 14.6}}, {"type": "Feature", "geometry": {"type": "Point", "coordinates": [100.5094248560987, 13.717389142820048]}, "properties": {"id": 1145, "name": "ชุมชนปากคลองต้นไทร", "district": "คลองสาน", "snapDistanceMeters": 83.92}}, {"type": "Feature", "geometry": {"type": "Point", "coordinates": [100.52148116647064, 13.82926208405535]}, "properties": {"id": 272, "name": "จุดตรวจและรับแจ้งเหตุชุมชนวัดเลียบสถานีตำรวจนครบาลประชาชื่น", "district": "บางซื่อ", "snapDistanceMeters": 7.11}}, {"type": "Feature", "geometry": {"type": "Point", "coordinates": [100.50741315636309, 13.777920592896741]}, "properties": {"id": 279, "name": "ชุมชนซอยสามเสน 13/1", "district": "ดุสิต", "snapDistanceMeters": 20.62}}, {"type": "Feature", "geometry": {"type": "Point", "coordinates": [100.65113322388466, 13.822932066547896]}, "properties": {"id": 282, "name": "เคหะชุมชนนวมินทร์แฟลต 3", "district": "บึงกุ่ม", "snapDistanceMeters": 31.5}}, {"type": "Feature", "geometry": {"type": "Point", "coordinates": [100.5641548674199, 13.716880508750465]}, "properties": {"id": 1076, "name": "ลานกีฬากรุงเทพมหานคร (ชุมชนพัฒนาใหม่ (ลาน 3))", "district": "คลองเตย", "snapDistanceMeters": 45.17}}, {"type": "Feature", "geometry": {"type": "Point", "coordinates": [100.50752258011576, 13.727821462743163]}, "properties": {"id": 1114, "name": "ชุมชนข้างโรงเรียนมิตรพลพาณิชยการ", "district": "คลองสาน", "snapDistanceMeters": 37.53}}, {"type": "Feature", "geometry": {"type": "Point", "coordinates": [100.63385990138653, 13.740712467908939]}, "properties": {"id": 22391, "name": "ศูนย์คุ้มครองสวัสดิภาพชุมชนเขต 34 (เขตสวนหลวง)", "district": "สวนหลวง", "snapDistanceMeters": 16.0}}, {"type": "Feature", "geometry": {"type": "Point", "coordinates": [100.50154287253324, 13.727564235147067]}, "properties": {"id": 1196, "name": "ชุมชนซอยเจริญรัถ 5", "district": "คลองสาน", "snapDistanceMeters": 5.6}}, {"type": "Feature", "geometry": {"type": "Point", "coordinates": [100.50815743669673, 13.717041688672394]}, "properties": {"id": 1151, "name": "ชุมชนไทยวานิช", "district": "คลองสาน", "snapDistanceMeters": 41.99}}, {"type": "Feature", "geometry": {"type": "Point", "coordinates": [100.66606504293152, 13.738422084654648]}, "properties": {"id": 22443, "name": "บ้านหนังสือกรุงเทพมหานครชุมชนบ้านม้าเกราะล่าง", "district": "สะพานสูง", "snapDistanceMeters": 4.69}}, {"type": "Feature", "geometry": {"type": "Point", "coordinates": [100.72729853190299, 13.800181530056157]}, "properties": {"id": 21361, "name": "บ้านหนังสือชุมชนรินทร์ทอง", "district": "มีนบุรี", "snapDistanceMeters": 36.56}}, {"type": "Feature", "geometry": {"type": "Point", "coordinates": [100.79145266607453, 13.814890487003044]}, "properties": {"id": 21667, "name": "ห้องเช่าชุมชนทองสงวน", "district": "มีนบุรี", "snapDistanceMeters": 23.96}}, {"type": "Feature", "geometry": {"type": "Point", "coordinates": [100.55278309310334, 13.747549966763959]}, "properties": {"id": 21415, "name": "ศูนย์สุขภาพชุมชน", "district": "วัฒนา", "snapDistanceMeters": 33.28}}, {"type": "Feature", "geometry": {"type": "Point", "coordinates": [100.72729853190299, 13.800181530056157]}, "properties": {"id": 21427, "name": "ศูนย์สุขภาพชุมชนหมู่บ้านรินทร์ทอง", "district": "มีนบุรี", "snapDistanceMeters": 27.52}}, {"type": "Feature", "geometry": {"type": "Point", "coordinates": [100.82138926629587, 13.758358714282812]}, "properties": {"id": 22268, "name": "ชุมชนหมู่บ้านพัฒนาหมู่ที่ 13 (ลำคูเวียง)", "district": "ลาดกระบัง", "snapDistanceMeters": 83.72}}, {"type": "Feature", "geometry": {"type": "Point", "coordinates": [100.77876545067694, 13.746928088866182]}, "properties": {"id": 21777, "name": "ชุมชนลำพุทรา", "district": "ลาดกระบัง", "snapDistanceMeters": 25.33}}, {"type": "Feature", "geometry": {"type": "Point", "coordinates": [100.71699673058933, 13.733225845693374]}, "properties": {"id": 22122, "name": "ชุมชนรักสามัคคี", "district": "ลาดกระบัง", "snapDistanceMeters": 45.96}}, {"type": "Feature", "geometry": {"type": "Point", "coordinates": [100.62131299566042, 13.677057274451249]}, "properties": {"id": 22327, "name": "ชุมชนพึ่งทรัพย์", "district": "บางนา", "snapDistanceMeters": 20.65}}, {"type": "Feature", "geometry": {"type": "Point", "coordinates": [100.61978837332282, 13.675270882504128]}, "properties": {"id": 22334, "name": "ที่ทำการประธานกรรมการชุมชนหมู่บ้านแสนสุข", "district": "บางนา", "snapDistanceMeters": 15.01}}, {"type": "Feature", "geometry": {"type": "Point", "coordinates": [100.6200375823927, 13.674006300868237]}, "properties": {"id": 22338, "name": "ที่ทำการชุมชนพึ่งทรัพย์", "district": "บางนา", "snapDistanceMeters": 9.48}}, {"type": "Feature", "geometry": {"type": "Point", "coordinates": [100.62554329903183, 13.735260220147776]}, "properties": {"id": 22367, "name": "ที่ทำการชุมชนเจริญพัฒนา-ถาวร", "district": "สวนหลวง", "snapDistanceMeters": 7.94}}, {"type": "Feature", "geometry": {"type": "Point", "coordinates": [100.61037299858828, 13.731291625126433]}, "properties": {"id": 21847, "name": "ชุมชนพัฒนาริมคลองบ้านป่า", "district": "สวนหลวง", "snapDistanceMeters": 8.77}}, {"type": "Feature", "geometry": {"type": "Point", "coordinates": [100.78024251447273, 13.823724425361771]}, "properties": {"id": 21267, "name": "ศูนย์เรียนรู้และป้องกันยาเสพติดชุมชนสุเหร่าบ้านเกาะ", "district": "มีนบุรี", "snapDistanceMeters": 11.68}}, {"type": "Feature", "geometry": {"type": "Point", "coordinates": [100.48128559025358, 13.739111665001781]}, "properties": {"id": 20286, "name": "ชุมชนข้างโรงเรียนสัมพันธ์วิทยา", "district": "บางกอกใหญ่", "snapDistanceMeters": 16.44}}, {"type": "Feature", "geometry": {"type": "Point", "coordinates": [100.47143873658273, 13.742038675741114]}, "properties": {"id": 20290, "name": "ศูนย์สุขภาพชุมชนสมบุญพัฒนา", "district": "บางกอกใหญ่", "snapDistanceMeters": 10.03}}, {"type": "Feature", "geometry": {"type": "Point", "coordinates": [100.65069688199186, 13.850264953000558]}, "properties": {"id": 20316, "name": "ศูนย์การเรียนชุมชนหมู่บ้านสุขใจวิลเลจ", "district": "บางเขน", "snapDistanceMeters": 18.78}}, {"type": "Feature", "geometry": {"type": "Point", "coordinates": [100.61647614440678, 13.940455299070933]}, "properties": {"id": 20318, "name": "ลานกีฬาต้านยาเสพติดชุมชนศุภลักษณ์", "district": "ดอนเมือง", "snapDistanceMeters": 21.05}}, {"type": "Feature", "geometry": {"type": "Point", "coordinates": [100.72978858760533, 13.80343640817887]}, "properties": {"id": 20629, "name": "ศาลาอเนกประสงค์เคหะชุมชนรามคำแหง", "district": "มีนบุรี", "snapDistanceMeters": 26.82}}, {"type": "Feature", "geometry": {"type": "Point", "coordinates": [100.75229701246863, 13.791842200268794]}, "properties": {"id": 20725, "name": "ลานกีฬาชุมชนอัลฮูดา", "district": "มีนบุรี", "snapDistanceMeters": 20.7}}, {"type": "Feature", "geometry": {"type": "Point", "coordinates": [100.50710258816581, 13.801527458580614]}, "properties": {"id": 20442, "name": "ศูนย์สุขภาพชุมชนร่วมใจสามัคคี", "district": "บางพลัด", "snapDistanceMeters": 17.9}}, {"type": "Feature", "geometry": {"type": "Point", "coordinates": [100.80312091400374, 13.850220535606267]}, "properties": {"id": 20767, "name": "ศูนย์การเรียนชุมชนวัดทรัพย์สโมสรนิกรเกษม", "district": "หนองจอก", "snapDistanceMeters": 29.4}}, {"type": "Feature", "geometry": {"type": "Point", "coordinates": [100.7286720286903, 13.810227577780962]}, "properties": {"id": 21010, "name": "ชุมชนมีนบุรีอุปถัมภ์", "district": "มีนบุรี", "snapDistanceMeters": 14.3}}, {"type": "Feature", "geometry": {"type": "Point", "coordinates": [100.48141610819779, 13.787406107878125]}, "properties": {"id": 20110, "name": "ชุมชนต้นมะพลับ", "district": "บางพลัด", "snapDistanceMeters": 5.43}}, {"type": "Feature", "geometry": {"type": "Point", "coordinates": [100.52272153064126, 13.749835917094526]}, "properties": {"id": 91283, "name": "ชุมชนบ้านครัวใต้", "district": "ปทุมวัน", "snapDistanceMeters": 29.06}}, {"type": "Feature", "geometry": {"type": "Point", "coordinates": [100.7461425430432, 13.825739776347053]}, "properties": {"id": 20509, "name": "ชุมชนคลองลำไผ่", "district": "มีนบุรี", "snapDistanceMeters": 18.12}}, {"type": "Feature", "geometry": {"type": "Point", "coordinates": [100.54330990723459, 13.69325428857459]}, "properties": {"id": 20596, "name": "ศูนย์คุ้มครองสวัสดิภาพชุมชนเขต 12", "district": "ยานนาวา", "snapDistanceMeters": 22.5}}, {"type": "Feature", "geometry": {"type": "Point", "coordinates": [100.72912420210683, 13.81048685370224]}, "properties": {"id": 21073, "name": "ห้องสมุดชุมชนมีนบุรีอุปถัมภ์", "district": "มีนบุรี", "snapDistanceMeters": 19.81}}, {"type": "Feature", "geometry": {"type": "Point", "coordinates": [100.74957893338286, 13.786072982335407]}, "properties": {"id": 20877, "name": "ศูนย์สุขภาพชุมชน", "district": "มีนบุรี", "snapDistanceMeters": 17.85}}, {"type": "Feature", "geometry": {"type": "Point", "coordinates": [100.481994439373, 13.732876929552996]}, "properties": {"id": 20152, "name": "ชุมชนมีนมณี", "district": "บางกอกใหญ่", "snapDistanceMeters": 18.46}}, {"type": "Feature", "geometry": {"type": "Point", "coordinates": [100.48601537598013, 13.734756524380554]}, "properties": {"id": 20155, "name": "ชุมชนตรอกกรจก", "district": "บางกอกใหญ่", "snapDistanceMeters": 5.96}}, {"type": "Feature", "geometry": {"type": "Point", "coordinates": [100.57061232180789, 13.775892119792477]}, "properties": {"id": 21141, "name": "ลานอเนกประสงค์แฟลต 35 เคหะชุมชนห้วยขวาง", "district": "ดินแดง", "snapDistanceMeters": 39.12}}, {"type": "Feature", "geometry": {"type": "Point", "coordinates": [100.59560588108504, 13.919789267950238]}, "properties": {"id": 92889, "name": "ชุมชนเสริมปรีดี", "district": "ดอนเมือง", "snapDistanceMeters": 9.84}}, {"type": "Feature", "geometry": {"type": "Point", "coordinates": [100.46326069371948, 13.731998387281003]}, "properties": {"id": 20142, "name": "ชุมชนปลายซอยศักดิ์เจริญ", "district": "บางกอกใหญ่", "snapDistanceMeters": 31.11}}, {"type": "Feature", "geometry": {"type": "Point", "coordinates": [100.49457944740588, 13.637666528460654]}, "properties": {"id": 90938, "name": "ศูนย์สุขภาพชุมชน", "district": "ทุ่งครุ", "snapDistanceMeters": 11.63}}, {"type": "Feature", "geometry": {"type": "Point", "coordinates": [100.49378339687843, 13.63824532751765]}, "properties": {"id": 90941, "name": "ชุมชนร่วมรัฐสามัคคี (ดอนกระต่าย)", "district": "ทุ่งครุ", "snapDistanceMeters": 13.5}}, {"type": "Feature", "geometry": {"type": "Point", "coordinates": [100.49378339687843, 13.63824532751765]}, "properties": {"id": 90942, "name": "ศูนย์เรียนรู้พัฒนาเยาวชนในชุมชน", "district": "ทุ่งครุ", "snapDistanceMeters": 14.1}}, {"type": "Feature", "geometry": {"type": "Point", "coordinates": [100.4042323730263, 13.705570513625856]}, "properties": {"id": 90381, "name": "ชุมชนเขม้นงานหมู่ที่ 5", "district": "บางแค", "snapDistanceMeters": 38.21}}, {"type": "Feature", "geometry": {"type": "Point", "coordinates": [100.4454810237977, 13.678554886289662]}, "properties": {"id": 91075, "name": "ชุมชนวัดกำแพง", "district": "บางขุนเทียน", "snapDistanceMeters": 19.84}}, {"type": "Feature", "geometry": {"type": "Point", "coordinates": [100.6328344750389, 13.845379898799104]}, "properties": {"id": 90947, "name": "ที่ทำการตำรวจชุมชนแขวงคลองกุ่มสถานีตำรวจนครบาลโคกคราม", "district": "บางเขน", "snapDistanceMeters": 9.28}}, {"type": "Feature", "geometry": {"type": "Point", "coordinates": [100.63146879272254, 13.847279917667418]}, "properties": {"id": 90415, "name": "ชุมชนหมู่บ้านเก้าแสน 2", "district": "บางเขน", "snapDistanceMeters": 7.34}}, {"type": "Feature", "geometry": {"type": "Point", "coordinates": [100.64136190943576, 13.831362395106499]}, "properties": {"id": 91002, "name": "ชุมชนดงชอง", "district": "บึงกุ่ม", "snapDistanceMeters": 16.3}}, {"type": "Feature", "geometry": {"type": "Point", "coordinates": [100.47158828285907, 13.68675942162839]}, "properties": {"id": 91058, "name": "ชุมชนทิพย์สุวรรณ", "district": "จอมทอง", "snapDistanceMeters": 31.0}}, {"type": "Feature", "geometry": {"type": "Point", "coordinates": [100.67352017491879, 13.811545522029807]}, "properties": {"id": 29838, "name": "ศูนย์เด็กเล็กชุมชนเกาะแครายพัฒนา", "district": "คันนายาว", "snapDistanceMeters": 40.69}}, {"type": "Feature", "geometry": {"type": "Point", "coordinates": [100.50442648759162, 13.614538424754315]}, "properties": {"id": 29847, "name": "ศูนย์การเรียนรู้กลุ่มพัฒนาชุมชนใต้สะพาน (โซน 1)", "district": "ทุ่งครุ", "snapDistanceMeters": 15.13}}, {"type": "Feature", "geometry": {"type": "Point", "coordinates": [100.39988329639122, 13.631227979674499]}, "properties": {"id": 91199, "name": "ชุมชนเภสัชกร", "district": "บางขุนเทียน", "snapDistanceMeters": 25.1}}, {"type": "Feature", "geometry": {"type": "Point", "coordinates": [100.43841299042309, 13.724921352294993]}, "properties": {"id": 29395, "name": "ที่ทำการชุมชนจันทร์รวมใจ", "district": "ภาษีเจริญ", "snapDistanceMeters": 19.06}}, {"type": "Feature", "geometry": {"type": "Point", "coordinates": [100.43276633055238, 13.727947222890418]}, "properties": {"id": 29398, "name": "ศูนย์สุขภาพชุมชน", "district": "ภาษีเจริญ", "snapDistanceMeters": 9.18}}, {"type": "Feature", "geometry": {"type": "Point", "coordinates": [100.6878053953913, 13.807954109640376]}, "properties": {"id": 29993, "name": "ศูนย์สุขภาพชุมชน", "district": "คันนายาว", "snapDistanceMeters": 15.24}}, {"type": "Feature", "geometry": {"type": "Point", "coordinates": [100.68524315244854, 13.810290678455056]}, "properties": {"id": 30065, "name": "ศูนย์สุขภาพชุมชน", "district": "คันนายาว", "snapDistanceMeters": 16.95}}, {"type": "Feature", "geometry": {"type": "Point", "coordinates": [100.65358848393622, 13.787794152261212]}, "properties": {"id": 29459, "name": "ศูนย์สุขภาพชุมชนสามัคคีพัฒนา", "district": "บึงกุ่ม", "snapDistanceMeters": 14.55}}, {"type": "Feature", "geometry": {"type": "Point", "coordinates": [100.5101770664171, 13.678764337831769]}, "properties": {"id": 29220, "name": "ศูนย์สุขภาพชุมชนเบอร์ลี่", "district": "ราษฎร์บูรณะ", "snapDistanceMeters": 11.86}}, {"type": "Feature", "geometry": {"type": "Point", "coordinates": [100.67773436792162, 13.836657538121816]}, "properties": {"id": 29774, "name": "ศูนย์สุขภาพชุมชน", "district": "คันนายาว", "snapDistanceMeters": 17.81}}, {"type": "Feature", "geometry": {"type": "Point", "coordinates": [100.55196968028594, 13.727851311569127]}, "properties": {"id": 90816, "name": "แฟลตเคหะชุมชนบ่อนไก่", "district": "ปทุมวัน", "snapDistanceMeters": 40.53}}, {"type": "Feature", "geometry": {"type": "Point", "coordinates": [100.51551818205579, 13.726300325432401]}, "properties": {"id": 90761, "name": "ศูนย์รับแจ้งเหตุและบริการครอบครัวในชุมชน", "district": "บางรัก", "snapDistanceMeters": 5.53}}, {"type": "Feature", "geometry": {"type": "Point", "coordinates": [100.51424414738793, 13.72625018986993]}, "properties": {"id": 90764, "name": "ศูนย์การเรียนชุมชนวัดม่วงแคศูนย์บริการการศึกษานอกโรงเรียนเขตบางรัก", "district": "บางรัก", "snapDistanceMeters": 13.96}}, {"type": "Feature", "geometry": {"type": "Point", "coordinates": [100.63612558308967, 13.76549669462446]}, "properties": {"id": 16731, "name": "ชุมชนวัดกลาง", "district": "บางกะปิ", "snapDistanceMeters": 16.4}}, {"type": "Feature", "geometry": {"type": "Point", "coordinates": [100.53808284327602, 13.748382825450554]}, "properties": {"id": 91152, "name": "ชุมชนวัดปทุมวนาราม", "district": "ปทุมวัน", "snapDistanceMeters": 84.35}}, {"type": "Feature", "geometry": {"type": "Point", "coordinates": [100.54778699329995, 13.731578629974893]}, "properties": {"id": 91379, "name": "ศูนย์สุขภาพชุมชน (ซอยพระเจน)", "district": "ปทุมวัน", "snapDistanceMeters": 8.55}}, {"type": "Feature", "geometry": {"type": "Point", "coordinates": [100.5472828708111, 13.73013589363691]}, "properties": {"id": 91382, "name": "ศูนย์สงเคราะห์ราษฎรประจำชุมชนซอยพระเจน", "district": "ปทุมวัน", "snapDistanceMeters": 7.07}}, {"type": "Feature", "geometry": {"type": "Point", "coordinates": [100.5472030882746, 13.730133711726912]}, "properties": {"id": 91383, "name": "ที่ทำการสำนักงานกลุ่มสัจจะออมทรัพย์ชุมชนซอยพระเจน", "district": "ปทุมวัน", "snapDistanceMeters": 6.72}}, {"type": "Feature", "geometry": {"type": "Point", "coordinates": [100.3455977176127, 13.690894441862122]}, "properties": {"id": 29393, "name": "ลานกีฬากรุงเทพมหานครชุมชนหรรษา 1", "district": "หนองแขม", "snapDistanceMeters": 16.4}}, {"type": "Feature", "geometry": {"type": "Point", "coordinates": [100.51609078033192, 13.619745615325066]}, "properties": {"id": 29978, "name": "ที่ทำการตำรวจชุมชนหมู่ที่ 6 ทุ่งครุ (โชคชนะ)", "district": "ทุ่งครุ", "snapDistanceMeters": 22.41}}, {"type": "Feature", "geometry": {"type": "Point", "coordinates": [100.45374155856175, 13.772607559876857]}, "properties": {"id": 15642, "name": "ชุมชนวัดช่างเหล็ก-วัดเรไร", "district": "ตลิ่งชัน", "snapDistanceMeters": 9.87}}, {"type": "Feature", "geometry": {"type": "Point", "coordinates": [100.64968385941481, 13.74685343910713]}, "properties": {"id": 16940, "name": "ชุมชนซอยคาราบาว", "district": "บางกะปิ", "snapDistanceMeters": 17.81}}, {"type": "Feature", "geometry": {"type": "Point", "coordinates": [100.53170182402938, 13.687560699343036]}, "properties": {"id": 15343, "name": "ชุมชนบ้วนฮั้ว", "district": "ยานนาวา", "snapDistanceMeters": 8.93}}, {"type": "Feature", "geometry": {"type": "Point", "coordinates": [100.65488965345386, 13.75500736157144]}, "properties": {"id": 16479, "name": "ลานกีฬาชุมชนมัจฉา", "district": "บางกะปิ", "snapDistanceMeters": 21.14}}, {"type": "Feature", "geometry": {"type": "Point", "coordinates": [100.64978656351413, 13.746758935179733]}, "properties": {"id": 16900, "name": "สนามเด็กเล่นชุมชนซอยคาราบาว", "district": "บางกะปิ", "snapDistanceMeters": 10.6}}, {"type": "Feature", "geometry": {"type": "Point", "coordinates": [100.60514545623717, 13.765579798247098]}, "properties": {"id": 16929, "name": "สหกรณ์เคหสถานชุมชนน้อมเกล้า จำกัด", "district": "วังทองหลาง", "snapDistanceMeters": 11.1}}, {"type": "Feature", "geometry": {"type": "Point", "coordinates": [100.59789700367492, 13.829727369889248]}, "properties": {"id": 16011, "name": "บ้านหนังสือกรุงเทพมหานครชุมชนหมู่บ้านซอยอมรพันธ์ 9", "district": "ลาดพร้าว", "snapDistanceMeters": 13.63}}, {"type": "Feature", "geometry": {"type": "Point", "coordinates": [100.60242672187489, 13.765796895416536]}, "properties": {"id": 16994, "name": "ศูนย์คุ้มครองสวัสดิภาพชุมชนเขต 45 วังทองหลาง", "district": "วังทองหลาง", "snapDistanceMeters": 13.13}}, {"type": "Feature", "geometry": {"type": "Point", "coordinates": [100.46730532761987, 13.792191280116489]}, "properties": {"id": 15306, "name": "ลานกีฬาชุมชนวัดน้อยใน", "district": "ตลิ่งชัน", "snapDistanceMeters": 43.63}}, {"type": "Feature", "geometry": {"type": "Point", "coordinates": [100.42420838522769, 13.781675805396311]}, "properties": {"id": 16056, "name": "ศูนย์คุ้มครองสวัสดิภาพชุมชนเขต 19 ตลิ่งชัน", "district": "ตลิ่งชัน", "snapDistanceMeters": 16.92}}, {"type": "Feature", "geometry": {"type": "Point", "coordinates": [100.42795003457387, 13.679816365138887]}, "properties": {"id": 90847, "name": "ชุมชนหมู่บ้านบางบอนวิลล่า", "district": "บางบอน", "snapDistanceMeters": 26.79}}, {"type": "Feature", "geometry": {"type": "Point", "coordinates": [100.51947334905213, 13.754865203851486]}, "properties": {"id": 37577, "name": "ศูนย์สุขภาพชุมชนชุมชนหลังบ้านมนังคศิลา", "district": "ดุสิต", "snapDistanceMeters": 9.42}}, {"type": "Feature", "geometry": {"type": "Point", "coordinates": [100.59942206692915, 13.805620516200102]}, "properties": {"id": 29364, "name": "ศูนย์สุขภาพชุมชน", "district": "ลาดพร้าว", "snapDistanceMeters": 19.22}}, {"type": "Feature", "geometry": {"type": "Point", "coordinates": [100.65025813200357, 13.732970930316826]}, "properties": {"id": 37654, "name": "ลานกีฬากรุงเทพมหานครชุมชนหมู่บ้านเมืองทอง 2/3", "district": "สวนหลวง", "snapDistanceMeters": 24.7}}, {"type": "Feature", "geometry": {"type": "Point", "coordinates": [100.452440911933, 13.742952138832225]}, "properties": {"id": 15741, "name": "ศูนย์สุขภาพชุมชนวัดเกาะ", "district": "ตลิ่งชัน", "snapDistanceMeters": 10.37}}, {"type": "Feature", "geometry": {"type": "Point", "coordinates": [100.44133630472125, 13.773724125007476]}, "properties": {"id": 15545, "name": "ลานกีฬาชุมชนวัดทองบางระมาด", "district": "ตลิ่งชัน", "snapDistanceMeters": 8.99}}, {"type": "Feature", "geometry": {"type": "Point", "coordinates": [100.44484728527871, 13.773029930908542]}, "properties": {"id": 15547, "name": "ชุมชนวัดสมรโกฏิ-บางระจัน", "district": "ตลิ่งชัน", "snapDistanceMeters": 14.25}}, {"type": "Feature", "geometry": {"type": "Point", "coordinates": [100.45316504860665, 13.771191251343268]}, "properties": {"id": 15631, "name": "ศูนย์สุขภาพชุมชน", "district": "ตลิ่งชัน", "snapDistanceMeters": 33.55}}, {"type": "Feature", "geometry": {"type": "Point", "coordinates": [100.51785073506622, 13.780191395459745]}, "properties": {"id": 36927, "name": "ชุมชนตรอกต้นโพธิ์", "district": "ดุสิต", "snapDistanceMeters": 28.69}}, {"type": "Feature", "geometry": {"type": "Point", "coordinates": [100.74545034332904, 13.734236012454726]}, "properties": {"id": 30126, "name": "ศูนย์สุขภาพชุมชนหมู่บ้านรุ่งกิจวิลล่า", "district": "ลาดกระบัง", "snapDistanceMeters": 20.17}}, {"type": "Feature", "geometry": {"type": "Point", "coordinates": [100.52927552789933, 13.686519650293615]}, "properties": {"id": 37874, "name": "ศูนย์สุขภาพชุมชนเกษรน้อมจิต", "district": "ยานนาวา", "snapDistanceMeters": 3.73}}, {"type": "Feature", "geometry": {"type": "Point", "coordinates": [100.73159127871486, 13.767868462189561]}, "properties": {"id": 30278, "name": "ศูนย์สุขภาพชุมชนโซน 3", "district": "ลาดกระบัง", "snapDistanceMeters": 21.38}}, {"type": "Feature", "geometry": {"type": "Point", "coordinates": [100.51785073506622, 13.780191395459745]}, "properties": {"id": 36928, "name": "ศูนย์สุขภาพชุมชนชุมชนตรอกต้นโพธิ์", "district": "ดุสิต", "snapDistanceMeters": 34.19}}, {"type": "Feature", "geometry": {"type": "Point", "coordinates": [100.51728956843505, 13.780222810792297]}, "properties": {"id": 36929, "name": "อาคารอเนกประสงค์ชุมชนตรอกต้นโพธิ์", "district": "ดุสิต", "snapDistanceMeters": 15.21}}, {"type": "Feature", "geometry": {"type": "Point", "coordinates": [100.73715688933471, 13.762095672170782]}, "properties": {"id": 30134, "name": "ลานกีฬากรุงเทพมหานครเคหะชุมชนร่มเกล้าระยะ 2 โซน 9", "district": "ลาดกระบัง", "snapDistanceMeters": 14.07}}, {"type": "Feature", "geometry": {"type": "Point", "coordinates": [100.6890248381419, 13.800859717870512]}, "properties": {"id": 30211, "name": "ชุมชนหมู่บ้านอมรพันธ์นครเสรีไทย", "district": "คันนายาว", "snapDistanceMeters": 27.99}}, {"type": "Feature", "geometry": {"type": "Point", "coordinates": [100.49987346738156, 13.764825381110182]}, "properties": {"id": 37245, "name": "ชุมชนยา", "district": "พระนคร", "snapDistanceMeters": 27.63}}, {"type": "Feature", "geometry": {"type": "Point", "coordinates": [100.61548755032783, 13.699114622959152]}, "properties": {"id": 36993, "name": "ศูนย์รับแจ้งเหตุและบริการครอบครัวชุมชนสุขุมวิท 93", "district": "พระโขนง", "snapDistanceMeters": 9.46}}, {"type": "Feature", "geometry": {"type": "Point", "coordinates": [100.51564138593105, 13.780906542539364]}, "properties": {"id": 36995, "name": "ศูนย์สุขภาพชุมชนชุมชนวัดสวัสดิ์วารีสีมาราม", "district": "ดุสิต", "snapDistanceMeters": 13.48}}, {"type": "Feature", "geometry": {"type": "Point", "coordinates": [100.52303427601149, 13.778491554952149]}, "properties": {"id": 37934, "name": "ชุมชนซอยดุสิตคอนโดมิเนียม", "district": "ดุสิต", "snapDistanceMeters": 9.89}}, {"type": "Feature", "geometry": {"type": "Point", "coordinates": [100.79017719252289, 13.81703361446594]}, "properties": {"id": 29626, "name": "ศูนย์สุขภาพชุมชนชุมชนทองสงวน", "district": "มีนบุรี", "snapDistanceMeters": 13.38}}, {"type": "Feature", "geometry": {"type": "Point", "coordinates": [100.5014065936114, 13.653497010304786]}, "properties": {"id": 29379, "name": "ศูนย์สุขภาพชุมชนมติมิตร", "district": "ทุ่งครุ", "snapDistanceMeters": 3.27}}, {"type": "Feature", "geometry": {"type": "Point", "coordinates": [100.73134971564944, 13.768274911367028]}, "properties": {"id": 30199, "name": "ลานกีฬากรุงเทพมหานครเคหะชุมชนร่มเกล้าโซน 3", "district": "ลาดกระบัง", "snapDistanceMeters": 18.72}}, {"type": "Feature", "geometry": {"type": "Point", "coordinates": [100.46473595355002, 13.793151763056843]}, "properties": {"id": 15459, "name": "ชุมชนซอยพฤกษ์อุดม-วัดน้อยใน", "district": "ตลิ่งชัน", "snapDistanceMeters": 10.56}}, {"type": "Feature", "geometry": {"type": "Point", "coordinates": [100.61611702738305, 13.703666176781493]}, "properties": {"id": 37332, "name": "ชุมชนเริกเที่ยง", "district": "พระโขนง", "snapDistanceMeters": 7.15}}, {"type": "Feature", "geometry": {"type": "Point", "coordinates": [100.6493993471058, 13.73684678579959]}, "properties": {"id": 37648, "name": "ลานกีฬากรุงเทพมหานครชุมชนหมู่บ้านเมืองทอง 2/3", "district": "สวนหลวง", "snapDistanceMeters": 18.46}}, {"type": "Feature", "geometry": {"type": "Point", "coordinates": [100.48882513223201, 13.753663379236244]}, "properties": {"id": 36788, "name": "ชุมชนท่าวัง", "district": "พระนคร", "snapDistanceMeters": 21.34}}, {"type": "Feature", "geometry": {"type": "Point", "coordinates": [100.64447646291524, 13.714945019785231]}, "properties": {"id": 35786, "name": "ศูนย์เด็กปฐมวัยชุมชนโมราวรรณ", "district": "สวนหลวง", "snapDistanceMeters": 13.29}}, {"type": "Feature", "geometry": {"type": "Point", "coordinates": [100.3342059577662, 13.698470938100298]}, "properties": {"id": 28975, "name": "ศาลาร่วมใจชุมชนสร้อยมาลา", "district": "หนองแขม", "snapDistanceMeters": 11.0}}, {"type": "Feature", "geometry": {"type": "Point", "coordinates": [100.7361614063667, 13.760596443585504]}, "properties": {"id": 30191, "name": "ลานกีฬากรุงเทพมหานครชุมชนฟื้นนครร่มเกล้าระยะ 4 โซน 10", "district": "ลาดกระบัง", "snapDistanceMeters": 12.34}}, {"type": "Feature", "geometry": {"type": "Point", "coordinates": [100.4209729040307, 13.7775614472452]}, "properties": {"id": 29327, "name": "ที่ทำการสำนักงานชุมชนบ้านไทร", "district": "ตลิ่งชัน", "snapDistanceMeters": 9.39}}, {"type": "Feature", "geometry": {"type": "Point", "coordinates": [100.49052628616678, 13.668003740560424]}, "properties": {"id": 29517, "name": "ศูนย์สุขภาพชุมชน", "district": "ราษฎร์บูรณะ", "snapDistanceMeters": 9.24}}, {"type": "Feature", "geometry": {"type": "Point", "coordinates": [100.66774053757636, 13.710391882781732]}, "properties": {"id": 29648, "name": "ศูนย์ยุติธรรมชุมชนพัฒนาศาลาลอย", "district": "ประเวศ", "snapDistanceMeters": 12.8}}, {"type": "Feature", "geometry": {"type": "Point", "coordinates": [100.73160498813498, 13.770764925252381]}, "properties": {"id": 30282, "name": "ลานกีฬากรุงเทพมหานครเคหะชุมชนร่มเกล้าโซน 2", "district": "ลาดกระบัง", "snapDistanceMeters": 20.01}}, {"type": "Feature", "geometry": {"type": "Point", "coordinates": [100.35628247705583, 13.69360710355434]}, "properties": {"id": 28648, "name": "สถาบันการเงินชุมชนสวัสดิการหนองแขม", "district": "หนองแขม", "snapDistanceMeters": 9.81}}, {"type": "Feature", "geometry": {"type": "Point", "coordinates": [100.3559563208462, 13.693679927634786]}, "properties": {"id": 28649, "name": "บ้านหนังสือกรุงเทพมหานครชุมชนสวัสดิการหนองแขม", "district": "หนองแขม", "snapDistanceMeters": 16.81}}, {"type": "Feature", "geometry": {"type": "Point", "coordinates": [100.3888978727927, 13.724587761165418]}, "properties": {"id": 29782, "name": "ชุมชนชมเดือน", "district": "บางแค", "snapDistanceMeters": 14.5}}, {"type": "Feature", "geometry": {"type": "Point", "coordinates": [100.66920440737934, 13.790571391362011]}, "properties": {"id": 28656, "name": "ศาลาร่วมใจชุมชนนวกานต์", "district": "บึงกุ่ม", "snapDistanceMeters": 15.59}}, {"type": "Feature", "geometry": {"type": "Point", "coordinates": [100.68708274737756, 13.794301082560466]}, "properties": {"id": 30004, "name": "ศูนย์เด็กเล็กชุมชนวิมานสุข", "district": "คันนายาว", "snapDistanceMeters": 10.94}}, {"type": "Feature", "geometry": {"type": "Point", "coordinates": [100.64011672442118, 13.816108474929202]}, "properties": {"id": 28337, "name": "ชุมชนซอยแจ่มจันทร์", "district": "บึงกุ่ม", "snapDistanceMeters": 16.53}}, {"type": "Feature", "geometry": {"type": "Point", "coordinates": [100.69194499008283, 13.798093675948133]}, "properties": {"id": 29426, "name": "ชุมชนหมู่บ้านอมรพันธ์นคร", "district": "คันนายาว", "snapDistanceMeters": 35.46}}, {"type": "Feature", "geometry": {"type": "Point", "coordinates": [100.73813210599315, 13.724293406340252]}, "properties": {"id": 30047, "name": "ศูนย์สุขภาพชุมชนชุมชนวัดสังฆราชา", "district": "ลาดกระบัง", "snapDistanceMeters": 12.61}}, {"type": "Feature", "geometry": {"type": "Point", "coordinates": [100.73696146879772, 13.768744427307688]}, "properties": {"id": 30049, "name": "ลานกีฬากรุงเทพมหานครชุมชนฟื้นนครร่มเกล้าระยะ 5 โซน 11", "district": "ลาดกระบัง", "snapDistanceMeters": 38.1}}, {"type": "Feature", "geometry": {"type": "Point", "coordinates": [100.34316105135983, 13.713306985204184]}, "properties": {"id": 29702, "name": "ชุมชนเพชรเกษม 110 แยก 5", "district": "หนองแขม", "snapDistanceMeters": 25.83}}, {"type": "Feature", "geometry": {"type": "Point", "coordinates": [100.81695275240565, 13.717367585276827]}, "properties": {"id": 30031, "name": "สถาบันการเงินชุมชนวัดพลมานีย์", "district": "ลาดกระบัง", "snapDistanceMeters": 22.71}}, {"type": "Feature", "geometry": {"type": "Point", "coordinates": [100.84425236842505, 13.704658323929518]}, "properties": {"id": 30032, "name": "ศูนย์พัฒนาเด็กก่อนวัยเรียนชุมชนดารุลมุกีมอุปถัมภ์", "district": "ลาดกระบัง", "snapDistanceMeters": 61.53}}, {"type": "Feature", "geometry": {"type": "Point", "coordinates": [100.73683537135899, 13.762103739391659]}, "properties": {"id": 29707, "name": "ศูนย์พัฒนาเด็กก่อนวัยเรียนชุมชนฟื้นนครร่มเกล้าระยะ 2 โซน 9", "district": "ลาดกระบัง", "snapDistanceMeters": 13.98}}, {"type": "Feature", "geometry": {"type": "Point", "coordinates": [100.68485958642589, 13.79534383205522]}, "properties": {"id": 30005, "name": "ที่ทำการชุมชน", "district": "คันนายาว", "snapDistanceMeters": 7.11}}, {"type": "Feature", "geometry": {"type": "Point", "coordinates": [100.59476638040472, 13.921154863270068]}, "properties": {"id": 28901, "name": "ชุมชนหมู่บ้านแอร์พอร์ตวิลเลจ", "district": "ดอนเมือง", "snapDistanceMeters": 23.15}}, {"type": "Feature", "geometry": {"type": "Point", "coordinates": [100.58827385082387, 13.921686215898362]}, "properties": {"id": 28903, "name": "ชุมชนหมู่บ้านพลอยไพลิน", "district": "ดอนเมือง", "snapDistanceMeters": 16.74}}, {"type": "Feature", "geometry": {"type": "Point", "coordinates": [100.58399455125719, 13.903500998289832]}, "properties": {"id": 28997, "name": "ที่ทำการประธานผู้สูงอายุชุมชนโกสุมรวมใจ 3", "district": "ดอนเมือง", "snapDistanceMeters": 14.99}}, {"type": "Feature", "geometry": {"type": "Point", "coordinates": [100.50895050730263, 13.620336294464762]}, "properties": {"id": 29756, "name": "ชุมชนหมู่ที่ 3 (วัดทุ่งครุ)", "district": "ทุ่งครุ", "snapDistanceMeters": 12.11}}, {"type": "Feature", "geometry": {"type": "Point", "coordinates": [100.72538494404927, 13.730960265393055]}, "properties": {"id": 30171, "name": "ชุมชนคลองหนึ่ง", "district": "ลาดกระบัง", "snapDistanceMeters": 29.78}}, {"type": "Feature", "geometry": {"type": "Point", "coordinates": [100.66774053757636, 13.710391882781732]}, "properties": {"id": 29710, "name": "สถาบันการเงินชุมชนชุมชนหมู่บ้านพัฒนาศาลาลอย", "district": "ประเวศ", "snapDistanceMeters": 8.32}}, {"type": "Feature", "geometry": {"type": "Point", "coordinates": [100.66738246566456, 13.710511943665821]}, "properties": {"id": 29711, "name": "ธนาคารความดีชุมชนพัฒนาศาลาลอย", "district": "ประเวศ", "snapDistanceMeters": 17.1}}, {"type": "Feature", "geometry": {"type": "Point", "coordinates": [100.58826266885457, 13.802315997820303]}, "properties": {"id": 15434, "name": "ชุมชนริมคลองบางซื่อลาดพร้าว 45", "district": "ห้วยขวาง", "snapDistanceMeters": 8.74}}, {"type": "Feature", "geometry": {"type": "Point", "coordinates": [100.51362377670463, 13.733309572224998]}, "properties": {"id": 15586, "name": "ชุมชนวานิชสัมพันธ์", "district": "สัมพันธวงค์", "snapDistanceMeters": 12.11}}, {"type": "Feature", "geometry": {"type": "Point", "coordinates": [100.43118900622787, 13.60713972162751]}, "properties": {"id": 28277, "name": "ที่ทำการชุมชนวงแหวนทวีสุข", "district": "บางขุนเทียน", "snapDistanceMeters": 22.3}}, {"type": "Feature", "geometry": {"type": "Point", "coordinates": [100.52696488662933, 13.77445940198679]}, "properties": {"id": 38057, "name": "ศูนย์ยุติธรรมชุมชนสุคันธาราม", "district": "ดุสิต", "snapDistanceMeters": 50.02}}, {"type": "Feature", "geometry": {"type": "Point", "coordinates": [100.73028768937685, 13.7597258799478]}, "properties": {"id": 133280, "name": "เคหะชุมชนร่มเกล้า อาคาร 29", "district": "ลาดกระบัง", "snapDistanceMeters": 46.38}}, {"type": "Feature", "geometry": {"type": "Point", "coordinates": [100.66985524107486, 13.74853267501602]}, "properties": {"id": 132961, "name": "สะพานชุมชนวังใหญ่", "district": "บางกะปิ", "snapDistanceMeters": 2.66}}, {"type": "Feature", "geometry": {"type": "Point", "coordinates": [100.7270746879601, 13.76277887150631]}, "properties": {"id": 133281, "name": "เคหะชุมชนร่มเกล้า อาคาร 3", "district": "ลาดกระบัง", "snapDistanceMeters": 59.81}}, {"type": "Feature", "geometry": {"type": "Point", "coordinates": [100.72957062272144, 13.759400033793968]}, "properties": {"id": 133282, "name": "เคหะชุมชนร่มเกล้า อาคาร 30", "district": "ลาดกระบัง", "snapDistanceMeters": 21.93}}, {"type": "Feature", "geometry": {"type": "Point", "coordinates": [100.72914837072254, 13.75940439780519]}, "properties": {"id": 133283, "name": "เคหะชุมชนร่มเกล้า อาคาร 31", "district": "ลาดกระบัง", "snapDistanceMeters": 42.22}}, {"type": "Feature", "geometry": {"type": "Point", "coordinates": [100.7293626609075, 13.758612887412239]}, "properties": {"id": 133284, "name": "เคหะชุมชนร่มเกล้า อาคาร 32", "district": "ลาดกระบัง", "snapDistanceMeters": 15.85}}, {"type": "Feature", "geometry": {"type": "Point", "coordinates": [100.72872617871845, 13.758362778365882]}, "properties": {"id": 133285, "name": "เคหะชุมชนร่มเกล้า อาคาร 33", "district": "ลาดกระบัง", "snapDistanceMeters": 34.26}}, {"type": "Feature", "geometry": {"type": "Point", "coordinates": [100.61326453163583, 13.898979024954409]}, "properties": {"id": 28543, "name": "ชุมชนรวมมิตรสัมพันธ์", "district": "สายไหม", "snapDistanceMeters": 36.52}}, {"type": "Feature", "geometry": {"type": "Point", "coordinates": [100.42266135798127, 13.646693083381267]}, "properties": {"id": 132165, "name": "หมู่บ้านเคหะชุมชนธนบุรี 1 ส่วนที่ 1", "district": "บางขุนเทียน", "snapDistanceMeters": 17.51}}, {"type": "Feature", "geometry": {"type": "Point", "coordinates": [100.61657069615109, 13.900536224048256]}, "properties": {"id": 28548, "name": "ชุมชนเธียรสวนพัฒนา 33", "district": "สายไหม", "snapDistanceMeters": 21.1}}, {"type": "Feature", "geometry": {"type": "Point", "coordinates": [100.62269995870679, 13.895657183388968]}, "properties": {"id": 28626, "name": "ชุมชนหมู่บ้านณัฐกานต์ 3,5", "district": "สายไหม", "snapDistanceMeters": 24.22}}, {"type": "Feature", "geometry": {"type": "Point", "coordinates": [100.61774972619452, 13.8429070326005]}, "properties": {"id": 28628, "name": "บ้านหนังสือกรุงเทพมหานครชุมชนหมู่บ้านธันยกานต์มัยลาภ", "district": "ลาดพร้าว", "snapDistanceMeters": 14.0}}, {"type": "Feature", "geometry": {"type": "Point", "coordinates": [100.61818234843507, 13.903456343704061]}, "properties": {"id": 28550, "name": "ชุมชนหมู่บ้าน ก.ส.บ. หมู่ที่ 5", "district": "สายไหม", "snapDistanceMeters": 22.67}}, {"type": "Feature", "geometry": {"type": "Point", "coordinates": [100.34168660330744, 13.703467374304847]}, "properties": {"id": 28809, "name": "ชุมชนหลังศูนย์การค้าหนองแขมหมู่ที่ 2", "district": "หนองแขม", "snapDistanceMeters": 20.96}}, {"type": "Feature", "geometry": {"type": "Point", "coordinates": [100.50417163838065, 13.780117867114743]}, "properties": {"id": 131357, "name": "ชุมชนราชผาทับทิมร่วมใจ", "district": "ดุสิต", "snapDistanceMeters": 48.31}}, {"type": "Feature", "geometry": {"type": "Point", "coordinates": [100.78727947042597, 13.87245371283523]}, "properties": {"id": 132210, "name": "ชุมชนลอยมา", "district": "คลองสามวา", "snapDistanceMeters": 20.32}}, {"type": "Feature", "geometry": {"type": "Point", "coordinates": [100.41259087553829, 13.793137541588669]}, "properties": {"id": 132148, "name": "ชุมชนหมู่บ้านพัฒนาหมู่ที่ 7", "district": "ตลิ่งชัน", "snapDistanceMeters": 10.92}}, {"type": "Feature", "geometry": {"type": "Point", "coordinates": [100.52256068005585, 13.762068876945158]}, "properties": {"id": 132153, "name": "ชุมชนป้าย 7", "district": "ดุสิต", "snapDistanceMeters": 47.32}}, {"type": "Feature", "geometry": {"type": "Point", "coordinates": [100.6318890526566, 13.704293826831089]}, "properties": {"id": 37441, "name": "ชุมชนหวานใจ (อ่อนนุช 44)", "district": "สวนหลวง", "snapDistanceMeters": 21.58}}, {"type": "Feature", "geometry": {"type": "Point", "coordinates": [100.58131281488834, 13.79817159807239]}, "properties": {"id": 132155, "name": "ชุมชนริมคลองบางซื่อรัชดาภิเษก", "district": "ห้วยขวาง", "snapDistanceMeters": 42.49}}, {"type": "Feature", "geometry": {"type": "Point", "coordinates": [100.3366401209452, 13.689129652425478]}, "properties": {"id": 28171, "name": "ลานกีฬากรุงเทพมหานครชุมชนหมู่บ้านพุดตาน", "district": "หนองแขม", "snapDistanceMeters": 12.1}}, {"type": "Feature", "geometry": {"type": "Point", "coordinates": [100.51560667843083, 13.785782715101389]}, "properties": {"id": 37778, "name": "ศูนย์สุขภาพชุมชน", "district": "ดุสิต", "snapDistanceMeters": 26.67}}, {"type": "Feature", "geometry": {"type": "Point", "coordinates": [100.68498589987232, 13.924234924818334]}, "properties": {"id": 28425, "name": "ศูนย์สุขภาพชุมชนอัมรินทร์ 3 ผัง 2", "district": "สายไหม", "snapDistanceMeters": 13.52}}, {"type": "Feature", "geometry": {"type": "Point", "coordinates": [100.35089196281669, 13.706005748134986]}, "properties": {"id": 28182, "name": "บ้านยาชุมชน", "district": "หนองแขม", "snapDistanceMeters": 41.38}}, {"type": "Feature", "geometry": {"type": "Point", "coordinates": [100.634455131535, 13.693210399157497]}, "properties": {"id": 37318, "name": "ลานกีฬากรุงเทพมหานครชุมชนหมู่บ้านสุขสุวรรณ", "district": "พระโขนง", "snapDistanceMeters": 30.49}}, {"type": "Feature", "geometry": {"type": "Point", "coordinates": [100.61639167130342, 13.701430254534802]}, "properties": {"id": 37329, "name": "แว่นตาชุมชน", "district": "พระโขนง", "snapDistanceMeters": 16.79}}, {"type": "Feature", "geometry": {"type": "Point", "coordinates": [100.57275649685289, 13.71445486985321]}, "properties": {"id": 35746, "name": "ชุมชนร่วมใจสามัคคี", "district": "คลองเตย", "snapDistanceMeters": 16.81}}, {"type": "Feature", "geometry": {"type": "Point", "coordinates": [100.50922058218697, 13.76123959709378]}, "properties": {"id": 35769, "name": "ชุมชนหลังสนามมวยราชดำเนิน", "district": "ป้อมปราบศัตรูพ่าย", "snapDistanceMeters": 50.32}}, {"type": "Feature", "geometry": {"type": "Point", "coordinates": [100.49851450455506, 13.76695497365584]}, "properties": {"id": 37094, "name": "ศูนย์สุขภาพชุมชนชุมชนวัดสามพระยา", "district": "พระนคร", "snapDistanceMeters": 7.9}}, {"type": "Feature", "geometry": {"type": "Point", "coordinates": [100.51159566064987, 13.70469232694338]}, "properties": {"id": 37407, "name": "ศูนย์ประสานงานคณะทำงาน กต.ตร. ชุมชนโรงเจ", "district": "บางคอแหลม", "snapDistanceMeters": 14.94}}, {"type": "Feature", "geometry": {"type": "Point", "coordinates": [100.50155643203051, 13.698273150594027]}, "properties": {"id": 37374, "name": "ศูนย์สุขภาพชุมชนชุมชนวัดจันทร์ใน", "district": "บางคอแหลม", "snapDistanceMeters": 15.44}}, {"type": "Feature", "geometry": {"type": "Point", "coordinates": [100.48816562848786, 13.729288367663893]}, "properties": {"id": 36083, "name": "ชุมชนวัดใหญ่ศรีสุพรรณ", "district": "ธนบุรี", "snapDistanceMeters": 10.44}}, {"type": "Feature", "geometry": {"type": "Point", "coordinates": [100.51221226340604, 13.75396845148603]}, "properties": {"id": 36101, "name": "ศูนย์สุขภาพชุมชนนาคบำรุง", "district": "ป้อมปราบศัตรูพ่าย", "snapDistanceMeters": 21.27}}, {"type": "Feature", "geometry": {"type": "Point", "coordinates": [100.70862131049651, 13.701166603985811]}, "properties": {"id": 36104, "name": "ศูนย์สุขภาพชุมชน", "district": "ประเวศ", "snapDistanceMeters": 17.06}}, {"type": "Feature", "geometry": {"type": "Point", "coordinates": [100.62989064625603, 13.695057183647316]}, "properties": {"id": 37205, "name": "ชุมชนเกตุไพเราะ 3,4,5", "district": "พระโขนง", "snapDistanceMeters": 16.92}}, {"type": "Feature", "geometry": {"type": "Point", "coordinates": [100.5512966870467, 13.711333488936326]}, "properties": {"id": 37891, "name": "ศูนย์ประสานงานคณะทำงาน กต.ตร. ชุมชนเย็นอากาศ 2", "district": "ยานนาวา", "snapDistanceMeters": 6.25}}, {"type": "Feature", "geometry": {"type": "Point", "coordinates": [100.48048421622619, 13.762676269925466]}, "properties": {"id": 36210, "name": "ชุมชนสันติชนสงเคราะห์", "district": "บางกอกน้อย", "snapDistanceMeters": 26.58}}, {"type": "Feature", "geometry": {"type": "Point", "coordinates": [100.61872687118752, 13.82650663591465]}, "properties": {"id": 35933, "name": "ชุมชนหมู่บ้านโอษธิศ 2", "district": "ลาดพร้าว", "snapDistanceMeters": 53.02}}, {"type": "Feature", "geometry": {"type": "Point", "coordinates": [100.89729656110877, 13.786512950090232]}, "properties": {"id": 35947, "name": "ศูนย์สุขภาพชุมชนนูรุ้ลกอดีม", "district": "หนองจอก", "snapDistanceMeters": 33.42}}, {"type": "Feature", "geometry": {"type": "Point", "coordinates": [100.85437658290063, 13.862374972736724]}, "properties": {"id": 35530, "name": "ศูนย์พัฒนาเด็กก่อนวัยเรียนชุมชนแผ่นดินทองหมู่ที่ 9 มูลนิธิมัสยิดอัล-ฮุดา", "district": "หนองจอก", "snapDistanceMeters": 41.17}}, {"type": "Feature", "geometry": {"type": "Point", "coordinates": [100.58350101724879, 13.898775618043143]}, "properties": {"id": 35928, "name": "ที่ทำการคณะกรรมการชุมชน 323", "district": "หลักสี่", "snapDistanceMeters": 9.04}}, {"type": "Feature", "geometry": {"type": "Point", "coordinates": [100.80151291430982, 13.815831122621418]}, "properties": {"id": 36138, "name": "ชุมชนพัฒนาลำต้นไทร", "district": "หนองจอก", "snapDistanceMeters": 24.96}}, {"type": "Feature", "geometry": {"type": "Point", "coordinates": [100.64925299015952, 13.852304749135826]}, "properties": {"id": 35589, "name": "ชุมชนหมู่บ้านสุขใจวิลเลจ", "district": "บางเขน", "snapDistanceMeters": 24.48}}, {"type": "Feature", "geometry": {"type": "Point", "coordinates": [100.5809462907293, 13.742045043923005]}, "properties": {"id": 132930, "name": "ที่ทำการกองทุนชุมชนเมืองสุเหร่าบ้านดอน", "district": "วัฒนา", "snapDistanceMeters": 5.73}}, {"type": "Feature", "geometry": {"type": "Point", "coordinates": [100.5032184184247, 13.655798171778237]}, "properties": {"id": 36164, "name": "ชุมชนบลูไลท์", "district": "ทุ่งครุ", "snapDistanceMeters": 14.11}}, {"type": "Feature", "geometry": {"type": "Point", "coordinates": [100.6651185456889, 13.669650307441225]}, "properties": {"id": 35678, "name": "ชุมชนหมู่บ้านเปรมฤทัยล็อค 8", "district": "ประเวศ", "snapDistanceMeters": 14.87}}, {"type": "Feature", "geometry": {"type": "Point", "coordinates": [100.41928981987424, 13.526999845385255]}, "properties": {"id": 35684, "name": "ชุมชนคลองพิทยาลงกรณ์", "district": "บางขุนเทียน", "snapDistanceMeters": 38.81}}, {"type": "Feature", "geometry": {"type": "Point", "coordinates": [100.70390689229734, 13.838591301613992]}, "properties": {"id": 133205, "name": "เคหะชุมชนรามอินทรา อาคาร 2", "district": "คลองสามวา", "snapDistanceMeters": 30.49}}, {"type": "Feature", "geometry": {"type": "Point", "coordinates": [100.70390689229734, 13.838591301613992]}, "properties": {"id": 133206, "name": "เคหะชุมชนรามอินทรา อาคาร 3", "district": "คลองสามวา", "snapDistanceMeters": 22.97}}, {"type": "Feature", "geometry": {"type": "Point", "coordinates": [100.70384139593126, 13.838263924158309]}, "properties": {"id": 133207, "name": "เคหะชุมชนรามอินทรา อาคาร 4", "district": "คลองสามวา", "snapDistanceMeters": 15.45}}, {"type": "Feature", "geometry": {"type": "Point", "coordinates": [100.7027759827887, 13.838682798297576]}, "properties": {"id": 133208, "name": "เคหะชุมชนรามอินทรา อาคาร 5", "district": "คลองสามวา", "snapDistanceMeters": 19.99}}, {"type": "Feature", "geometry": {"type": "Point", "coordinates": [100.70257391795899, 13.838291524742994]}, "properties": {"id": 133209, "name": "เคหะชุมชนรามอินทรา อาคาร 6", "district": "คลองสามวา", "snapDistanceMeters": 15.77}}, {"type": "Feature", "geometry": {"type": "Point", "coordinates": [100.72601459569185, 13.75820460230223]}, "properties": {"id": 133210, "name": "เคหะชุมชนร่มเกล้า อาคาร 20", "district": "ลาดกระบัง", "snapDistanceMeters": 16.19}}, {"type": "Feature", "geometry": {"type": "Point", "coordinates": [100.72601459569185, 13.75820460230223]}, "properties": {"id": 133211, "name": "เคหะชุมชนร่มเกล้า อาคาร 21", "district": "ลาดกระบัง", "snapDistanceMeters": 29.73}}, {"type": "Feature", "geometry": {"type": "Point", "coordinates": [100.72719789959213, 13.75899526448493]}, "properties": {"id": 133212, "name": "เคหะชุมชนร่มเกล้า อาคาร 22", "district": "ลาดกระบัง", "snapDistanceMeters": 40.88}}, {"type": "Feature", "geometry": {"type": "Point", "coordinates": [100.72767641888505, 13.758258154497916]}, "properties": {"id": 133213, "name": "เคหะชุมชนร่มเกล้า อาคาร 23", "district": "ลาดกระบัง", "snapDistanceMeters": 50.85}}, {"type": "Feature", "geometry": {"type": "Point", "coordinates": [100.72674493985907, 13.75819894177321]}, "properties": {"id": 133214, "name": "เคหะชุมชนร่มเกล้า อาคาร 24", "district": "ลาดกระบัง", "snapDistanceMeters": 57.21}}, {"type": "Feature", "geometry": {"type": "Point", "coordinates": [100.73067745214878, 13.761207969314583]}, "properties": {"id": 133215, "name": "เคหะชุมชนร่มเกล้า อาคาร 25", "district": "ลาดกระบัง", "snapDistanceMeters": 34.77}}, {"type": "Feature", "geometry": {"type": "Point", "coordinates": [100.73056900292899, 13.760343484538634]}, "properties": {"id": 133216, "name": "เคหะชุมชนร่มเกล้า อาคาร 26", "district": "ลาดกระบัง", "snapDistanceMeters": 48.93}}, {"type": "Feature", "geometry": {"type": "Point", "coordinates": [100.73056900292899, 13.760343484538634]}, "properties": {"id": 133217, "name": "เคหะชุมชนร่มเกล้า อาคาร 27", "district": "ลาดกระบัง", "snapDistanceMeters": 51.89}}, {"type": "Feature", "geometry": {"type": "Point", "coordinates": [100.73028768937685, 13.7597258799478]}, "properties": {"id": 133218, "name": "เคหะชุมชนร่มเกล้า อาคาร 28", "district": "ลาดกระบัง", "snapDistanceMeters": 62.99}}, {"type": "Feature", "geometry": {"type": "Point", "coordinates": [100.58278124572479, 13.90047953117683]}, "properties": {"id": 35922, "name": "ชุมชน 320", "district": "หลักสี่", "snapDistanceMeters": 26.88}}, {"type": "Feature", "geometry": {"type": "Point", "coordinates": [100.61864408662792, 13.710257501008185]}, "properties": {"id": 35924, "name": "ศูนย์การเรียนชุมชนวัดยาง", "district": "สวนหลวง", "snapDistanceMeters": 38.1}}, {"type": "Feature", "geometry": {"type": "Point", "coordinates": [100.57442518389317, 13.902463726786767]}, "properties": {"id": 36065, "name": "ชุมชน 307 เคหะทุ่งสองห้อง", "district": "หลักสี่", "snapDistanceMeters": 16.46}}, {"type": "Feature", "geometry": {"type": "Point", "coordinates": [100.50879312488811, 13.706910335227432]}, "properties": {"id": 132244, "name": "ชุมชนเจริญกรุง 85", "district": "บางคอแหลม", "snapDistanceMeters": 20.39}}, {"type": "Feature", "geometry": {"type": "Point", "coordinates": [100.54768846688276, 13.69496129587369]}, "properties": {"id": 36234, "name": "ชุมชนปากคลองช่องนนทรี", "district": "ยานนาวา", "snapDistanceMeters": 30.46}}, {"type": "Feature", "geometry": {"type": "Point", "coordinates": [100.50323643976049, 13.700790193305227]}, "properties": {"id": 36824, "name": "ศูนย์สุขภาพชุมชนชุมชนสวนหลวง 1", "district": "บางคอแหลม", "snapDistanceMeters": 5.75}}, {"type": "Feature", "geometry": {"type": "Point", "coordinates": [100.50404281681773, 13.700158495394707]}, "properties": {"id": 36825, "name": "ศูนย์พัฒนาเด็กก่อนวัยเรียนชุมชนสวนหลวง 1", "district": "บางคอแหลม", "snapDistanceMeters": 7.39}}, {"type": "Feature", "geometry": {"type": "Point", "coordinates": [100.50409114890515, 13.699559509885036]}, "properties": {"id": 36826, "name": "ที่ทำการชุมชนสวนหลวง 1", "district": "บางคอแหลม", "snapDistanceMeters": 15.32}}, {"type": "Feature", "geometry": {"type": "Point", "coordinates": [100.41362888993774, 13.652184890560736]}, "properties": {"id": 132546, "name": "การเคหะชุมชนธนบุรี 3 ระยะที่ 3", "district": "บางขุนเทียน", "snapDistanceMeters": 27.0}}, {"type": "Feature", "geometry": {"type": "Point", "coordinates": [100.72996862496215, 13.75872501938765]}, "properties": {"id": 133124, "name": "เคหะชุมชนร่มเกล้า อาคาร 34", "district": "ลาดกระบัง", "snapDistanceMeters": 26.63}}, {"type": "Feature", "geometry": {"type": "Point", "coordinates": [100.51024827462146, 13.704909064032556]}, "properties": {"id": 36334, "name": "ศูนย์สุขภาพชุมชน", "district": "บางคอแหลม", "snapDistanceMeters": 6.08}}, {"type": "Feature", "geometry": {"type": "Point", "coordinates": [100.72970627000188, 13.758019674018643]}, "properties": {"id": 133125, "name": "เคหะชุมชนร่มเกล้า อาคาร 35", "district": "ลาดกระบัง", "snapDistanceMeters": 46.21}}, {"type": "Feature", "geometry": {"type": "Point", "coordinates": [100.73071490583142, 13.758287804256193]}, "properties": {"id": 133126, "name": "เคหะชุมชนร่มเกล้า อาคาร 36", "district": "ลาดกระบัง", "snapDistanceMeters": 19.61}}, {"type": "Feature", "geometry": {"type": "Point", "coordinates": [100.7266657171399, 13.762231586507973]}, "properties": {"id": 133127, "name": "เคหะชุมชนร่มเกล้า อาคาร 4", "district": "ลาดกระบัง", "snapDistanceMeters": 58.54}}, {"type": "Feature", "geometry": {"type": "Point", "coordinates": [100.72674175228269, 13.761354511729122]}, "properties": {"id": 133128, "name": "เคหะชุมชนร่มเกล้า อาคาร 5", "district": "ลาดกระบัง", "snapDistanceMeters": 51.28}}, {"type": "Feature", "geometry": {"type": "Point", "coordinates": [100.72674175228269, 13.761354511729122]}, "properties": {"id": 133129, "name": "เคหะชุมชนร่มเกล้า อาคาร 6", "district": "ลาดกระบัง", "snapDistanceMeters": 15.28}}, {"type": "Feature", "geometry": {"type": "Point", "coordinates": [100.7260276026037, 13.76133799775878]}, "properties": {"id": 133130, "name": "เคหะชุมชนร่มเกล้า อาคาร 7", "district": "ลาดกระบัง", "snapDistanceMeters": 30.03}}, {"type": "Feature", "geometry": {"type": "Point", "coordinates": [100.72812767843514, 13.76283861948054]}, "properties": {"id": 133132, "name": "เคหะชุมชนร่มเกล้า อาคาร 1", "district": "ลาดกระบัง", "snapDistanceMeters": 37.57}}, {"type": "Feature", "geometry": {"type": "Point", "coordinates": [100.72598656210582, 13.75991592915135]}, "properties": {"id": 133133, "name": "เคหะชุมชนร่มเกล้า อาคาร 10", "district": "ลาดกระบัง", "snapDistanceMeters": 61.62}}, {"type": "Feature", "geometry": {"type": "Point", "coordinates": [100.72574090235545, 13.759571406367353]}, "properties": {"id": 133134, "name": "เคหะชุมชนร่มเกล้า อาคาร 11", "district": "ลาดกระบัง", "snapDistanceMeters": 49.34}}, {"type": "Feature", "geometry": {"type": "Point", "coordinates": [100.72526454295866, 13.75911051461216]}, "properties": {"id": 133135, "name": "เคหะชุมชนร่มเกล้า อาคาร 12", "district": "ลาดกระบัง", "snapDistanceMeters": 42.79}}, {"type": "Feature", "geometry": {"type": "Point", "coordinates": [100.72526454295866, 13.75911051461216]}, "properties": {"id": 133136, "name": "เคหะชุมชนร่มเกล้า อาคาร 13", "district": "ลาดกระบัง", "snapDistanceMeters": 10.36}}, {"type": "Feature", "geometry": {"type": "Point", "coordinates": [100.7247012459493, 13.75894005760817]}, "properties": {"id": 133137, "name": "เคหะชุมชนร่มเกล้า อาคาร 14", "district": "ลาดกระบัง", "snapDistanceMeters": 52.42}}, {"type": "Feature", "geometry": {"type": "Point", "coordinates": [100.72448904722351, 13.758168458549116]}, "properties": {"id": 133138, "name": "เคหะชุมชนร่มเกล้า อาคาร 15", "district": "ลาดกระบัง", "snapDistanceMeters": 57.36}}, {"type": "Feature", "geometry": {"type": "Point", "coordinates": [100.72558171951839, 13.757960046809172]}, "properties": {"id": 133139, "name": "เคหะชุมชนร่มเกล้า อาคาร 16", "district": "ลาดกระบัง", "snapDistanceMeters": 61.36}}, {"type": "Feature", "geometry": {"type": "Point", "coordinates": [100.72664035477058, 13.758982446710874]}, "properties": {"id": 133140, "name": "เคหะชุมชนร่มเกล้า อาคาร 17", "district": "ลาดกระบัง", "snapDistanceMeters": 60.71}}, {"type": "Feature", "geometry": {"type": "Point", "coordinates": [100.72664035477058, 13.758982446710874]}, "properties": {"id": 133141, "name": "เคหะชุมชนร่มเกล้า อาคาร 18", "district": "ลาดกระบัง", "snapDistanceMeters": 25.38}}, {"type": "Feature", "geometry": {"type": "Point", "coordinates": [100.63932462523162, 13.714108821445969]}, "properties": {"id": 132125, "name": "ที่ทำการชุมชนหัวป่า", "district": "สวนหลวง", "snapDistanceMeters": 10.94}}, {"type": "Feature", "geometry": {"type": "Point", "coordinates": [100.65617614729719, 13.705465238107916]}, "properties": {"id": 132132, "name": "ชุมชนเกาะเลิ้งสัมพันธ์", "district": "ประเวศ", "snapDistanceMeters": 28.78}}, {"type": "Feature", "geometry": {"type": "Point", "coordinates": [100.77727754677062, 13.810675808475368]}, "properties": {"id": 35817, "name": "ที่ทำการชุมชนอนันต์สามัคคี", "district": "มีนบุรี", "snapDistanceMeters": 13.03}}, {"type": "Feature", "geometry": {"type": "Point", "coordinates": [100.7769643473063, 13.764526093267701]}, "properties": {"id": 35822, "name": "ชุมชนบึงบัว", "district": "ลาดกระบัง", "snapDistanceMeters": 36.58}}, {"type": "Feature", "geometry": {"type": "Point", "coordinates": [100.72610656086913, 13.760682150688739]}, "properties": {"id": 133201, "name": "เคหะชุมชนร่มเกล้า อาคาร 8", "district": "ลาดกระบัง", "snapDistanceMeters": 27.23}}, {"type": "Feature", "geometry": {"type": "Point", "coordinates": [100.57763677240024, 13.901570715227674]}, "properties": {"id": 35888, "name": "เคหะชุมชนทุ่งสองห้องกลุ่ม 310", "district": "หลักสี่", "snapDistanceMeters": 17.41}}, {"type": "Feature", "geometry": {"type": "Point", "coordinates": [100.72527975929731, 13.760670323734574]}, "properties": {"id": 133202, "name": "เคหะชุมชนร่มเกล้า อาคาร 9", "district": "ลาดกระบัง", "snapDistanceMeters": 47.4}}, {"type": "Feature", "geometry": {"type": "Point", "coordinates": [100.70382712381539, 13.838977818658403]}, "properties": {"id": 133203, "name": "เคหะชุมชนรามอินทรา อาคาร 1", "district": "คลองสามวา", "snapDistanceMeters": 33.93}}, {"type": "Feature", "geometry": {"type": "Point", "coordinates": [100.70243170277377, 13.837540524474242]}, "properties": {"id": 133204, "name": "เคหะชุมชนรามอินทรา อาคาร 10", "district": "คลองสามวา", "snapDistanceMeters": 14.51}}, {"type": "Feature", "geometry": {"type": "Point", "coordinates": [100.48290752387719, 13.738960337359648]}, "properties": {"id": 55901, "name": "ชุมชนลานโพธิ์", "district": "บางกอกใหญ่", "snapDistanceMeters": 31.46}}, {"type": "Feature", "geometry": {"type": "Point", "coordinates": [100.48230060969055, 13.738358648758735]}, "properties": {"id": 55907, "name": "ชุมชนตรอกตาแทน", "district": "บางกอกใหญ่", "snapDistanceMeters": 21.87}}, {"type": "Feature", "geometry": {"type": "Point", "coordinates": [100.48106868726958, 13.727198906493284]}, "properties": {"id": 55992, "name": "ชุมชนซอยเพชรเกษม 1", "district": "บางกอกใหญ่", "snapDistanceMeters": 13.88}}, {"type": "Feature", "geometry": {"type": "Point", "coordinates": [100.48062175204642, 13.72720539881909]}, "properties": {"id": 55993, "name": "ชุมชนเกษจำเริญ", "district": "บางกอกใหญ่", "snapDistanceMeters": 29.52}}, {"type": "Feature", "geometry": {"type": "Point", "coordinates": [100.52605389354778, 13.781213048407949]}, "properties": {"id": 56778, "name": "ชุมชนแฟลตกรมพลาธิการตำรวจ", "district": "ดุสิต", "snapDistanceMeters": 12.63}}, {"type": "Feature", "geometry": {"type": "Point", "coordinates": [100.47080729665423, 13.726961264224236]}, "properties": {"id": 55648, "name": "ชุมชนวัดประดู่ในทรงธรรม", "district": "บางกอกใหญ่", "snapDistanceMeters": 36.44}}, {"type": "Feature", "geometry": {"type": "Point", "coordinates": [100.59739962904456, 13.873823365048334]}, "properties": {"id": 55601, "name": "ชุมชนบ้านบางเขน", "district": "บางเขน", "snapDistanceMeters": 32.18}}, {"type": "Feature", "geometry": {"type": "Point", "coordinates": [100.50436353175212, 13.780331362883148]}, "properties": {"id": 56303, "name": "ชุมชนวัดราชผาติการาม", "district": "ดุสิต", "snapDistanceMeters": 47.94}}, {"type": "Feature", "geometry": {"type": "Point", "coordinates": [100.42990050889867, 13.624345595824048]}, "properties": {"id": 78293, "name": "ชุมชนมุ่งพัฒนา", "district": "บางขุนเทียน", "snapDistanceMeters": 10.42}}, {"type": "Feature", "geometry": {"type": "Point", "coordinates": [100.46798849826376, 13.739370371257749]}, "properties": {"id": 56195, "name": "ชุมชนบ้านสวน", "district": "บางกอกใหญ่", "snapDistanceMeters": 30.96}}, {"type": "Feature", "geometry": {"type": "Point", "coordinates": [100.49704087948166, 13.761025999869359]}, "properties": {"id": 78305, "name": "ศูนย์สุขภาพชุมชนชุมชนมัสยิดจักรพงษ์", "district": "พระนคร", "snapDistanceMeters": 69.07}}, {"type": "Feature", "geometry": {"type": "Point", "coordinates": [100.4654025019107, 13.753388238364451]}, "properties": {"id": 56655, "name": "ศูนย์รับแจ้งเหตุและศูนย์บริการครอบครัวชุมชนจรัญ 31 รวมใจ", "district": "บางกอกน้อย", "snapDistanceMeters": 17.49}}, {"type": "Feature", "geometry": {"type": "Point", "coordinates": [100.46322501279602, 13.752323910515521]}, "properties": {"id": 56656, "name": "ชุมชนจรัญ 31 รวมใจ", "district": "บางกอกน้อย", "snapDistanceMeters": 8.06}}, {"type": "Feature", "geometry": {"type": "Point", "coordinates": [100.73187939234617, 13.8056892045248]}, "properties": {"id": 55794, "name": "ชุมชนสามัคคีคลองสองต้นนุ่น", "district": "มีนบุรี", "snapDistanceMeters": 15.56}}, {"type": "Feature", "geometry": {"type": "Point", "coordinates": [100.5043317700189, 13.760903250989795]}, "properties": {"id": 56165, "name": "ชุมชนตรอกบ้านพานถม", "district": "พระนคร", "snapDistanceMeters": 26.57}}, {"type": "Feature", "geometry": {"type": "Point", "coordinates": [100.46179682117719, 13.740946068521842]}, "properties": {"id": 56730, "name": "ชุมชนริมคลองบางกอกใหญ่", "district": "บางกอกใหญ่", "snapDistanceMeters": 8.94}}, {"type": "Feature", "geometry": {"type": "Point", "coordinates": [100.43370141858824, 13.714963876675517]}, "properties": {"id": 56417, "name": "ชุมชนเพชรเกษม 56", "district": "ภาษีเจริญ", "snapDistanceMeters": 65.89}}, {"type": "Feature", "geometry": {"type": "Point", "coordinates": [100.73992742403802, 13.83869412746008]}, "properties": {"id": 131987, "name": "ชุมชนบึงไผ่", "district": "คลองสามวา", "snapDistanceMeters": 36.25}}, {"type": "Feature", "geometry": {"type": "Point", "coordinates": [100.48367424282657, 13.736212259287951]}, "properties": {"id": 56146, "name": "ชุมชนวัดราชสิทธาราม", "district": "บางกอกใหญ่", "snapDistanceMeters": 10.23}}, {"type": "Feature", "geometry": {"type": "Point", "coordinates": [100.50468820839997, 13.721629860951966]}, "properties": {"id": 56147, "name": "ชุมชนซอยราษฎร์ร่วมเจริญ", "district": "คลองสาน", "snapDistanceMeters": 26.05}}, {"type": "Feature", "geometry": {"type": "Point", "coordinates": [100.57453001896516, 13.87585066158738]}, "properties": {"id": 132101, "name": "ชุมชนมิตรประชาพัฒนา", "district": "หลักสี่", "snapDistanceMeters": 16.87}}, {"type": "Feature", "geometry": {"type": "Point", "coordinates": [100.47587510840873, 13.716295745023258]}, "properties": {"id": 55824, "name": "ชุมชนวัดบางสะแกนอก", "district": "ธนบุรี", "snapDistanceMeters": 22.63}}, {"type": "Feature", "geometry": {"type": "Point", "coordinates": [100.37567475533017, 13.685560510261931]}, "properties": {"id": 55665, "name": "ชุมชนซอยประสิทธิ์ 1", "district": "หนองแขม", "snapDistanceMeters": 30.23}}, {"type": "Feature", "geometry": {"type": "Point", "coordinates": [100.48442529017822, 13.721772813959562]}, "properties": {"id": 56488, "name": "ชุมชนซอยแยกวัดโพธินิมิตรสถิตมหาสีมาราม", "district": "ธนบุรี", "snapDistanceMeters": 9.75}}, {"type": "Feature", "geometry": {"type": "Point", "coordinates": [100.47219747647932, 13.723989885908217]}, "properties": {"id": 56273, "name": "ชุมชนศาลเจ้าพ่อเขาตก", "district": "บางกอกใหญ่", "snapDistanceMeters": 31.24}}, {"type": "Feature", "geometry": {"type": "Point", "coordinates": [100.59621654987305, 13.871697668667998]}, "properties": {"id": 56069, "name": "ชุมชนอุทิศอนุสรณ์บ้านมั่นคง", "district": "บางเขน", "snapDistanceMeters": 30.69}}, {"type": "Feature", "geometry": {"type": "Point", "coordinates": [100.68140594077418, 13.672219002190788]}, "properties": {"id": 77967, "name": "อาคารเคหะชุมชนไทย-มณฑลเหอหนาน (สาธารณรัฐประชาชนจีน)", "district": "ประเวศ", "snapDistanceMeters": 18.26}}, {"type": "Feature", "geometry": {"type": "Point", "coordinates": [100.52323342961677, 13.776625982705257]}, "properties": {"id": 56612, "name": "ศูนย์พัฒนาเด็กเล็กชุมชนข้างวัดสุคันธารา", "district": "ดุสิต", "snapDistanceMeters": 8.79}}, {"type": "Feature", "geometry": {"type": "Point", "coordinates": [100.52249988937248, 13.773277745283092]}, "properties": {"id": 131876, "name": "ศูนย์พัฒนาเด็กก่อนวัยเรียนชุมชนสุโขทัยซอย 9", "district": "ดุสิต", "snapDistanceMeters": 19.82}}, {"type": "Feature", "geometry": {"type": "Point", "coordinates": [100.48617784454251, 13.675357707774594]}, "properties": {"id": 132068, "name": "ชุมชนสุขสวัสดิ์ 26", "district": "ราษฎร์บูรณะ", "snapDistanceMeters": 9.73}}, {"type": "Feature", "geometry": {"type": "Point", "coordinates": [100.9249956751461, 13.823276322342037]}, "properties": {"id": 132069, "name": "ที่ทำการชุมชน ป. เจริญมิตรพัฒนา", "district": "หนองจอก", "snapDistanceMeters": 31.13}}, {"type": "Feature", "geometry": {"type": "Point", "coordinates": [100.63407355896733, 13.696929634994383]}, "properties": {"id": 131463, "name": "ชุมชนหมู่บ้านรุ่งอรุณ", "district": "พระโขนง", "snapDistanceMeters": 19.55}}, {"type": "Feature", "geometry": {"type": "Point", "coordinates": [100.63504009889539, 13.763678910354132]}, "properties": {"id": 131158, "name": "ศูนย์สุขภาพชุมชน", "district": "บางกะปิ", "snapDistanceMeters": 9.75}}, {"type": "Feature", "geometry": {"type": "Point", "coordinates": [100.48401580014126, 13.746017924996064]}, "properties": {"id": 131238, "name": "ศูนย์ประสานงานชุมชนเข้มแข็งชุมชนวัดนาคกลาง", "district": "บางกอกใหญ่", "snapDistanceMeters": 9.19}}, {"type": "Feature", "geometry": {"type": "Point", "coordinates": [100.48401580014126, 13.746017924996064]}, "properties": {"id": 131239, "name": "ศูนย์สุขภาพชุมชนวัดนาคกลาง", "district": "บางกอกใหญ่", "snapDistanceMeters": 7.66}}, {"type": "Feature", "geometry": {"type": "Point", "coordinates": [100.51106402441471, 13.74077769074063]}, "properties": {"id": 131305, "name": "ชุมชนพิพากษา", "district": "สัมพันธวงค์", "snapDistanceMeters": 57.52}}, {"type": "Feature", "geometry": {"type": "Point", "coordinates": [100.5280958795403, 13.750325842334238]}, "properties": {"id": 132029, "name": "ชุมชนบ้านครัวเหนือ", "district": "ราขเทวี", "snapDistanceMeters": 17.22}}, {"type": "Feature", "geometry": {"type": "Point", "coordinates": [100.46586205829378, 13.795037214516476]}, "properties": {"id": 132054, "name": "ที่ทำการกองทุนหมู่บ้านชุมชนวัดชัยพฤกษมาลา", "district": "ตลิ่งชัน", "snapDistanceMeters": 13.43}}, {"type": "Feature", "geometry": {"type": "Point", "coordinates": [100.50756486303148, 13.739173499769631]}, "properties": {"id": 131579, "name": "ชุมชนมิตรชัยภูมิ", "district": "สัมพันธวงค์", "snapDistanceMeters": 9.3}}, {"type": "Feature", "geometry": {"type": "Point", "coordinates": [100.59394250351961, 13.910560675896473]}, "properties": {"id": 132044, "name": "ชุมชนประชากร 3", "district": "ดอนเมือง", "snapDistanceMeters": 11.33}}, {"type": "Feature", "geometry": {"type": "Point", "coordinates": [100.62974852332114, 13.789320573158662]}, "properties": {"id": 131694, "name": "ลานกีฬาต้านยาเสพติดชุมชนโครงการร่วมกันสร้าง", "district": "บางกะปิ", "snapDistanceMeters": 10.93}}, {"type": "Feature", "geometry": {"type": "Point", "coordinates": [100.50760426829027, 13.752730358886865]}, "properties": {"id": 131069, "name": "ชุมชนวัดสระเกศ", "district": "ป้อมปราบศัตรูพ่าย", "snapDistanceMeters": 32.85}}, {"type": "Feature", "geometry": {"type": "Point", "coordinates": [100.65762577845399, 13.75809765297313]}, "properties": {"id": 130236, "name": "ศูนย์สุขภาพชุมชนวังโสม", "district": "บางกะปิ", "snapDistanceMeters": 18.99}}, {"type": "Feature", "geometry": {"type": "Point", "coordinates": [100.64949210449005, 13.755794783127044]}, "properties": {"id": 130243, "name": "ชุมชนหมู่บ้านสวนสน", "district": "บางกะปิ", "snapDistanceMeters": 18.25}}, {"type": "Feature", "geometry": {"type": "Point", "coordinates": [100.49013361282309, 13.736573720190462]}, "properties": {"id": 130471, "name": "ศูนย์สุขภาพชุมชนบุปผาราม", "district": "ธนบุรี", "snapDistanceMeters": 7.64}}, {"type": "Feature", "geometry": {"type": "Point", "coordinates": [100.49019403932826, 13.712879031223173]}, "properties": {"id": 55112, "name": "ชุมชนตากสิน 19", "district": "ธนบุรี", "snapDistanceMeters": 12.81}}, {"type": "Feature", "geometry": {"type": "Point", "coordinates": [100.61041968797, 13.759903788541987]}, "properties": {"id": 129815, "name": "ที่ทำการชุมชนรุ่งมณีพัฒนา", "district": "วังทองหลาง", "snapDistanceMeters": 22.27}}, {"type": "Feature", "geometry": {"type": "Point", "coordinates": [100.57006704167283, 13.919155494007699]}, "properties": {"id": 54725, "name": "ศูนย์การเรียนรู้ชุมชนบูรพา 18", "district": "ดอนเมือง", "snapDistanceMeters": 31.05}}, {"type": "Feature", "geometry": {"type": "Point", "coordinates": [100.47562302200998, 13.73767431063726]}, "properties": {"id": 55358, "name": "ชุมชนโค้งกระเทียม", "district": "บางกอกใหญ่", "snapDistanceMeters": 10.75}}, {"type": "Feature", "geometry": {"type": "Point", "coordinates": [100.4890191081923, 13.733584822320815]}, "properties": {"id": 129765, "name": "ศูนย์สุขภาพชุมชนวัดประดิษฐาราม", "district": "ธนบุรี", "snapDistanceMeters": 9.83}}, {"type": "Feature", "geometry": {"type": "Point", "coordinates": [100.77660994346832, 13.820558965885324]}, "properties": {"id": 78360, "name": "ชุมชนอับดุลรอมาน 2", "district": "มีนบุรี", "snapDistanceMeters": 10.77}}, {"type": "Feature", "geometry": {"type": "Point", "coordinates": [100.34688984945619, 13.695742767717844]}, "properties": {"id": 54754, "name": "ชุมชนยากันยุง", "district": "หนองแขม", "snapDistanceMeters": 32.9}}, {"type": "Feature", "geometry": {"type": "Point", "coordinates": [100.63594581724873, 13.688483362211493]}, "properties": {"id": 130753, "name": "ศูนย์สุขภาพชุมชนสุภาพงษ์", "district": "พระโขนง", "snapDistanceMeters": 19.47}}, {"type": "Feature", "geometry": {"type": "Point", "coordinates": [100.475643509978, 13.73307568075638]}, "properties": {"id": 55086, "name": "ชุมชนหลังโรงกรองน้ำภาษีเจริญ", "district": "บางกอกใหญ่", "snapDistanceMeters": 39.11}}, {"type": "Feature", "geometry": {"type": "Point", "coordinates": [100.48654053389329, 13.735715416702714]}, "properties": {"id": 55951, "name": "ชุมชนหัวสะพานแดง", "district": "บางกอกใหญ่", "snapDistanceMeters": 16.41}}, {"type": "Feature", "geometry": {"type": "Point", "coordinates": [100.59356613772319, 13.922485555172917]}, "properties": {"id": 56250, "name": "ชุมชนแม่ทองก้อน", "district": "ดอนเมือง", "snapDistanceMeters": 18.87}}, {"type": "Feature", "geometry": {"type": "Point", "coordinates": [100.61768047170908, 13.692360248204894]}, "properties": {"id": 77869, "name": "ชุมชนซอยนพรัตน์", "district": "พระโขนง", "snapDistanceMeters": 14.96}}, {"type": "Feature", "geometry": {"type": "Point", "coordinates": [100.49846887841416, 13.79325067919939]}, "properties": {"id": 56401, "name": "ศูนย์พัฒนาเด็กก่อนวัยเรียนชุมชนพัฒนาซอย 79", "district": "บางพลัด", "snapDistanceMeters": 7.68}}, {"type": "Feature", "geometry": {"type": "Point", "coordinates": [100.49846887841416, 13.79325067919939]}, "properties": {"id": 56402, "name": "ศูนย์สุขภาพชุมชนชุมชนพัฒนาซอย 79", "district": "บางพลัด", "snapDistanceMeters": 11.19}}, {"type": "Feature", "geometry": {"type": "Point", "coordinates": [100.4975746016231, 13.794822556131138]}, "properties": {"id": 56403, "name": "ชุมชนดวงดี", "district": "บางพลัด", "snapDistanceMeters": 11.21}}, {"type": "Feature", "geometry": {"type": "Point", "coordinates": [100.49587064897055, 13.794927454776637]}, "properties": {"id": 56404, "name": "ชุมชนคลองสวนพริก", "district": "บางพลัด", "snapDistanceMeters": 29.78}}, {"type": "Feature", "geometry": {"type": "Point", "coordinates": [100.49583612722697, 13.795230213554802]}, "properties": {"id": 56405, "name": "ศูนย์สุขภาพชุมชน", "district": "บางพลัด", "snapDistanceMeters": 11.63}}, {"type": "Feature", "geometry": {"type": "Point", "coordinates": [100.49761622577047, 13.761546239568633]}, "properties": {"id": 78308, "name": "ชุมชนมัสยิดจักรพงษ์", "district": "พระนคร", "snapDistanceMeters": 92.04}}, {"type": "Feature", "geometry": {"type": "Point", "coordinates": [100.52321751582316, 13.81502223617272]}, "properties": {"id": 77777, "name": "ชุมชนเขมาเนรมิตร", "district": "บางซื่อ", "snapDistanceMeters": 27.52}}, {"type": "Feature", "geometry": {"type": "Point", "coordinates": [100.52348156011809, 13.730218236659278]}, "properties": {"id": 78077, "name": "ชุมชนยา", "district": "บางรัก", "snapDistanceMeters": 21.74}}, {"type": "Feature", "geometry": {"type": "Point", "coordinates": [100.47185011820241, 13.717655288336756]}, "properties": {"id": 55541, "name": "ชุมชนซอยวุฒากาศ 2", "district": "ธนบุรี", "snapDistanceMeters": 17.1}}, {"type": "Feature", "geometry": {"type": "Point", "coordinates": [100.46792717653497, 13.710977509902873]}, "properties": {"id": 78206, "name": "ที่ทำการชุมชนนางนอง 2 สันติสุข", "district": "จอมทอง", "snapDistanceMeters": 12.58}}, {"type": "Feature", "geometry": {"type": "Point", "coordinates": [100.47390454424334, 13.719042123455166]}, "properties": {"id": 55546, "name": "ชุมชนสามัคคีธรรม", "district": "ธนบุรี", "snapDistanceMeters": 19.53}}, {"type": "Feature", "geometry": {"type": "Point", "coordinates": [100.50987272446653, 13.656699967232367]}, "properties": {"id": 56472, "name": "ชุมชนหลังวัดกลางนา", "district": "ทุ่งครุ", "snapDistanceMeters": 24.82}}, {"type": "Feature", "geometry": {"type": "Point", "coordinates": [100.47014114211268, 13.733800072314736]}, "properties": {"id": 55617, "name": "ชุมชนหลังโรงเคลือบ", "district": "บางกอกใหญ่", "snapDistanceMeters": 3.36}}, {"type": "Feature", "geometry": {"type": "Point", "coordinates": [100.55663943979344, 13.764779310138962]}, "properties": {"id": 56672, "name": "สำนักงานเคหะชุมชนดินแดง 2", "district": "ดินแดง", "snapDistanceMeters": 38.98}}, {"type": "Feature", "geometry": {"type": "Point", "coordinates": [100.55703323162699, 13.765987092571716]}, "properties": {"id": 56677, "name": "ห้องสมุดประชาชนเคหะชุมชนดินแดง 2", "district": "ดินแดง", "snapDistanceMeters": 17.08}}, {"type": "Feature", "geometry": {"type": "Point", "coordinates": [100.62929826074182, 13.696120190880729]}, "properties": {"id": 78338, "name": "ชุมชนสุนทรธรรม", "district": "พระโขนง", "snapDistanceMeters": 9.49}}, {"type": "Feature", "geometry": {"type": "Point", "coordinates": [100.62219952590807, 13.71148699370742]}, "properties": {"id": 129274, "name": "ศูนย์สุขภาพชุมชนชุมชนวัดทองใน", "district": "สวนหลวง", "snapDistanceMeters": 4.07}}, {"type": "Feature", "geometry": {"type": "Point", "coordinates": [100.59040965069791, 13.882576100672408]}, "properties": {"id": 84724, "name": "ที่ทำการกองทุนชุมชนเมืองชุมชนร่วมใจพัฒนาใต้", "district": "บางเขน", "snapDistanceMeters": 8.3}}, {"type": "Feature", "geometry": {"type": "Point", "coordinates": [100.504016348209, 13.729567800662]}, "properties": {"id": 129045, "name": "ชุมชนหลังโรงพยาบาลบ้านสมเด็จเจ้าพระยา", "district": "คลองสาน", "snapDistanceMeters": 20.43}}, {"type": "Feature", "geometry": {"type": "Point", "coordinates": [100.68606669980429, 13.87503101429103]}, "properties": {"id": 128351, "name": "ชุมชนพระยาสุเรนทร์", "district": "คลองสามวา", "snapDistanceMeters": 17.39}}, {"type": "Feature", "geometry": {"type": "Point", "coordinates": [100.58483899894287, 13.933935702140834]}, "properties": {"id": 84388, "name": "บ้านหนังสือกรุงเทพมหานครชุมชนหมู่บ้านเมืองใหม่ดอนเมือง", "district": "ดอนเมือง", "snapDistanceMeters": 20.17}}, {"type": "Feature", "geometry": {"type": "Point", "coordinates": [100.59417121521284, 13.885004237034376]}, "properties": {"id": 84801, "name": "ที่ทำการคณะกรรมการชุมชนพลังสามัคคี", "district": "บางเขน", "snapDistanceMeters": 15.96}}, {"type": "Feature", "geometry": {"type": "Point", "coordinates": [100.67117791842054, 13.91253715632849]}, "properties": {"id": 84206, "name": "ที่ทำการองค์กรกลุ่มออมทรัพย์ชุมชนรัชดาออเงิน", "district": "สายไหม", "snapDistanceMeters": 8.98}}, {"type": "Feature", "geometry": {"type": "Point", "coordinates": [100.61556418610836, 13.660519287778161]}, "properties": {"id": 128345, "name": "ศูนย์สุขภาพชุมชนทิมเรืองเวช", "district": "บางนา", "snapDistanceMeters": 13.74}}, {"type": "Feature", "geometry": {"type": "Point", "coordinates": [100.36981216645623, 13.705383272189644]}, "properties": {"id": 128663, "name": "ชุมชนซอยต้นสน", "district": "หนองแขม", "snapDistanceMeters": 26.1}}, {"type": "Feature", "geometry": {"type": "Point", "coordinates": [100.33732623875348, 13.68909197461638]}, "properties": {"id": 128667, "name": "ที่ทำการชุมชนหมู่บ้านพุดตาน", "district": "หนองแขม", "snapDistanceMeters": 19.14}}, {"type": "Feature", "geometry": {"type": "Point", "coordinates": [100.44097133126174, 13.75789255841392]}, "properties": {"id": 128364, "name": "ชุมชนหมู่ที่ 21", "district": "ตลิ่งชัน", "snapDistanceMeters": 31.43}}, {"type": "Feature", "geometry": {"type": "Point", "coordinates": [100.65814454851346, 13.843961517784107]}, "properties": {"id": 129312, "name": "ศูนย์สุขภาพชุมชน", "district": "คันนายาว", "snapDistanceMeters": 12.34}}, {"type": "Feature", "geometry": {"type": "Point", "coordinates": [100.36515129181129, 13.703731541265388]}, "properties": {"id": 129320, "name": "ชุมชนเพชรเกษม 77 แยก 1", "district": "หนองแขม", "snapDistanceMeters": 31.54}}, {"type": "Feature", "geometry": {"type": "Point", "coordinates": [100.65576444645592, 13.846973790591523]}, "properties": {"id": 128397, "name": "ชุมชนหมู่บ้านรามอินทรานิเวศน์", "district": "คันนายาว", "snapDistanceMeters": 31.77}}, {"type": "Feature", "geometry": {"type": "Point", "coordinates": [100.34567691882907, 13.69277781968738]}, "properties": {"id": 128672, "name": "ชุมชนหรรษา 1", "district": "หนองแขม", "snapDistanceMeters": 15.54}}, {"type": "Feature", "geometry": {"type": "Point", "coordinates": [100.5719448147052, 13.83151694251795]}, "properties": {"id": 84950, "name": "ศูนย์คุ้มครองสวัสดิภาพชุมชนเขต 30 (จตุจักร)", "district": "จตุจักร", "snapDistanceMeters": 21.83}}, {"type": "Feature", "geometry": {"type": "Point", "coordinates": [100.6730514370969, 13.902585685142395]}, "properties": {"id": 84114, "name": "สำนักงานสหกรณ์กลุ่มเครดิตยูเนียนเคหะชุมชนออเงิน", "district": "สายไหม", "snapDistanceMeters": 22.32}}, {"type": "Feature", "geometry": {"type": "Point", "coordinates": [100.67469412254067, 13.903941637134285]}, "properties": {"id": 84116, "name": "สวนสุขภาพเคหะชุมชนออเงิน", "district": "สายไหม", "snapDistanceMeters": 59.67}}, {"type": "Feature", "geometry": {"type": "Point", "coordinates": [100.6865471747087, 13.720084818865507]}, "properties": {"id": 54307, "name": "ชุมชนซอยอ่อนนุช 84", "district": "ประเวศ", "snapDistanceMeters": 37.08}}, {"type": "Feature", "geometry": {"type": "Point", "coordinates": [100.50146544912002, 13.755018970294737]}, "properties": {"id": 55709, "name": "ชุมชนเภสัช", "district": "พระนคร", "snapDistanceMeters": 35.22}}, {"type": "Feature", "geometry": {"type": "Point", "coordinates": [100.66274590704086, 13.844418824570377]}, "properties": {"id": 128995, "name": "บริษัท ชุมชนเภสัชกรรม จำกัด (มหาชน)", "district": "คันนายาว", "snapDistanceMeters": 20.37}}, {"type": "Feature", "geometry": {"type": "Point", "coordinates": [100.76522419324012, 13.832129975224026]}, "properties": {"id": 129003, "name": "ชุมชนนูรุดดีน", "district": "คลองสามวา", "snapDistanceMeters": 23.31}}, {"type": "Feature", "geometry": {"type": "Point", "coordinates": [100.63057099970152, 13.936798545799624]}, "properties": {"id": 83846, "name": "กลุ่มแม่บ้านชุมชนแอนเนกซ์", "district": "สายไหม", "snapDistanceMeters": 17.76}}, {"type": "Feature", "geometry": {"type": "Point", "coordinates": [100.52323342961677, 13.776625982705257]}, "properties": {"id": 54638, "name": "ศูนย์สาธารณสุขมูลฐานชุมชนหลังวัดสุคันธาราม", "district": "ดุสิต", "snapDistanceMeters": 15.62}}, {"type": "Feature", "geometry": {"type": "Point", "coordinates": [100.46270147714598, 13.697898379805585]}, "properties": {"id": 128383, "name": "ชุมชนโรงพักเก่าบางขุนเทียน", "district": "จอมทอง", "snapDistanceMeters": 34.82}}, {"type": "Feature", "geometry": {"type": "Point", "coordinates": [100.57391010759889, 13.7964908576017]}, "properties": {"id": 56338, "name": "ชุมชนริมคลองบางซื่อ", "district": "ดินแดง", "snapDistanceMeters": 4.84}}, {"type": "Feature", "geometry": {"type": "Point", "coordinates": [100.44222714652861, 13.648140080235773]}, "properties": {"id": 129028, "name": "ชุมชนท่าข้าม", "district": "บางขุนเทียน", "snapDistanceMeters": 24.28}}, {"type": "Feature", "geometry": {"type": "Point", "coordinates": [100.44219312650323, 13.649038888464299]}, "properties": {"id": 129029, "name": "ชุมชนจุลพงษ์", "district": "บางขุนเทียน", "snapDistanceMeters": 37.82}}, {"type": "Feature", "geometry": {"type": "Point", "coordinates": [100.48768753232628, 13.740971333666444]}, "properties": {"id": 54901, "name": "ชุมชนวัดหงส์รัตนาราม", "district": "บางกอกใหญ่", "snapDistanceMeters": 1.4}}, {"type": "Feature", "geometry": {"type": "Point", "coordinates": [100.48672840557032, 13.742850642496945]}, "properties": {"id": 54903, "name": "ชุมชนปรกอรุณ", "district": "บางกอกใหญ่", "snapDistanceMeters": 24.8}}, {"type": "Feature", "geometry": {"type": "Point", "coordinates": [100.48115052071485, 13.720933331476385]}, "properties": {"id": 54949, "name": "ชุมชนหลังศูนย์จันทร์ฉิมไพบูลย์", "district": "ธนบุรี", "snapDistanceMeters": 22.15}}, {"type": "Feature", "geometry": {"type": "Point", "coordinates": [100.49427053469007, 13.716382320657955]}, "properties": {"id": 54634, "name": "ชุมชนซอยวัฒนา", "district": "คลองสาน", "snapDistanceMeters": 15.63}}, {"type": "Feature", "geometry": {"type": "Point", "coordinates": [100.49427053469007, 13.716382320657955]}, "properties": {"id": 54635, "name": "ศูนย์พัฒนาเด็กก่อนวัยเรียนชุมชนซอยวัฒนา", "district": "คลองสาน", "snapDistanceMeters": 8.69}}, {"type": "Feature", "geometry": {"type": "Point", "coordinates": [100.48357691935202, 13.723815449720908]}, "properties": {"id": 55267, "name": "ชุมชนวัดอินทาราม", "district": "ธนบุรี", "snapDistanceMeters": 16.05}}, {"type": "Feature", "geometry": {"type": "Point", "coordinates": [100.48378163570632, 13.713294665918111]}, "properties": {"id": 54398, "name": "ชุมชนรวมพลัง", "district": "ธนบุรี", "snapDistanceMeters": 24.29}}, {"type": "Feature", "geometry": {"type": "Point", "coordinates": [100.48410735054027, 13.716310461390641]}, "properties": {"id": 54404, "name": "ชุมชนสองร้อยห้อง", "district": "ธนบุรี", "snapDistanceMeters": 10.85}}, {"type": "Feature", "geometry": {"type": "Point", "coordinates": [100.51148187265103, 13.754049994916215]}, "properties": {"id": 55033, "name": "ชุมชนหลังศูนย์การค้าวรจักร", "district": "ป้อมปราบศัตรูพ่าย", "snapDistanceMeters": 23.19}}, {"type": "Feature", "geometry": {"type": "Point", "coordinates": [100.51043325272097, 13.779019670572792]}, "properties": {"id": 55036, "name": "ชุมชนสวนอ้อย", "district": "ดุสิต", "snapDistanceMeters": 30.07}}, {"type": "Feature", "geometry": {"type": "Point", "coordinates": [100.50339161343966, 13.724044232200866]}, "properties": {"id": 55273, "name": "ชุมชนวนาวรรณ", "district": "คลองสาน", "snapDistanceMeters": 20.19}}, {"type": "Feature", "geometry": {"type": "Point", "coordinates": [100.48738363634922, 13.715038952660969]}, "properties": {"id": 55391, "name": "ชุมชนสายสัมพันธ์", "district": "ธนบุรี", "snapDistanceMeters": 20.92}}, {"type": "Feature", "geometry": {"type": "Point", "coordinates": [100.48777998262668, 13.7151055480195]}, "properties": {"id": 55392, "name": "ที่ทำการชุมชนสายสัมพันธ์", "district": "ธนบุรี", "snapDistanceMeters": 9.71}}, {"type": "Feature", "geometry": {"type": "Point", "coordinates": [100.90550672317865, 13.839156276245518]}, "properties": {"id": 54871, "name": "ศูนย์สุขภาพชุมชน", "district": "หนองจอก", "snapDistanceMeters": 10.96}}, {"type": "Feature", "geometry": {"type": "Point", "coordinates": [100.62694408199702, 13.80027468778433]}, "properties": {"id": 54881, "name": "ที่ทำการกองทุนชุมชนสุขเจริญพัฒนา", "district": "บางกะปิ", "snapDistanceMeters": 14.88}}, {"type": "Feature", "geometry": {"type": "Point", "coordinates": [100.62695136599118, 13.800228610799675]}, "properties": {"id": 54882, "name": "ชุมชนสุขเจริญพัฒนา", "district": "บางกะปิ", "snapDistanceMeters": 24.6}}, {"type": "Feature", "geometry": {"type": "Point", "coordinates": [100.63227817400578, 13.800357343348283]}, "properties": {"id": 54883, "name": "ศูนย์พัฒนาเด็กเล็กก่อนวัยเรียนชุมชนสุขสันต์ 26", "district": "บางกะปิ", "snapDistanceMeters": 8.27}}, {"type": "Feature", "geometry": {"type": "Point", "coordinates": [100.50755729681013, 13.783287602666919]}, "properties": {"id": 56357, "name": "ศูนย์สุขภาพชุมชนชุมชนท่าน้ำสามเสน", "district": "ดุสิต", "snapDistanceMeters": 34.44}}, {"type": "Feature", "geometry": {"type": "Point", "coordinates": [100.46910675590637, 13.712175618515626]}, "properties": {"id": 54971, "name": "ชุมชนวัดใหม่ยายนุ้ย", "district": "ธนบุรี", "snapDistanceMeters": 12.73}}, {"type": "Feature", "geometry": {"type": "Point", "coordinates": [100.48042035390024, 13.718912260443046]}, "properties": {"id": 55018, "name": "ชุมชนโรงเจ 2", "district": "ธนบุรี", "snapDistanceMeters": 8.45}}, {"type": "Feature", "geometry": {"type": "Point", "coordinates": [100.50605199654052, 13.791542748752693]}, "properties": {"id": 55415, "name": "ชุมชนริมคลองบางพลัด", "district": "บางพลัด", "snapDistanceMeters": 7.91}}, {"type": "Feature", "geometry": {"type": "Point", "coordinates": [100.64541301586918, 13.785288354933098]}, "properties": {"id": 56564, "name": "ที่ทำการชุมชนหมู่บ้านศูนย์เยาวชนคลองจั่น", "district": "บางกะปิ", "snapDistanceMeters": 18.75}}, {"type": "Feature", "geometry": {"type": "Point", "coordinates": [100.64617601865707, 13.782432540764388]}, "properties": {"id": 56565, "name": "สถาบันพัฒนาองค์กรชุมชน (องค์การมหาชน)", "district": "บางกะปิ", "snapDistanceMeters": 52.36}}, {"type": "Feature", "geometry": {"type": "Point", "coordinates": [100.62775488664292, 13.803214686523042]}, "properties": {"id": 54260, "name": "ศูนย์สุขภาพชุมชน", "district": "บางกะปิ", "snapDistanceMeters": 27.89}}, {"type": "Feature", "geometry": {"type": "Point", "coordinates": [100.60782370707031, 13.879158410357027]}, "properties": {"id": 55150, "name": "ชุมชนหมู่บ้านทิมเรืองเวช (48)", "district": "บางเขน", "snapDistanceMeters": 81.48}}, {"type": "Feature", "geometry": {"type": "Point", "coordinates": [100.492583784781, 13.712360810032209]}, "properties": {"id": 55251, "name": "ชุมชนสุทธาราม", "district": "ธนบุรี", "snapDistanceMeters": 12.26}}, {"type": "Feature", "geometry": {"type": "Point", "coordinates": [100.49337556426089, 13.712111763885325]}, "properties": {"id": 55254, "name": "ชุมชนหลังโรงเรียนนฤดีศึกษา", "district": "ธนบุรี", "snapDistanceMeters": 3.59}}, {"type": "Feature", "geometry": {"type": "Point", "coordinates": [100.49204467790025, 13.71122771862663]}, "properties": {"id": 55255, "name": "ที่ทำการชุมชนวัดราชวรินทร์", "district": "ธนบุรี", "snapDistanceMeters": 9.53}}, {"type": "Feature", "geometry": {"type": "Point", "coordinates": [100.47309767080162, 13.741218319318536]}, "properties": {"id": 54995, "name": "ชุมชนหลังหมู่บ้านศิวาลัย", "district": "บางกอกใหญ่", "snapDistanceMeters": 43.53}}, {"type": "Feature", "geometry": {"type": "Point", "coordinates": [100.47733519327579, 13.74238785742311]}, "properties": {"id": 55002, "name": "ชุมชนหมู่บ้านศิวาลัย", "district": "บางกอกใหญ่", "snapDistanceMeters": 24.03}}, {"type": "Feature", "geometry": {"type": "Point", "coordinates": [100.47776005121105, 13.744447172022339]}, "properties": {"id": 55008, "name": "ชุมชนอนันทภูมิ", "district": "บางกอกใหญ่", "snapDistanceMeters": 53.71}}, {"type": "Feature", "geometry": {"type": "Point", "coordinates": [100.58792507045192, 13.87599723716435]}, "properties": {"id": 55259, "name": "ชุมชนร้อยกรอง", "district": "บางเขน", "snapDistanceMeters": 10.5}}, {"type": "Feature", "geometry": {"type": "Point", "coordinates": [100.51902046660373, 13.75276692985188]}, "properties": {"id": 54511, "name": "ชุมชนข้างทางรถไฟ", "district": "ดุสิต", "snapDistanceMeters": 39.57}}, {"type": "Feature", "geometry": {"type": "Point", "coordinates": [100.49153908042128, 13.709068796484587]}, "properties": {"id": 55741, "name": "ชุมชนวัดราชวรินทร์", "district": "ธนบุรี", "snapDistanceMeters": 47.1}}, {"type": "Feature", "geometry": {"type": "Point", "coordinates": [100.47310968199713, 13.721456859823604]}, "properties": {"id": 55752, "name": "ชุมชนปากคลองบางสะแก", "district": "ธนบุรี", "snapDistanceMeters": 7.76}}, {"type": "Feature", "geometry": {"type": "Point", "coordinates": [100.79576199012274, 13.846965937489989]}, "properties": {"id": 54846, "name": "ลานกีฬาชุมชนคู้ล่างสร้างสรรค์", "district": "มีนบุรี", "snapDistanceMeters": 10.48}}, {"type": "Feature", "geometry": {"type": "Point", "coordinates": [100.49525917369014, 13.71256672092935]}, "properties": {"id": 54459, "name": "ชุมชนหลังวัดสุทธาราม", "district": "คลองสาน", "snapDistanceMeters": 20.1}}, {"type": "Feature", "geometry": {"type": "Point", "coordinates": [100.49428283112324, 13.712430434825041]}, "properties": {"id": 54460, "name": "ศูนย์สุขภาพชุมชนวัดสุทธาราม", "district": "คลองสาน", "snapDistanceMeters": 9.57}}, {"type": "Feature", "geometry": {"type": "Point", "coordinates": [100.4847256463227, 13.734119693087852]}, "properties": {"id": 54830, "name": "ที่ทำการชุมชนวัดสังข์กระจาย", "district": "บางกอกใหญ่", "snapDistanceMeters": 9.97}}, {"type": "Feature", "geometry": {"type": "Point", "coordinates": [100.76195823110214, 13.829659392481009]}, "properties": {"id": 54589, "name": "ชุมชนหมู่ที่ 8 ร่วมใจพัฒนา", "district": "คลองสามวา", "snapDistanceMeters": 28.2}}, {"type": "Feature", "geometry": {"type": "Point", "coordinates": [100.49610090136208, 13.77096429677282]}, "properties": {"id": 54388, "name": "ที่ทำการชุมชนศาลเจ้าพ่อบ้านปูน", "district": "บางพลัด", "snapDistanceMeters": 10.18}}, {"type": "Feature", "geometry": {"type": "Point", "coordinates": [100.85286085730053, 13.730438569517961]}, "properties": {"id": 54594, "name": "ชุมชนคลองลำอ้ายแบนคลองตาสอน", "district": "ลาดกระบัง", "snapDistanceMeters": 39.8}}, {"type": "Feature", "geometry": {"type": "Point", "coordinates": [100.51510850004537, 13.810767695988288]}, "properties": {"id": 55306, "name": "ศูนย์การเรียนชุมชนวิมุตยาราม", "district": "บางพลัด", "snapDistanceMeters": 48.62}}, {"type": "Feature", "geometry": {"type": "Point", "coordinates": [100.40562163962475, 13.632225665015449]}, "properties": {"id": 54294, "name": "ชุมชนเพชรทองคำ", "district": "บางขุนเทียน", "snapDistanceMeters": 19.12}}, {"type": "Feature", "geometry": {"type": "Point", "coordinates": [100.50547142529436, 13.783412700166503]}, "properties": {"id": 56355, "name": "ชุมชนท่าน้ำสามเสน", "district": "ดุสิต", "snapDistanceMeters": 20.0}}, {"type": "Feature", "geometry": {"type": "Point", "coordinates": [100.46603279468943, 13.72167515475667]}, "properties": {"id": 32458, "name": "ชุมชนเพชรเกษม 21", "district": "ภาษีเจริญ", "snapDistanceMeters": 10.1}}, {"type": "Feature", "geometry": {"type": "Point", "coordinates": [100.68490928086457, 13.89123104664787]}, "properties": {"id": 83618, "name": "ลานกีฬาชุมชนวัชรพล 3", "district": "สายไหม", "snapDistanceMeters": 14.56}}, {"type": "Feature", "geometry": {"type": "Point", "coordinates": [100.44655076199841, 13.715875229974728]}, "properties": {"id": 32519, "name": "ชุมชนหลังโรงงานน้ำตาลนิวกว้างสุ้นหลี", "district": "ภาษีเจริญ", "snapDistanceMeters": 66.54}}, {"type": "Feature", "geometry": {"type": "Point", "coordinates": [100.44596096448488, 13.720045257233398]}, "properties": {"id": 32755, "name": "ศูนย์สุขภาพชุมชนวัดประดิษฐารามเขต 4", "district": "ภาษีเจริญ", "snapDistanceMeters": 10.56}}, {"type": "Feature", "geometry": {"type": "Point", "coordinates": [100.84592918009047, 13.701136942213406]}, "properties": {"id": 32203, "name": "ชุมชนวัดราชโกษา", "district": "ลาดกระบัง", "snapDistanceMeters": 359.2}}, {"type": "Feature", "geometry": {"type": "Point", "coordinates": [100.54383220475441, 13.69146723920485]}, "properties": {"id": 32790, "name": "ชุมชนบัวหลวง", "district": "ยานนาวา", "snapDistanceMeters": 51.7}}, {"type": "Feature", "geometry": {"type": "Point", "coordinates": [100.54436617693537, 13.693290595290174]}, "properties": {"id": 32792, "name": "ชุมชนร่วมพัฒนาวัดช่องนนทรี", "district": "ยานนาวา", "snapDistanceMeters": 12.07}}, {"type": "Feature", "geometry": {"type": "Point", "coordinates": [100.83698645289265, 13.835055968364133]}, "properties": {"id": 32698, "name": "ชุมชนแผ่นดินทองนูรู้ลเอื้ยะห์ซาน", "district": "หนองจอก", "snapDistanceMeters": 36.89}}, {"type": "Feature", "geometry": {"type": "Point", "coordinates": [100.72999518905488, 13.76626091678659]}, "properties": {"id": 32526, "name": "โรงเรียนเคหะชุมชนลาดกระบัง", "district": "ลาดกระบัง", "snapDistanceMeters": 61.5}}, {"type": "Feature", "geometry": {"type": "Point", "coordinates": [100.53672634507885, 13.674263701628563]}, "properties": {"id": 32727, "name": "ชุมชนเจ้าพระยา", "district": "ยานนาวา", "snapDistanceMeters": 35.21}}, {"type": "Feature", "geometry": {"type": "Point", "coordinates": [100.57822740625305, 13.856544306696668]}, "properties": {"id": 31968, "name": "ชุมชนพหลโยธิน 45", "district": "จตุจักร", "snapDistanceMeters": 23.84}}, {"type": "Feature", "geometry": {"type": "Point", "coordinates": [100.44998032383316, 13.720631658833964]}, "properties": {"id": 32760, "name": "ชุมชนเพชรเกษม 42", "district": "ภาษีเจริญ", "snapDistanceMeters": 32.98}}, {"type": "Feature", "geometry": {"type": "Point", "coordinates": [100.53239564528027, 13.726042130849514]}, "properties": {"id": 32718, "name": "ศูนย์สุขภาพชุมชนซอยพิพัฒน์ 2", "district": "บางรัก", "snapDistanceMeters": 28.49}}, {"type": "Feature", "geometry": {"type": "Point", "coordinates": [100.60386008989936, 13.806873271645319]}, "properties": {"id": 32872, "name": "ชุมชนหมู่บ้านเรือนทอง 3", "district": "ลาดพร้าว", "snapDistanceMeters": 22.51}}, {"type": "Feature", "geometry": {"type": "Point", "coordinates": [100.44533369763333, 13.739747417494543]}, "properties": {"id": 83267, "name": "ชุมชนนิลประพันธ์", "district": "ภาษีเจริญ", "snapDistanceMeters": 31.27}}, {"type": "Feature", "geometry": {"type": "Point", "coordinates": [100.5980944841751, 13.883879785620445]}, "properties": {"id": 83531, "name": "ที่ทำการกองทุนชุมชนเมืองซอยน้ำใส", "district": "บางเขน", "snapDistanceMeters": 19.8}}, {"type": "Feature", "geometry": {"type": "Point", "coordinates": [100.70513448083095, 13.824403855408077]}, "properties": {"id": 32252, "name": "ชุมชนประยงค์แย้ม", "district": "คลองสามวา", "snapDistanceMeters": 23.35}}, {"type": "Feature", "geometry": {"type": "Point", "coordinates": [100.43416703820759, 13.721428807742045]}, "properties": {"id": 32266, "name": "ชุมชนวัดจันทร์ประดิษฐารามเขต 1 หมู่ที่ 3", "district": "ภาษีเจริญ", "snapDistanceMeters": 28.94}}, {"type": "Feature", "geometry": {"type": "Point", "coordinates": [100.63887300040967, 13.909091270156386]}, "properties": {"id": 83268, "name": "ชุมชนซอยแม่จีน", "district": "สายไหม", "snapDistanceMeters": 39.75}}, {"type": "Feature", "geometry": {"type": "Point", "coordinates": [100.48441002612803, 13.729449234869639]}, "properties": {"id": 129638, "name": "ศูนย์สุขภาพชุมชนจำเนียรสุข 3", "district": "บางกอกใหญ่", "snapDistanceMeters": 14.16}}, {"type": "Feature", "geometry": {"type": "Point", "coordinates": [100.45712087071439, 13.678653445014476]}, "properties": {"id": 128414, "name": "ที่ทำการชุมชนบางระแนะน้อย", "district": "จอมทอง", "snapDistanceMeters": 8.23}}, {"type": "Feature", "geometry": {"type": "Point", "coordinates": [100.64107072534907, 13.713423767043052]}, "properties": {"id": 128430, "name": "ชุมชนยาใจ", "district": "สวนหลวง", "snapDistanceMeters": 35.19}}, {"type": "Feature", "geometry": {"type": "Point", "coordinates": [100.5072416145738, 13.769409120756492]}, "properties": {"id": 31853, "name": "ชุมชนซอยศรีอยุธยา 9", "district": "ดุสิต", "snapDistanceMeters": 23.47}}, {"type": "Feature", "geometry": {"type": "Point", "coordinates": [100.51258768883051, 13.67109565068912]}, "properties": {"id": 83311, "name": "ชุมชนวัดสน 2", "district": "ราษฎร์บูรณะ", "snapDistanceMeters": 13.93}}, {"type": "Feature", "geometry": {"type": "Point", "coordinates": [100.59974959783798, 13.934756102726206]}, "properties": {"id": 31867, "name": "ชุมชนปิ่นเจริญ 2", "district": "ดอนเมือง", "snapDistanceMeters": 58.44}}, {"type": "Feature", "geometry": {"type": "Point", "coordinates": [100.60106948410511, 13.933945511547346]}, "properties": {"id": 31869, "name": "ศูนย์พัฒนาเด็กก่อนวัยเรียนชุมชนปิ่นเจริญ 2", "district": "ดอนเมือง", "snapDistanceMeters": 34.4}}, {"type": "Feature", "geometry": {"type": "Point", "coordinates": [100.59438933371031, 13.943152786054377]}, "properties": {"id": 31615, "name": "ชุมชนศรีสุขญาดาร่วมพัฒนา", "district": "ดอนเมือง", "snapDistanceMeters": 38.38}}, {"type": "Feature", "geometry": {"type": "Point", "coordinates": [100.59628470499709, 13.944940637278021]}, "properties": {"id": 31618, "name": "ลานกีฬาชุมชนอยู่เจริญ-บุญมา", "district": "ดอนเมือง", "snapDistanceMeters": 22.13}}, {"type": "Feature", "geometry": {"type": "Point", "coordinates": [100.52529764523132, 13.775766763754111]}, "properties": {"id": 32683, "name": "ชุมชนถนนสุคันธาราม", "district": "ดุสิต", "snapDistanceMeters": 9.42}}, {"type": "Feature", "geometry": {"type": "Point", "coordinates": [100.52520107617866, 13.775402635358088]}, "properties": {"id": 32684, "name": "สำนักงานคณะกรรมการชุมชนถนนสุคันธาราม", "district": "ดุสิต", "snapDistanceMeters": 5.83}}, {"type": "Feature", "geometry": {"type": "Point", "coordinates": [100.78890105973396, 13.819953509759861]}, "properties": {"id": 32693, "name": "ชุมชนทองสงวน", "district": "มีนบุรี", "snapDistanceMeters": 16.61}}, {"type": "Feature", "geometry": {"type": "Point", "coordinates": [100.60418490638553, 13.88247614031242]}, "properties": {"id": 83623, "name": "ลานกีฬาชุมชนหมู่บ้านฝนทองนิเวศน์", "district": "บางเขน", "snapDistanceMeters": 21.13}}, {"type": "Feature", "geometry": {"type": "Point", "coordinates": [100.60106948410511, 13.933945511547346]}, "properties": {"id": 31870, "name": "ศูนย์สุขภาพชุมชนปิ่นเจริญ 2", "district": "ดอนเมือง", "snapDistanceMeters": 29.06}}, {"type": "Feature", "geometry": {"type": "Point", "coordinates": [100.52231356580978, 13.773819844640355]}, "properties": {"id": 31643, "name": "ชุมชนซอยราชวิถี 30", "district": "ดุสิต", "snapDistanceMeters": 32.22}}, {"type": "Feature", "geometry": {"type": "Point", "coordinates": [100.50143083115562, 13.713385728746855]}, "properties": {"id": 128294, "name": "ชุมชนคลองพระยาเกษม", "district": "คลองสาน", "snapDistanceMeters": 10.71}}, {"type": "Feature", "geometry": {"type": "Point", "coordinates": [100.46797725663679, 13.766139620549113]}, "properties": {"id": 129362, "name": "ชุมชนบางขุนศรี", "district": "บางกอกน้อย", "snapDistanceMeters": 25.06}}, {"type": "Feature", "geometry": {"type": "Point", "coordinates": [100.34292471031969, 13.676597013597569]}, "properties": {"id": 129130, "name": "ชุมชนเอี่ยมวุฒิ", "district": "หนองแขม", "snapDistanceMeters": 1.67}}, {"type": "Feature", "geometry": {"type": "Point", "coordinates": [100.68906314111793, 13.80036772725474]}, "properties": {"id": 128250, "name": "ศูนย์สุขภาพชุมชนชุมชนอมรพันธ์นครเสรีไทย", "district": "คันนายาว", "snapDistanceMeters": 8.3}}, {"type": "Feature", "geometry": {"type": "Point", "coordinates": [100.65101713143498, 13.919836684722636]}, "properties": {"id": 129165, "name": "ศูนย์สุขภาพชุมชน", "district": "สายไหม", "snapDistanceMeters": 23.58}}, {"type": "Feature", "geometry": {"type": "Point", "coordinates": [100.61799205089278, 13.89997888738236]}, "properties": {"id": 129167, "name": "ชุมชนร่วมใจสามัคคี 2529", "district": "สายไหม", "snapDistanceMeters": 14.0}}, {"type": "Feature", "geometry": {"type": "Point", "coordinates": [100.47538545596056, 13.738519661963869]}, "properties": {"id": 130521, "name": "ลานกีฬากรุงเทพมหานครชุมชนโค้งกระเทียม", "district": "บางกอกใหญ่", "snapDistanceMeters": 17.93}}, {"type": "Feature", "geometry": {"type": "Point", "coordinates": [100.50461580528794, 13.683455517450849]}, "properties": {"id": 129171, "name": "ศูนย์การเรียนชุมชนวัดราษฎร์บูรณะ", "district": "ราษฎร์บูรณะ", "snapDistanceMeters": 19.62}}, {"type": "Feature", "geometry": {"type": "Point", "coordinates": [100.46108383660574, 13.761585515825553]}, "properties": {"id": 129441, "name": "ศูนย์สุขภาพชุมชน", "district": "บางกอกน้อย", "snapDistanceMeters": 14.38}}, {"type": "Feature", "geometry": {"type": "Point", "coordinates": [100.65766810807098, 13.843818561156661]}, "properties": {"id": 128985, "name": "ชุมชนประสิทธิชัย", "district": "คันนายาว", "snapDistanceMeters": 20.45}}, {"type": "Feature", "geometry": {"type": "Point", "coordinates": [100.37333531838728, 13.704458722472538]}, "properties": {"id": 128650, "name": "ชุมชนนาคสถาพร", "district": "หนองแขม", "snapDistanceMeters": 30.48}}, {"type": "Feature", "geometry": {"type": "Point", "coordinates": [100.33631916071525, 13.679495579961328]}, "properties": {"id": 129192, "name": "ชุมชนเลียบคลองศรีสำราญ", "district": "หนองแขม", "snapDistanceMeters": 37.36}}, {"type": "Feature", "geometry": {"type": "Point", "coordinates": [100.49301018762257, 13.722240182614277]}, "properties": {"id": 128521, "name": "ชุมชนศาลเจ้าอาเหนียว", "district": "คลองสาน", "snapDistanceMeters": 11.81}}, {"type": "Feature", "geometry": {"type": "Point", "coordinates": [100.70813923944957, 13.823124712060213]}, "properties": {"id": 128523, "name": "ชุมชนเจริญพัฒนา (คูคต)", "district": "คลองสามวา", "snapDistanceMeters": 20.31}}, {"type": "Feature", "geometry": {"type": "Point", "coordinates": [100.6290019482351, 13.80490244527074]}, "properties": {"id": 128548, "name": "ชุมชนสุขเจริญพัฒนา", "district": "บางกะปิ", "snapDistanceMeters": 62.16}}, {"type": "Feature", "geometry": {"type": "Point", "coordinates": [100.767458532347, 13.834591011571971]}, "properties": {"id": 128506, "name": "ชุมชนซอยนุสและ", "district": "คลองสามวา", "snapDistanceMeters": 15.44}}, {"type": "Feature", "geometry": {"type": "Point", "coordinates": [100.35502571127397, 13.733418737533935]}, "properties": {"id": 128848, "name": "ชุมชนฉัตรชัยเสริมโชค", "district": "หนองแขม", "snapDistanceMeters": 27.36}}, {"type": "Feature", "geometry": {"type": "Point", "coordinates": [100.33806298727883, 13.67875777574791]}, "properties": {"id": 128599, "name": "ชุมชนซอยศิริมิตร", "district": "หนองแขม", "snapDistanceMeters": 18.95}}, {"type": "Feature", "geometry": {"type": "Point", "coordinates": [100.55487254549243, 13.839700893557582]}, "properties": {"id": 128610, "name": "ชุมชนประชาร่วมใจ 1", "district": "จตุจักร", "snapDistanceMeters": 11.51}},