{"type": "FeatureCollection", "features": [{"type": "Feature", "geometry": {"type": "Point", "coordinates": [100.52141668363575, 13.82847689552302]}, "properties": {"id": 273, "name": "โรงเรียนวัดเลียบราษฎร์บำรุง", "district": "บางซื่อ", "snapDistanceMeters": 31.29, "school_type": "รร.สังกัด กทม."}}, {"type": "Feature", "geometry": {"type": "Point", "coordinates": [100.75318202936083, 13.917915424826523]}, "properties": {"id": 1148, "name": "โรงเรียนวัดลำกะดาน", "district": "คลองสามวา", "snapDistanceMeters": 33.69, "school_type": "รร.สังกัด กทม."}}, {"type": "Feature", "geometry": {"type": "Point", "coordinates": [100.44079764819178, 13.568852174428784]}, "properties": {"id": 91017, "name": "โรงเรียนวัดประชาบำรุง", "district": "บางขุนเทียน", "snapDistanceMeters": 45.3, "school_type": "รร.สังกัด กทม."}}, {"type": "Feature", "geometry": {"type": "Point", "coordinates": [100.44669844457523, 13.678479356909863]}, "properties": {"id": 91076, "name": "โรงเรียนวัดกำแพง", "district": "บางขุนเทียน", "snapDistanceMeters": 25.11, "school_type": "รร.สังกัด กทม."}}, {"type": "Feature", "geometry": {"type": "Point", "coordinates": [100.38693067816047, 13.591513391452246]}, "properties": {"id": 91040, "name": "โรงเรียนวัดแสมดำ", "district": "บางขุนเทียน", "snapDistanceMeters": 86.39, "school_type": "รร.สังกัด กทม."}}, {"type": "Feature", "geometry": {"type": "Point", "coordinates": [100.54983615666217, 13.728997726895626]}, "properties": {"id": 90815, "name": "โรงเรียนฝึกอาชีพกรุงเทพมหานคร (บ่อนไก่)", "district": "ปทุมวัน", "snapDistanceMeters": 22.08, "school_type": "รร.สังกัด กทม."}}, {"type": "Feature", "geometry": {"type": "Point", "coordinates": [100.51424414738793, 13.72625018986993]}, "properties": {"id": 90764, "name": "ศูนย์การเรียนชุมชนวัดม่วงแคศูนย์บริการการศึกษานอกโรงเรียนเขตบางรัก", "district": "บางรัก", "snapDistanceMeters": 13.96, "school_type": "รร.สังกัด กทม."}}, {"type": "Feature", "geometry": {"type": "Point", "coordinates": [100.51518634527898, 13.726371140595479]}, "properties": {"id": 90765, "name": "โรงเรียนวัดม่วงแค", "district": "บางรัก", "snapDistanceMeters": 15.4, "school_type": "รร.สังกัด กทม."}}, {"type": "Feature", "geometry": {"type": "Point", "coordinates": [100.50381228971578, 13.74176002739368]}, "properties": {"id": 90512, "name": "โรงเรียนพระพุทธศาสนาวันอาทิตย์วัดจักรวรรดิราชาวาสวรมหาวิหาร", "district": "สัมพันธวงค์", "snapDistanceMeters": 41.82, "school_type": "รร.สังกัด กทม."}}, {"type": "Feature", "geometry": {"type": "Point", "coordinates": [100.65187320911119, 13.830058501268665]}, "properties": {"id": 90885, "name": "โรงเรียนนวมินทราชูทิศกรุงเทพมหานคร", "district": "บึงกุ่ม", "snapDistanceMeters": 51.69, "school_type": "รร.สังกัด กทม."}}, {"type": "Feature", "geometry": {"type": "Point", "coordinates": [100.5357284334927, 13.74597521533274]}, "properties": {"id": 91089, "name": "โรงเรียนพระปริยัติธรรม (สำนักเรียนวัดปทุมวนารามราชวรวิหาร)", "district": "ปทุมวัน", "snapDistanceMeters": 63.57, "school_type": "รร.สังกัด กทม."}}, {"type": "Feature", "geometry": {"type": "Point", "coordinates": [100.53661444302529, 13.747865807209918]}, "properties": {"id": 91091, "name": "โรงเรียนวัดปทุมวนาราม", "district": "ปทุมวัน", "snapDistanceMeters": 71.51, "school_type": "รร.สังกัด กทม."}}, {"type": "Feature", "geometry": {"type": "Point", "coordinates": [100.60775730922981, 13.767853702817682]}, "properties": {"id": 15732, "name": "โรงเรียนสอนวัดสายตาและประกอบแว่นตา", "district": "วังทองหลาง", "snapDistanceMeters": 19.92, "school_type": "รร.สังกัด กทม."}}, {"type": "Feature", "geometry": {"type": "Point", "coordinates": [100.5195910255633, 13.67546376709322]}, "properties": {"id": 132236, "name": "โรงเรียนวัดแจงร้อน", "district": "ราษฎร์บูรณะ", "snapDistanceMeters": 62.53, "school_type": "รร.สังกัด กทม."}}, {"type": "Feature", "geometry": {"type": "Point", "coordinates": [100.51678476214737, 13.71377478548422]}, "properties": {"id": 132139, "name": "โรงเรียนวัดดอน", "district": "สาทร", "snapDistanceMeters": 12.6, "school_type": "รร.สังกัด กทม."}}, {"type": "Feature", "geometry": {"type": "Point", "coordinates": [100.45422842778942, 13.759972628452267]}, "properties": {"id": 28274, "name": "โรงเรียนวัดกาญจนสิงหาสน์วิทยา", "district": "ตลิ่งชัน", "snapDistanceMeters": 22.23, "school_type": "รร.สังกัด กทม."}}, {"type": "Feature", "geometry": {"type": "Point", "coordinates": [100.56967707134581, 13.749820438227388]}, "properties": {"id": 35779, "name": "โรงเรียนวัดอุทัยธาราม", "district": "ห้วยขวาง", "snapDistanceMeters": 47.9, "school_type": "รร.สังกัด กทม."}}, {"type": "Feature", "geometry": {"type": "Point", "coordinates": [100.48858132380019, 13.728933324058957]}, "properties": {"id": 36084, "name": "โรงเรียนวัดใหญ่ศรีสุพรรณ", "district": "ธนบุรี", "snapDistanceMeters": 24.5, "school_type": "รร.สังกัด กทม."}}, {"type": "Feature", "geometry": {"type": "Point", "coordinates": [100.35490589590708, 13.74901192966179]}, "properties": {"id": 35883, "name": "โรงเรียนวัดศาลาแดง", "district": "บางแค", "snapDistanceMeters": 47.02, "school_type": "รร.สังกัด กทม."}}, {"type": "Feature", "geometry": {"type": "Point", "coordinates": [100.55191897695828, 13.749101841290623]}, "properties": {"id": 36199, "name": "โรงเรียนวัดดิสหงสาราม", "district": "ราขเทวี", "snapDistanceMeters": 32.45, "school_type": "รร.สังกัด กทม."}}, {"type": "Feature", "geometry": {"type": "Point", "coordinates": [100.49128689274185, 13.744734923339717]}, "properties": {"id": 36557, "name": "ศูนย์ฝึกนวดเท้าโรงเรียนแพทย์แผนโบราณวัดพระเชตุพน", "district": "พระนคร", "snapDistanceMeters": 28.79, "school_type": "รร.สังกัด กทม."}}, {"type": "Feature", "geometry": {"type": "Point", "coordinates": [100.51292549013891, 13.717273763720584]}, "properties": {"id": 35743, "name": "โรงเรียนพระปริยัติธรรมวัดยานนาวา", "district": "สาทร", "snapDistanceMeters": 22.21, "school_type": "รร.สังกัด กทม."}}, {"type": "Feature", "geometry": {"type": "Point", "coordinates": [100.50455585734095, 13.780333189766504]}, "properties": {"id": 56301, "name": "โรงเรียนวัดราชผาติการาม", "district": "ดุสิต", "snapDistanceMeters": 26.05, "school_type": "รร.สังกัด กทม."}}, {"type": "Feature", "geometry": {"type": "Point", "coordinates": [100.49463724288859, 13.760241631657694]}, "properties": {"id": 78299, "name": "โรงเรียนวัดชนะสงคราม", "district": "พระนคร", "snapDistanceMeters": 38.9, "school_type": "รร.สังกัด กทม."}}, {"type": "Feature", "geometry": {"type": "Point", "coordinates": [100.45628480245327, 13.779460523090776]}, "properties": {"id": 56209, "name": "โรงเรียนวัดตลิ่งชัน", "district": "ตลิ่งชัน", "snapDistanceMeters": 21.93, "school_type": "รร.สังกัด กทม."}}, {"type": "Feature", "geometry": {"type": "Point", "coordinates": [100.47257975499343, 13.736911095094577]}, "properties": {"id": 55561, "name": "โรงเรียนวัดเจ้ามูล", "district": "บางกอกใหญ่", "snapDistanceMeters": 20.62, "school_type": "รร.สังกัด กทม."}}, {"type": "Feature", "geometry": {"type": "Point", "coordinates": [100.47555986009479, 13.715920025861841]}, "properties": {"id": 55828, "name": "โรงเรียนวัดบางสะแกนอก", "district": "ธนบุรี", "snapDistanceMeters": 9.21, "school_type": "รร.สังกัด กทม."}}, {"type": "Feature", "geometry": {"type": "Point", "coordinates": [100.48478578076438, 13.720887772971393]}, "properties": {"id": 56486, "name": "โรงเรียนวัดโพธินิมิตร", "district": "ธนบุรี", "snapDistanceMeters": 13.27, "school_type": "รร.สังกัด กทม."}}, {"type": "Feature", "geometry": {"type": "Point", "coordinates": [100.4705077055721, 13.724297283037416]}, "properties": {"id": 56276, "name": "โรงเรียนวัดประดู่ในทรงธรรม", "district": "บางกอกใหญ่", "snapDistanceMeters": 33.5, "school_type": "รร.สังกัด กทม."}}, {"type": "Feature", "geometry": {"type": "Point", "coordinates": [100.51283294838852, 13.765621925775084]}, "properties": {"id": 77959, "name": "โรงเรียนมัธยมวัดเบญจมบพิตร", "district": "ดุสิต", "snapDistanceMeters": 40.72, "school_type": "รร.สังกัด กทม."}}, {"type": "Feature", "geometry": {"type": "Point", "coordinates": [100.40493880397453, 13.599763863874713]}, "properties": {"id": 78040, "name": "โรงเรียนวัดบางกระดี่", "district": "บางขุนเทียน", "snapDistanceMeters": 31.76, "school_type": "รร.สังกัด กทม."}}, {"type": "Feature", "geometry": {"type": "Point", "coordinates": [100.48532056500308, 13.735476855197486]}, "properties": {"id": 55957, "name": "โรงเรียนวัดราชสิทธาราม", "district": "บางกอกใหญ่", "snapDistanceMeters": 44.37, "school_type": "รร.สังกัด กทม."}}, {"type": "Feature", "geometry": {"type": "Point", "coordinates": [100.52844652575662, 13.732031045073407]}, "properties": {"id": 78243, "name": "โรงเรียนวัดหัวลำโพง", "district": "บางรัก", "snapDistanceMeters": 21.87, "school_type": "รร.สังกัด กทม."}}, {"type": "Feature", "geometry": {"type": "Point", "coordinates": [100.51094619658313, 13.782156289263753]}, "properties": {"id": 56409, "name": "โรงเรียนทีปังกรวิทยาพัฒน์ (วัดโบสถ์) ในพระราชูปถัมภ์ฯ", "district": "ดุสิต", "snapDistanceMeters": 30.86, "school_type": "รร.สังกัด กทม."}}, {"type": "Feature", "geometry": {"type": "Point", "coordinates": [100.61575503483053, 13.688832940456205]}, "properties": {"id": 78317, "name": "โรงเรียนวัดธรรมมงคล (หลวงพ่อวิริยังค์อุปถัมภ์)", "district": "พระโขนง", "snapDistanceMeters": 22.19, "school_type": "รร.สังกัด กทม."}}, {"type": "Feature", "geometry": {"type": "Point", "coordinates": [100.61491485473572, 13.687750905425998]}, "properties": {"id": 78318, "name": "โรงเรียนพระปริยัติธรรมวัดธรรมมงคล", "district": "พระโขนง", "snapDistanceMeters": 50.47, "school_type": "รร.สังกัด กทม."}}, {"type": "Feature", "geometry": {"type": "Point", "coordinates": [100.5105475072039, 13.782635288695207]}, "properties": {"id": 56475, "name": "สมาคมผู้ปกครองและครูโรงเรียนวัดโบสถ์", "district": "ดุสิต", "snapDistanceMeters": 13.18, "school_type": "รร.สังกัด กทม."}}, {"type": "Feature", "geometry": {"type": "Point", "coordinates": [100.47095985184336, 13.719774886495179]}, "properties": {"id": 55547, "name": "โรงเรียนวัดขุนจันทร์", "district": "ธนบุรี", "snapDistanceMeters": 13.73, "school_type": "รร.สังกัด กทม."}}, {"type": "Feature", "geometry": {"type": "Point", "coordinates": [100.47489928783303, 13.741208037200662]}, "properties": {"id": 55548, "name": "โรงเรียนวัดดีดวด", "district": "บางกอกใหญ่", "snapDistanceMeters": 9.39, "school_type": "รร.สังกัด กทม."}}, {"type": "Feature", "geometry": {"type": "Point", "coordinates": [100.51949925792283, 13.741916074379331]}, "properties": {"id": 77904, "name": "โรงเรียนวัดดวงแข", "district": "ปทุมวัน", "snapDistanceMeters": 15.9, "school_type": "รร.สังกัด กทม."}}, {"type": "Feature", "geometry": {"type": "Point", "coordinates": [100.73289355633224, 13.877321313166693]}, "properties": {"id": 128708, "name": "โรงเรียนวัดสุทธิสะอาด", "district": "คลองสามวา", "snapDistanceMeters": 35.3, "school_type": "รร.สังกัด กทม."}}, {"type": "Feature", "geometry": {"type": "Point", "coordinates": [100.73150567732542, 13.85115377925899]}, "properties": {"id": 129051, "name": "โรงเรียนวัดบัวแก้ว", "district": "คลองสามวา", "snapDistanceMeters": 15.17, "school_type": "รร.สังกัด กทม."}}, {"type": "Feature", "geometry": {"type": "Point", "coordinates": [100.68641686318254, 13.873741506000044]}, "properties": {"id": 128350, "name": "โรงเรียนวัดพระยาสุเรนทร์ (บุญมีอนุกูล)", "district": "คลองสามวา", "snapDistanceMeters": 15.96, "school_type": "รร.สังกัด กทม."}}, {"type": "Feature", "geometry": {"type": "Point", "coordinates": [100.43349121242544, 13.759141892822178]}, "properties": {"id": 128365, "name": "โรงเรียนวัดอินทราวาส", "district": "ตลิ่งชัน", "snapDistanceMeters": 43.22, "school_type": "รร.สังกัด กทม."}}, {"type": "Feature", "geometry": {"type": "Point", "coordinates": [100.48741733367272, 13.734416097987673]}, "properties": {"id": 54305, "name": "โรงเรียนวัดประดิษฐาราม", "district": "ธนบุรี", "snapDistanceMeters": 9.35, "school_type": "รร.สังกัด กทม."}}, {"type": "Feature", "geometry": {"type": "Point", "coordinates": [100.4266549901167, 13.769334805672672]}, "properties": {"id": 129001, "name": "โรงเรียนวัดโพธิ์ (ราษฎร์ผดุงผล)", "district": "ตลิ่งชัน", "snapDistanceMeters": 24.36, "school_type": "รร.สังกัด กทม."}}, {"type": "Feature", "geometry": {"type": "Point", "coordinates": [100.480358145865, 13.723001437025916]}, "properties": {"id": 54947, "name": "โรงเรียนวัดราชคฤห์", "district": "ธนบุรี", "snapDistanceMeters": 36.74, "school_type": "รร.สังกัด กทม."}}, {"type": "Feature", "geometry": {"type": "Point", "coordinates": [100.48222146644677, 13.741080937229498]}, "properties": {"id": 55476, "name": "โรงเรียนวัดใหม่พิเรนทร์", "district": "บางกอกใหญ่", "snapDistanceMeters": 10.69, "school_type": "รร.สังกัด กทม."}}, {"type": "Feature", "geometry": {"type": "Point", "coordinates": [100.48590075149528, 13.71519257393216]}, "properties": {"id": 54399, "name": "โรงเรียนวัดกระจับพินิจ", "district": "ธนบุรี", "snapDistanceMeters": 29.89, "school_type": "รร.สังกัด กทม."}}, {"type": "Feature", "geometry": {"type": "Point", "coordinates": [100.49554127612073, 13.735880723644987]}, "properties": {"id": 54877, "name": "โรงเรียนพุทธศาสนาวันอาทิตย์วัดประยุรวงศาวาสวรวิหาร", "district": "ธนบุรี", "snapDistanceMeters": 20.74, "school_type": "รร.สังกัด กทม."}}, {"type": "Feature", "geometry": {"type": "Point", "coordinates": [100.5036890497425, 13.755699169501893]}, "properties": {"id": 55176, "name": "โรงเรียนวัดราชนัดดา", "district": "พระนคร", "snapDistanceMeters": 21.33, "school_type": "รร.สังกัด กทม."}}, {"type": "Feature", "geometry": {"type": "Point", "coordinates": [100.4758481871397, 13.711601907775393]}, "properties": {"id": 54960, "name": "โรงเรียนวัดบางสะแกใน", "district": "ธนบุรี", "snapDistanceMeters": 24.86, "school_type": "รร.สังกัด กทม."}}, {"type": "Feature", "geometry": {"type": "Point", "coordinates": [100.46905985582454, 13.711934420058018]}, "properties": {"id": 54970, "name": "โรงเรียนวัดใหม่ยายนุ้ย", "district": "ธนบุรี", "snapDistanceMeters": 9.46, "school_type": "รร.สังกัด กทม."}}, {"type": "Feature", "geometry": {"type": "Point", "coordinates": [100.46521761002668, 13.784998667366946]}, "properties": {"id": 56347, "name": "โรงเรียนวัดไก่เตี้ย (สวัสดิ์ประชานุกูล)", "district": "ตลิ่งชัน", "snapDistanceMeters": 42.73, "school_type": "รร.สังกัด กทม."}}, {"type": "Feature", "geometry": {"type": "Point", "coordinates": [100.48823043405932, 13.700065660124944]}, "properties": {"id": 56562, "name": "โรงเรียนวัดบุคคโล", "district": "ธนบุรี", "snapDistanceMeters": 24.33, "school_type": "รร.สังกัด กทม."}}, {"type": "Feature", "geometry": {"type": "Point", "coordinates": [100.48313482655655, 13.722884435413539]}, "properties": {"id": 55495, "name": "โรงเรียนวัดอินทาราม", "district": "ธนบุรี", "snapDistanceMeters": 19.82, "school_type": "รร.สังกัด กทม."}}, {"type": "Feature", "geometry": {"type": "Point", "coordinates": [100.514416056405, 13.810811745222221]}, "properties": {"id": 55243, "name": "โรงเรียนวัดวิมุตยาราม", "district": "บางพลัด", "snapDistanceMeters": 35.47, "school_type": "รร.สังกัด กทม."}}, {"type": "Feature", "geometry": {"type": "Point", "coordinates": [100.49332810843337, 13.71287814976678]}, "properties": {"id": 54701, "name": "โรงเรียนวัดสุทธาราม (ประถม)", "district": "คลองสาน", "snapDistanceMeters": 17.5, "school_type": "รร.สังกัด กทม."}}, {"type": "Feature", "geometry": {"type": "Point", "coordinates": [100.49218009049663, 13.709110490867628]}, "properties": {"id": 55256, "name": "ลานกีฬากรุงเทพมหานครโรงเรียนวัดราชวรินทร์", "district": "ธนบุรี", "snapDistanceMeters": 1.43, "school_type": "รร.สังกัด กทม."}}, {"type": "Feature", "geometry": {"type": "Point", "coordinates": [100.49239167361212, 13.70924167991198]}, "properties": {"id": 55257, "name": "โรงเรียนวัดราชวรินทร์", "district": "ธนบุรี", "snapDistanceMeters": 18.93, "school_type": "รร.สังกัด กทม."}}, {"type": "Feature", "geometry": {"type": "Point", "coordinates": [100.33549599181961, 13.80196117421013]}, "properties": {"id": 55377, "name": "โรงเรียนวัดปุรณาวาส", "district": "ทวีวัฒนา", "snapDistanceMeters": 54.04, "school_type": "รร.สังกัด กทม."}}, {"type": "Feature", "geometry": {"type": "Point", "coordinates": [100.44741787444211, 13.666573621929691]}, "properties": {"id": 55516, "name": "โรงเรียนวัดเลา", "district": "บางขุนเทียน", "snapDistanceMeters": 44.7, "school_type": "รร.สังกัด กทม."}}, {"type": "Feature", "geometry": {"type": "Point", "coordinates": [100.75593247206476, 13.742474940677461]}, "properties": {"id": 31674, "name": "โรงเรียนวัดบำรุงรื่น", "district": "ลาดกระบัง", "snapDistanceMeters": 55.61, "school_type": "รร.สังกัด กทม."}}, {"type": "Feature", "geometry": {"type": "Point", "coordinates": [100.46744482332113, 13.79450068979819]}, "properties": {"id": 31855, "name": "โรงเรียนวัดชัยพฤกษมาลา (นนทสิริราษฎร์บำเพ็ญ)", "district": "ตลิ่งชัน", "snapDistanceMeters": 38.23, "school_type": "รร.สังกัด กทม."}}, {"type": "Feature", "geometry": {"type": "Point", "coordinates": [100.51332956874404, 13.764883016089774]}, "properties": {"id": 32180, "name": "โรงเรียนวัดเบญจมบพิตร", "district": "ดุสิต", "snapDistanceMeters": 11.69, "school_type": "รร.สังกัด กทม."}}, {"type": "Feature", "geometry": {"type": "Point", "coordinates": [100.54586042817103, 13.704554997059088]}, "properties": {"id": 31937, "name": "โรงเรียนวัดช่องลม", "district": "ยานนาวา", "snapDistanceMeters": 39.72, "school_type": "รร.สังกัด กทม."}}, {"type": "Feature", "geometry": {"type": "Point", "coordinates": [100.63374181890451, 13.908329167975113]}, "properties": {"id": 128297, "name": "โรงเรียนวัดเกาะสุวรรณาราม", "district": "สายไหม", "snapDistanceMeters": 16.73, "school_type": "รร.สังกัด กทม."}}, {"type": "Feature", "geometry": {"type": "Point", "coordinates": [100.34426635434622, 13.657330507105415]}, "properties": {"id": 129132, "name": "โรงเรียนวัดศรีนวลธรรมวิมล", "district": "หนองแขม", "snapDistanceMeters": 32.17, "school_type": "รร.สังกัด กทม."}}, {"type": "Feature", "geometry": {"type": "Point", "coordinates": [100.41852176019295, 13.79392884034981]}, "properties": {"id": 129254, "name": "โรงเรียนพระปริยัติธรรมวัดพุทธจักรมงคลชยาราม", "district": "ตลิ่งชัน", "snapDistanceMeters": 27.92, "school_type": "รร.สังกัด กทม."}}, {"type": "Feature", "geometry": {"type": "Point", "coordinates": [100.5565867916074, 13.840466898266072]}, "properties": {"id": 128607, "name": "โรงเรียนวัดเสมียนนารี", "district": "จตุจักร", "snapDistanceMeters": 26.75, "school_type": "รร.สังกัด กทม."}}, {"type": "Feature", "geometry": {"type": "Point", "coordinates": [100.51013917175402, 13.755353981510629]}, "properties": {"id": 31480, "name": "โรงเรียนวัดสิตาราม", "district": "ป้อมปราบศัตรูพ่าย", "snapDistanceMeters": 23.25, "school_type": "รร.สังกัด กทม."}}, {"type": "Feature", "geometry": {"type": "Point", "coordinates": [100.50324533967671, 13.761376665126262]}, "properties": {"id": 31153, "name": "โรงเรียนวัดตรีทศเทพ", "district": "พระนคร", "snapDistanceMeters": 13.87, "school_type": "รร.สังกัด กทม."}}, {"type": "Feature", "geometry": {"type": "Point", "coordinates": [100.46422405602813, 13.728406890594965]}, "properties": {"id": 31439, "name": "โรงเรียนวัดทองศาลางาม", "district": "ภาษีเจริญ", "snapDistanceMeters": 16.07, "school_type": "รร.สังกัด กทม."}}, {"type": "Feature", "geometry": {"type": "Point", "coordinates": [100.77672200584655, 13.765365261846448]}, "properties": {"id": 31315, "name": "โรงเรียนวัดบึงบัว", "district": "ลาดกระบัง", "snapDistanceMeters": 8.68, "school_type": "รร.สังกัด กทม."}}, {"type": "Feature", "geometry": {"type": "Point", "coordinates": [100.87865314173719, 13.811283400264733]}, "properties": {"id": 19384, "name": "โรงเรียนวัดราษฎร์บำรุง", "district": "หนองจอก", "snapDistanceMeters": 28.09, "school_type": "รร.สังกัด กทม."}}, {"type": "Feature", "geometry": {"type": "Point", "coordinates": [100.51103702676058, 13.736940042081988]}, "properties": {"id": 83442, "name": "โรงเรียนวัดปทุมคงคา", "district": "สัมพันธวงค์", "snapDistanceMeters": 22.35, "school_type": "รร.สังกัด กทม."}}, {"type": "Feature", "geometry": {"type": "Point", "coordinates": [100.42834721085292, 13.741644217963424]}, "properties": {"id": 83250, "name": "โรงเรียนวัดตะล่อม", "district": "ภาษีเจริญ", "snapDistanceMeters": 36.28, "school_type": "รร.สังกัด กทม."}}, {"type": "Feature", "geometry": {"type": "Point", "coordinates": [100.34765563010517, 13.761230986432224]}, "properties": {"id": 17717, "name": "โรงเรียนเกษตรทฤษฎีใหม่กรุงเทพมหานคร", "district": "ทวีวัฒนา", "snapDistanceMeters": 20.3, "school_type": "รร.สังกัด กทม."}}, {"type": "Feature", "geometry": {"type": "Point", "coordinates": [100.46711348628392, 13.723519358353737]}, "properties": {"id": 32416, "name": "โรงเรียนวัดนวลนรดิศ (บริเวณ 1)", "district": "ภาษีเจริญ", "snapDistanceMeters": 35.27, "school_type": "รร.สังกัด กทม."}}, {"type": "Feature", "geometry": {"type": "Point", "coordinates": [100.73756527330555, 13.726082529617214]}, "properties": {"id": 31542, "name": "โรงเรียนวัดสังฆราชา", "district": "ลาดกระบัง", "snapDistanceMeters": 7.34, "school_type": "รร.สังกัด กทม."}}, {"type": "Feature", "geometry": {"type": "Point", "coordinates": [100.5659508849426, 13.914208055431159]}, "properties": {"id": 32636, "name": "โรงเรียนวัดเวฬุวนาราม (สินทรัพย์อนุสรณ์)", "district": "ดอนเมือง", "snapDistanceMeters": 24.46, "school_type": "รร.สังกัด กทม."}}, {"type": "Feature", "geometry": {"type": "Point", "coordinates": [100.57472634814445, 13.921965866962699]}, "properties": {"id": 32065, "name": "โรงเรียนพระปริยัติธรรมวัดพรหมรังษี", "district": "ดอนเมือง", "snapDistanceMeters": 17.57, "school_type": "รร.สังกัด กทม."}}, {"type": "Feature", "geometry": {"type": "Point", "coordinates": [100.44265946130803, 13.747902770294317]}, "properties": {"id": 32606, "name": "โรงเรียนวัดกระโจมทอง", "district": "ตลิ่งชัน", "snapDistanceMeters": 23.88, "school_type": "รร.สังกัด กทม."}}, {"type": "Feature", "geometry": {"type": "Point", "coordinates": [100.45392988532718, 13.774286623669711]}, "properties": {"id": 31814, "name": "โรงเรียนวัดช่างเหล็ก", "district": "ตลิ่งชัน", "snapDistanceMeters": 27.36, "school_type": "รร.สังกัด กทม."}}, {"type": "Feature", "geometry": {"type": "Point", "coordinates": [100.56109020253197, 13.709938700998594]}, "properties": {"id": 32304, "name": "โรงเรียนวัดคลองเตย", "district": "คลองเตย", "snapDistanceMeters": 48.71, "school_type": "รร.สังกัด กทม."}}, {"type": "Feature", "geometry": {"type": "Point", "coordinates": [100.54374837990784, 13.677950045663701]}, "properties": {"id": 32365, "name": "โรงเรียนวัดคลองใหม่", "district": "ยานนาวา", "snapDistanceMeters": 10.07, "school_type": "รร.สังกัด กทม."}}, {"type": "Feature", "geometry": {"type": "Point", "coordinates": [100.46597492635463, 13.717476437448928]}, "properties": {"id": 31444, "name": "โรงเรียนวัดนาคปรก", "district": "ภาษีเจริญ", "snapDistanceMeters": 10.34, "school_type": "รร.สังกัด กทม."}}, {"type": "Feature", "geometry": {"type": "Point", "coordinates": [100.45386853715551, 13.712747424931422]}, "properties": {"id": 32586, "name": "โรงเรียนวัดโคนอน", "district": "ภาษีเจริญ", "snapDistanceMeters": 41.79, "school_type": "รร.สังกัด กทม."}}, {"type": "Feature", "geometry": {"type": "Point", "coordinates": [100.52013712346825, 13.751897290848357]}, "properties": {"id": 99078, "name": "โรงเรียนวัดบรมนิวาส", "district": "ปทุมวัน", "snapDistanceMeters": 23.8, "school_type": "รร.สังกัด กทม."}}, {"type": "Feature", "geometry": {"type": "Point", "coordinates": [100.58878431861058, 13.70407467320422]}, "properties": {"id": 23326, "name": "โรงเรียนวัดสะพาน", "district": "คลองเตย", "snapDistanceMeters": 22.72, "school_type": "รร.สังกัด กทม."}}, {"type": "Feature", "geometry": {"type": "Point", "coordinates": [100.52071530989879, 13.784611432694819]}, "properties": {"id": 23710, "name": "โรงเรียนวัดน้อยนพคุณ", "district": "ดุสิต", "snapDistanceMeters": 21.26, "school_type": "รร.สังกัด กทม."}}, {"type": "Feature", "geometry": {"type": "Point", "coordinates": [100.5018316618404, 13.772752330850754]}, "properties": {"id": 23375, "name": "โรงเรียนวัดเทวราชกุญชร", "district": "ดุสิต", "snapDistanceMeters": 26.75, "school_type": "รร.สังกัด กทม."}}, {"type": "Feature", "geometry": {"type": "Point", "coordinates": [100.51345404615307, 13.745559578680647]}, "properties": {"id": 23615, "name": "โรงเรียนวัดพลับพลาชัย", "district": "ป้อมปราบศัตรูพ่าย", "snapDistanceMeters": 24.31, "school_type": "รร.สังกัด กทม."}}, {"type": "Feature", "geometry": {"type": "Point", "coordinates": [100.60437636072095, 13.671158580438805]}, "properties": {"id": 23535, "name": "โรงเรียนวัดบางนาใน (รื่น ศยามานนท์)", "district": "บางนา", "snapDistanceMeters": 21.87, "school_type": "รร.สังกัด กทม."}}, {"type": "Feature", "geometry": {"type": "Point", "coordinates": [100.46828013258742, 13.781082767283408]}, "properties": {"id": 98767, "name": "โรงเรียนวัดสุวรรณคีรี", "district": "บางกอกน้อย", "snapDistanceMeters": 19.25, "school_type": "รร.สังกัด กทม."}}, {"type": "Feature", "geometry": {"type": "Point", "coordinates": [100.45328678978602, 13.759129470299708]}, "properties": {"id": 24059, "name": "โรงเรียนวัดรัชฎาธิฐาน", "district": "ตลิ่งชัน", "snapDistanceMeters": 26.87, "school_type": "รร.สังกัด กทม."}}, {"type": "Feature", "geometry": {"type": "Point", "coordinates": [100.54347364023465, 13.761175780413378]}, "properties": {"id": 24386, "name": "โรงเรียนวัดทัศนารุณสุนทริการาม", "district": "ราขเทวี", "snapDistanceMeters": 28.79, "school_type": "รร.สังกัด กทม."}}, {"type": "Feature", "geometry": {"type": "Point", "coordinates": [100.80696041591621, 13.808223591142477]}, "properties": {"id": 25175, "name": "โรงเรียนวัดใหม่ลำนกแขวก", "district": "มีนบุรี", "snapDistanceMeters": 24.96, "school_type": "รร.สังกัด กทม."}}, {"type": "Feature", "geometry": {"type": "Point", "coordinates": [100.54494050685393, 13.732863018377753]}, "properties": {"id": 24838, "name": "โรงเรียนสวนลุมพินีกรุงเทพมหานคร", "district": "ปทุมวัน", "snapDistanceMeters": 38.64, "school_type": "รร.สังกัด กทม."}}, {"type": "Feature", "geometry": {"type": "Point", "coordinates": [100.46511343817588, 13.69661388861768]}, "properties": {"id": 59601, "name": "โรงเรียนวัดบางขุนเทียนนอก (ศิลปเดชศึกษาคาร)", "district": "จอมทอง", "snapDistanceMeters": 39.41, "school_type": "รร.สังกัด กทม."}}, {"type": "Feature", "geometry": {"type": "Point", "coordinates": [100.49653892560391, 13.772243582408121]}, "properties": {"id": 98826, "name": "โรงเรียนวัดคฤหบดี (จันทรสถิตย์)", "district": "บางพลัด", "snapDistanceMeters": 11.03, "school_type": "รร.สังกัด กทม."}}, {"type": "Feature", "geometry": {"type": "Point", "coordinates": [100.51103702676058, 13.736940042081988]}, "properties": {"id": 99782, "name": "มูลนิธิโรงเรียนวัดปทุมคงคา", "district": "สัมพันธวงค์", "snapDistanceMeters": 22.92, "school_type": "รร.สังกัด กทม."}}, {"type": "Feature", "geometry": {"type": "Point", "coordinates": [100.50550170307771, 13.705302114771898]}, "properties": {"id": 99466, "name": "โรงเรียนวัดราชสิงขร", "district": "บางคอแหลม", "snapDistanceMeters": 22.79, "school_type": "รร.สังกัด กทม."}}, {"type": "Feature", "geometry": {"type": "Point", "coordinates": [100.46497821380507, 13.775673986282152]}, "properties": {"id": 99492, "name": "โรงเรียนวัดเจ้าอาม", "district": "บางกอกน้อย", "snapDistanceMeters": 15.02, "school_type": "รร.สังกัด กทม."}}, {"type": "Feature", "geometry": {"type": "Point", "coordinates": [100.47551074034679, 13.751216360515969]}, "properties": {"id": 99261, "name": "โรงเรียนวัดดงมูลเหล็ก", "district": "บางกอกน้อย", "snapDistanceMeters": 13.62, "school_type": "รร.สังกัด กทม."}}, {"type": "Feature", "geometry": {"type": "Point", "coordinates": [100.50603375948435, 13.744213122016765]}, "properties": {"id": 99241, "name": "โรงเรียนวัดชัยชนะสงคราม", "district": "สัมพันธวงค์", "snapDistanceMeters": 33.17, "school_type": "รร.สังกัด กทม."}}, {"type": "Feature", "geometry": {"type": "Point", "coordinates": [100.50813456213305, 13.74883763161625]}, "properties": {"id": 64772, "name": "โรงเรียนวัดดิสานุการาม", "district": "ป้อมปราบศัตรูพ่าย", "snapDistanceMeters": 18.24, "school_type": "รร.สังกัด กทม."}}, {"type": "Feature", "geometry": {"type": "Point", "coordinates": [100.6313538937974, 13.714424736542096]}, "properties": {"id": 46863, "name": "โรงเรียนวัดปากบ่อ", "district": "สวนหลวง", "snapDistanceMeters": 31.84, "school_type": "รร.สังกัด กทม."}}, {"type": "Feature", "geometry": {"type": "Point", "coordinates": [100.44053733605597, 13.720900343490134]}, "properties": {"id": 46278, "name": "โรงเรียนวัดจันทร์ประดิษฐาราม", "district": "ภาษีเจริญ", "snapDistanceMeters": 26.11, "school_type": "รร.สังกัด กทม."}}, {"type": "Feature", "geometry": {"type": "Point", "coordinates": [100.58769604411384, 13.703370618778797]}, "properties": {"id": 63793, "name": "ชุมชนข้างโรงเรียนวัดสะพาน", "district": "คลองเตย", "snapDistanceMeters": 8.75, "school_type": "รร.สังกัด กทม."}}, {"type": "Feature", "geometry": {"type": "Point", "coordinates": [100.42806436352471, 13.77587402492747]}, "properties": {"id": 64096, "name": "โรงเรียนวัดมะกอก (วิสุทธิวิทยาคาร)", "district": "ตลิ่งชัน", "snapDistanceMeters": 16.47, "school_type": "รร.สังกัด กทม."}}, {"type": "Feature", "geometry": {"type": "Point", "coordinates": [100.54452292261011, 13.693575950950734]}, "properties": {"id": 64625, "name": "โรงเรียนวัดช่องนนทรี", "district": "ยานนาวา", "snapDistanceMeters": 40.28, "school_type": "รร.สังกัด กทม."}}, {"type": "Feature", "geometry": {"type": "Point", "coordinates": [100.51770480363685, 13.812946067561551]}, "properties": {"id": 46331, "name": "โรงเรียนวัดสร้อยทอง", "district": "บางซื่อ", "snapDistanceMeters": 48.09, "school_type": "รร.สังกัด กทม."}}, {"type": "Feature", "geometry": {"type": "Point", "coordinates": [100.5132515290194, 13.746099947438031]}, "properties": {"id": 63706, "name": "สมาคมผู้ปกครองและครูโรงเรียนวัดพลับพลาชัย", "district": "ป้อมปราบศัตรูพ่าย", "snapDistanceMeters": 29.26, "school_type": "รร.สังกัด กทม."}}, {"type": "Feature", "geometry": {"type": "Point", "coordinates": [100.5102608390512, 13.619891800793186]}, "properties": {"id": 64141, "name": "โรงเรียนปริยัติธรรมวัดทุ่งครุ", "district": "ทุ่งครุ", "snapDistanceMeters": 22.31, "school_type": "รร.สังกัด กทม."}}, {"type": "Feature", "geometry": {"type": "Point", "coordinates": [100.58285806052741, 13.889240998812845]}, "properties": {"id": 63592, "name": "โรงเรียนวัดหลักสี่ (ทองใบทิวารีวิทยา)", "district": "หลักสี่", "snapDistanceMeters": 30.37, "school_type": "รร.สังกัด กทม."}}, {"type": "Feature", "geometry": {"type": "Point", "coordinates": [100.49828564722512, 13.792503306358142]}, "properties": {"id": 63896, "name": "โรงเรียนวัดบางพลัด (ป. สุวัณโณ)", "district": "บางพลัด", "snapDistanceMeters": 13.68, "school_type": "รร.สังกัด กทม."}}, {"type": "Feature", "geometry": {"type": "Point", "coordinates": [100.46973766716074, 13.720593477896669]}, "properties": {"id": 64188, "name": "โรงเรียนสตรีวัดอัปสรสวรรค์", "district": "ภาษีเจริญ", "snapDistanceMeters": 23.8, "school_type": "รร.สังกัด กทม."}}, {"type": "Feature", "geometry": {"type": "Point", "coordinates": [100.65240849057874, 13.767045439853282]}, "properties": {"id": 81839, "name": "ลานกีฬากรุงเทพมหานครโรงเรียนวัดศรีบุญเรือง", "district": "บางกะปิ", "snapDistanceMeters": 23.56, "school_type": "รร.สังกัด กทม."}}, {"type": "Feature", "geometry": {"type": "Point", "coordinates": [100.49749395156098, 13.732934127549958]}, "properties": {"id": 62878, "name": "โรงเรียนวัดพิชัยญาติ", "district": "คลองสาน", "snapDistanceMeters": 35.86, "school_type": "รร.สังกัด กทม."}}, {"type": "Feature", "geometry": {"type": "Point", "coordinates": [100.59047119689617, 13.803169325445761]}, "properties": {"id": 63201, "name": "โรงเรียนวัดลาดพร้าว", "district": "ลาดพร้าว", "snapDistanceMeters": 42.28, "school_type": "รร.สังกัด กทม."}}, {"type": "Feature", "geometry": {"type": "Point", "coordinates": [100.51764945520436, 13.822032336758392]}, "properties": {"id": 74107, "name": "โรงเรียนวัดมัชฌันติการาม", "district": "บางซื่อ", "snapDistanceMeters": 23.65, "school_type": "รร.สังกัด กทม."}}, {"type": "Feature", "geometry": {"type": "Point", "coordinates": [100.72012854019346, 13.72600669674367]}, "properties": {"id": 74970, "name": "โรงเรียนวัดลานบุญ", "district": "ลาดกระบัง", "snapDistanceMeters": 35.42, "school_type": "รร.สังกัด กทม."}}, {"type": "Feature", "geometry": {"type": "Point", "coordinates": [100.49549022066245, 13.68274081669706]}, "properties": {"id": 74402, "name": "โรงเรียนพระปริยัติธรรมวัดบางปะกอก", "district": "ราษฎร์บูรณะ", "snapDistanceMeters": 20.35, "school_type": "รร.สังกัด กทม."}}, {"type": "Feature", "geometry": {"type": "Point", "coordinates": [100.52177895237, 13.752192429037807]}, "properties": {"id": 74950, "name": "โรงเรียนวัดพระยายัง", "district": "ราขเทวี", "snapDistanceMeters": 23.26, "school_type": "รร.สังกัด กทม."}}, {"type": "Feature", "geometry": {"type": "Point", "coordinates": [100.61501305945161, 13.760086951922313]}, "properties": {"id": 74603, "name": "โรงเรียนวัดเทพลีลา (สิงหประสิทธิวิทยา)", "district": "บางกะปิ", "snapDistanceMeters": 30.31, "school_type": "รร.สังกัด กทม."}}, {"type": "Feature", "geometry": {"type": "Point", "coordinates": [100.61446998351029, 13.760497704265102]}, "properties": {"id": 74604, "name": "โรงเรียนพระปริยัติธรรมวัดเทพลีลา", "district": "บางกะปิ", "snapDistanceMeters": 12.74, "school_type": "รร.สังกัด กทม."}}, {"type": "Feature", "geometry": {"type": "Point", "coordinates": [100.60009068627868, 13.78418168831002]}, "properties": {"id": 74429, "name": "โรงเรียนวัดสามัคคีธรรม", "district": "วังทองหลาง", "snapDistanceMeters": 13.11, "school_type": "รร.สังกัด กทม."}}, {"type": "Feature", "geometry": {"type": "Point", "coordinates": [100.46011531662072, 13.739636714469702]}, "properties": {"id": 73975, "name": "โรงเรียนวัดวิจิตรการนิมิตร", "district": "ภาษีเจริญ", "snapDistanceMeters": 26.25, "school_type": "รร.สังกัด กทม."}}, {"type": "Feature", "geometry": {"type": "Point", "coordinates": [100.86064068739026, 13.856804798222308]}, "properties": {"id": 73838, "name": "โรงเรียนวัดหนองจอก (ภักดีนรเศรษฐ์)", "district": "หนองจอก", "snapDistanceMeters": 34.89, "school_type": "รร.สังกัด กทม."}}, {"type": "Feature", "geometry": {"type": "Point", "coordinates": [100.44003276681528, 13.71131537283293]}, "properties": {"id": 74046, "name": "โรงเรียนวัดรางบัว", "district": "ภาษีเจริญ", "snapDistanceMeters": 36.39, "school_type": "รร.สังกัด กทม."}}, {"type": "Feature", "geometry": {"type": "Point", "coordinates": [100.45911869774064, 13.695513522993213]}, "properties": {"id": 73458, "name": "โรงเรียนวัดบางประทุนนอก", "district": "จอมทอง", "snapDistanceMeters": 50.95, "school_type": "รร.สังกัด กทม."}}, {"type": "Feature", "geometry": {"type": "Point", "coordinates": [100.85209171117461, 13.72243748155845]}, "properties": {"id": 73521, "name": "โรงเรียนวัดขุมทอง", "district": "ลาดกระบัง", "snapDistanceMeters": 24.29, "school_type": "รร.สังกัด กทม."}}, {"type": "Feature", "geometry": {"type": "Point", "coordinates": [100.52380220942085, 13.701349652861891]}, "properties": {"id": 73597, "name": "โรงเรียนวัดไผ่เงินโชตนาราม", "district": "บางคอแหลม", "snapDistanceMeters": 23.0, "school_type": "รร.สังกัด กทม."}}, {"type": "Feature", "geometry": {"type": "Point", "coordinates": [100.50920670897115, 13.753081715037816]}, "properties": {"id": 73464, "name": "โรงเรียนวัดสระเกศ", "district": "ป้อมปราบศัตรูพ่าย", "snapDistanceMeters": 35.75, "school_type": "รร.สังกัด กทม."}}, {"type": "Feature", "geometry": {"type": "Point", "coordinates": [100.44265278136785, 13.747531133491695]}, "properties": {"id": 40318, "name": "ศูนย์สุขภาพชุมชนโรงเรียนวัดกระโจมทอง", "district": "ตลิ่งชัน", "snapDistanceMeters": 17.9, "school_type": "รร.สังกัด กทม."}}, {"type": "Feature", "geometry": {"type": "Point", "coordinates": [100.46044131295014, 13.706653045434594]}, "properties": {"id": 90253, "name": "โรงเรียนวัดศาลาครืน", "district": "จอมทอง", "snapDistanceMeters": 43.18, "school_type": "รร.สังกัด กทม."}}, {"type": "Feature", "geometry": {"type": "Point", "coordinates": [100.46521440528878, 13.704608584460205]}, "properties": {"id": 90259, "name": "โรงเรียนวัดหนัง", "district": "จอมทอง", "snapDistanceMeters": 33.65, "school_type": "รร.สังกัด กทม."}}, {"type": "Feature", "geometry": {"type": "Point", "coordinates": [100.51859895574601, 13.690002049397236]}, "properties": {"id": 90202, "name": "โรงเรียนวัดไทร", "district": "บางคอแหลม", "snapDistanceMeters": 20.85, "school_type": "รร.สังกัด กทม."}}, {"type": "Feature", "geometry": {"type": "Point", "coordinates": [100.47933228645483, 13.688008324374268]}, "properties": {"id": 89994, "name": "โรงเรียนวัดนาคนิมิตร", "district": "จอมทอง", "snapDistanceMeters": 29.49, "school_type": "รร.สังกัด กทม."}}, {"type": "Feature", "geometry": {"type": "Point", "coordinates": [100.44923554350083, 13.673476917741318]}, "properties": {"id": 89717, "name": "โรงเรียนวัดกก", "district": "บางขุนเทียน", "snapDistanceMeters": 12.63, "school_type": "รร.สังกัด กทม."}}, {"type": "Feature", "geometry": {"type": "Point", "coordinates": [100.41961031671013, 13.633653435983026]}, "properties": {"id": 89624, "name": "โรงเรียนวัดสะแกงาม", "district": "บางขุนเทียน", "snapDistanceMeters": 22.84, "school_type": "รร.สังกัด กทม."}}, {"type": "Feature", "geometry": {"type": "Point", "coordinates": [100.4669065998983, 13.702964549629165]}, "properties": {"id": 88829, "name": "โรงเรียนวัดนางนอง (พิพัฒน์)", "district": "จอมทอง", "snapDistanceMeters": 18.91, "school_type": "รร.สังกัด กทม."}}, {"type": "Feature", "geometry": {"type": "Point", "coordinates": [100.47968324032283, 13.6954537538971]}, "properties": {"id": 89357, "name": "โรงเรียนวัดมงคลวราราม (สมพรพลกสรรค์)", "district": "จอมทอง", "snapDistanceMeters": 29.24, "school_type": "รร.สังกัด กทม."}}, {"type": "Feature", "geometry": {"type": "Point", "coordinates": [100.49503823561842, 13.780100534729106]}, "properties": {"id": 89114, "name": "โรงเรียนวัดเปาโรหิตย์", "district": "บางพลัด", "snapDistanceMeters": 9.71, "school_type": "รร.สังกัด กทม."}}, {"type": "Feature", "geometry": {"type": "Point", "coordinates": [100.51735968413621, 13.73319917570958]}, "properties": {"id": 89452, "name": "โรงเรียนพระปริยัติธรรมวัดมหาพฤฒารามวรวิหาร", "district": "บางรัก", "snapDistanceMeters": 26.25, "school_type": "รร.สังกัด กทม."}}, {"type": "Feature", "geometry": {"type": "Point", "coordinates": [100.50612196642854, 13.713619283545588]}, "properties": {"id": 657, "name": "โรงเรียนพุทธศาสนาวันอาทิตย์วัดเศวตฉัตรวรวิหาร", "district": "คลองสาน", "snapDistanceMeters": 12.85, "school_type": "รร.สังกัด กทม."}}, {"type": "Feature", "geometry": {"type": "Point", "coordinates": [100.79113231969973, 13.918898948898498]}, "properties": {"id": 661, "name": "โรงเรียนวัดศรีสุก (แย้มเยื้อนอุปถัมภ์)", "district": "คลองสามวา", "snapDistanceMeters": 34.34, "school_type": "รร.สังกัด กทม."}}, {"type": "Feature", "geometry": {"type": "Point", "coordinates": [100.51584884363501, 13.732581542891413]}, "properties": {"id": 88935, "name": "โรงเรียนสตรีวัดมหาพฤฒาราม ในพระบรมราชินูปถัมภ์", "district": "บางรัก", "snapDistanceMeters": 24.53, "school_type": "รร.สังกัด กทม."}}, {"type": "Feature", "geometry": {"type": "Point", "coordinates": [100.51959320337403, 13.731302596037718]}, "properties": {"id": 89236, "name": "โรงเรียนวัดแก้วแจ่มฟ้า", "district": "บางรัก", "snapDistanceMeters": 53.83, "school_type": "รร.สังกัด กทม."}}, {"type": "Feature", "geometry": {"type": "Point", "coordinates": [100.65894811811016, 13.772943831605746]}, "properties": {"id": 88872, "name": "โรงเรียนวัดพิชัย", "district": "บึงกุ่ม", "snapDistanceMeters": 23.91, "school_type": "รร.สังกัด กทม."}}, {"type": "Feature", "geometry": {"type": "Point", "coordinates": [100.8606092817688, 13.854627794146554]}, "properties": {"id": 59334, "name": "โรงเรียนมัธยมวัดหนองจอก", "district": "หนองจอก", "snapDistanceMeters": 32.11, "school_type": "รร.สังกัด กทม."}}, {"type": "Feature", "geometry": {"type": "Point", "coordinates": [100.68571041282745, 13.918167374936598]}, "properties": {"id": 58474, "name": "โรงเรียนวัดหนองใหญ่", "district": "สายไหม", "snapDistanceMeters": 36.75, "school_type": "รร.สังกัด กทม."}}, {"type": "Feature", "geometry": {"type": "Point", "coordinates": [100.58823824371004, 13.676045504993722]}, "properties": {"id": 59418, "name": "โรงเรียนวัดบางนานอก", "district": "บางนา", "snapDistanceMeters": 42.01, "school_type": "รร.สังกัด กทม."}}, {"type": "Feature", "geometry": {"type": "Point", "coordinates": [100.50295429336418, 13.672581028001163]}, "properties": {"id": 58382, "name": "โรงเรียนวัดสารอด", "district": "ราษฎร์บูรณะ", "snapDistanceMeters": 38.9, "school_type": "รร.สังกัด กทม."}}, {"type": "Feature", "geometry": {"type": "Point", "coordinates": [100.50062366574338, 13.749890165570774]}, "properties": {"id": 59399, "name": "โรงเรียนพุทธศาสนาวันอาทิตย์วัดสุทัศนเทพวราราม", "district": "พระนคร", "snapDistanceMeters": 17.85, "school_type": "รร.สังกัด กทม."}}, {"type": "Feature", "geometry": {"type": "Point", "coordinates": [100.50918877075578, 13.752990199014393]}, "properties": {"id": 59297, "name": "มูลนิธิโรงเรียนวัดสระเกศ", "district": "ป้อมปราบศัตรูพ่าย", "snapDistanceMeters": 22.97, "school_type": "รร.สังกัด กทม."}}, {"type": "Feature", "geometry": {"type": "Point", "coordinates": [100.50913583817876, 13.752812311739726]}, "properties": {"id": 59298, "name": "สมาคมผู้ปกครองและครูโรงเรียนวัดสระเกศ", "district": "ป้อมปราบศัตรูพ่าย", "snapDistanceMeters": 22.19, "school_type": "รร.สังกัด กทม."}}, {"type": "Feature", "geometry": {"type": "Point", "coordinates": [100.40508466092686, 13.674856350330685]}, "properties": {"id": 59307, "name": "โรงเรียนวัดนินสุขาราม", "district": "บางบอน", "snapDistanceMeters": 27.13, "school_type": "รร.สังกัด กทม."}}, {"type": "Feature", "geometry": {"type": "Point", "coordinates": [100.50031953660343, 13.724479208417252]}, "properties": {"id": 2586, "name": "โรงเรียนวัดทองเพลง", "district": "คลองสาน", "snapDistanceMeters": 36.31, "school_type": "รร.สังกัด กทม."}}, {"type": "Feature", "geometry": {"type": "Point", "coordinates": [100.58602437057348, 13.718940332177732]}, "properties": {"id": 3505, "name": "นักธุรกิจน้อยโรงเรียนวัดธาตุทอง", "district": "วัฒนา", "snapDistanceMeters": 25.52, "school_type": "รร.สังกัด กทม."}}, {"type": "Feature", "geometry": {"type": "Point", "coordinates": [100.50577884583106, 13.74741271016837]}, "properties": {"id": 2805, "name": "โรงเรียนวัดพระพิเรนทร์", "district": "ป้อมปราบศัตรูพ่าย", "snapDistanceMeters": 18.05, "school_type": "รร.สังกัด กทม."}}, {"type": "Feature", "geometry": {"type": "Point", "coordinates": [100.50812816501661, 13.733018355309918]}, "properties": {"id": 2879, "name": "โรงเรียนวัดทองนพคุณ", "district": "คลองสาน", "snapDistanceMeters": 19.81, "school_type": "รร.สังกัด กทม."}}, {"type": "Feature", "geometry": {"type": "Point", "coordinates": [100.51031763308865, 13.724045895988388]}, "properties": {"id": 57327, "name": "โรงเรียนวัดสุวรรณ", "district": "คลองสาน", "snapDistanceMeters": 23.02, "school_type": "รร.สังกัด กทม."}}, {"type": "Feature", "geometry": {"type": "Point", "coordinates": [100.46893055330064, 13.724391005793663]}, "properties": {"id": 57178, "name": "โรงเรียนวัดประดู่ฉิมพลี", "district": "บางกอกใหญ่", "snapDistanceMeters": 13.26, "school_type": "รร.สังกัด กทม."}}, {"type": "Feature", "geometry": {"type": "Point", "coordinates": [100.50171148089589, 13.75918310147467]}, "properties": {"id": 57323, "name": "โรงเรียนวัดบวรนิเวศ", "district": "พระนคร", "snapDistanceMeters": 30.02, "school_type": "รร.สังกัด กทม."}}, {"type": "Feature", "geometry": {"type": "Point", "coordinates": [100.6225512775173, 13.711770329903128]}, "properties": {"id": 57676, "name": "โรงเรียนวัดทองใน", "district": "สวนหลวง", "snapDistanceMeters": 10.73, "school_type": "รร.สังกัด กทม."}}, {"type": "Feature", "geometry": {"type": "Point", "coordinates": [100.51803552775299, 13.747694582642172]}, "properties": {"id": 76653, "name": "โรงเรียนวัดสระบัว", "district": "ปทุมวัน", "snapDistanceMeters": 44.39, "school_type": "รร.สังกัด กทม."}}, {"type": "Feature", "geometry": {"type": "Point", "coordinates": [100.55282840190938, 13.768010209744823]}, "properties": {"id": 56910, "name": "โรงเรียนกีฬากรุงเทพมหานคร", "district": "ดินแดง", "snapDistanceMeters": 17.64, "school_type": "รร.สังกัด กทม."}}, {"type": "Feature", "geometry": {"type": "Point", "coordinates": [100.51210902786879, 13.712417368458006]}, "properties": {"id": 57682, "name": "โรงเรียนวัดสุทธิวราราม", "district": "สาทร", "snapDistanceMeters": 26.74, "school_type": "รร.สังกัด กทม."}}, {"type": "Feature", "geometry": {"type": "Point", "coordinates": [100.55239402750622, 13.768228558940109]}, "properties": {"id": 56911, "name": "หอพักโรงเรียนกีฬากรุงเทพมหานคร", "district": "ดินแดง", "snapDistanceMeters": 22.44, "school_type": "รร.สังกัด กทม."}}, {"type": "Feature", "geometry": {"type": "Point", "coordinates": [100.53328586618858, 13.672926028337965]}, "properties": {"id": 58729, "name": "โรงเรียนวัดปริวาศ", "district": "ยานนาวา", "snapDistanceMeters": 18.06, "school_type": "รร.สังกัด กทม."}}, {"type": "Feature", "geometry": {"type": "Point", "coordinates": [100.44833352573497, 13.755794362612006]}, "properties": {"id": 58562, "name": "โรงเรียนสุวรรณพลับพลาพิทยาคม (โรงเรียนวัดประสาท)", "district": "ตลิ่งชัน", "snapDistanceMeters": 39.54, "school_type": "รร.สังกัด กทม."}}, {"type": "Feature", "geometry": {"type": "Point", "coordinates": [100.42717518125275, 13.709649823571903]}, "properties": {"id": 58305, "name": "โรงเรียนวัดนิมมานรดี", "district": "ภาษีเจริญ", "snapDistanceMeters": 31.85, "school_type": "รร.สังกัด กทม."}}, {"type": "Feature", "geometry": {"type": "Point", "coordinates": [100.35530974486905, 13.750102500371952]}, "properties": {"id": 59034, "name": "โรงเรียนพระปริยัติธรรมวัดศาลาแดง", "district": "บางแค", "snapDistanceMeters": 10.36, "school_type": "รร.สังกัด กทม."}}, {"type": "Feature", "geometry": {"type": "Point", "coordinates": [100.44716144926095, 13.651650285641942]}, "properties": {"id": 58968, "name": "โรงเรียนวัดท่าข้าม", "district": "บางขุนเทียน", "snapDistanceMeters": 83.04, "school_type": "รร.สังกัด กทม."}}, {"type": "Feature", "geometry": {"type": "Point", "coordinates": [100.60682640053597, 13.714170778199138]}, "properties": {"id": 57999, "name": "ร้านค้าสวัสดิการโรงเรียนวัดมหาบุศย์ (พิทักษ์ถาวรคุณ)", "district": "สวนหลวง", "snapDistanceMeters": 9.71, "school_type": "รร.สังกัด กทม."}}, {"type": "Feature", "geometry": {"type": "Point", "coordinates": [100.3876788823365, 13.73052413737597]}, "properties": {"id": 59193, "name": "โรงเรียนวัดบุณยประดิษฐ์", "district": "บางแค", "snapDistanceMeters": 72.97, "school_type": "รร.สังกัด กทม."}}, {"type": "Feature", "geometry": {"type": "Point", "coordinates": [100.50033333836642, 13.749073372003659]}, "properties": {"id": 59225, "name": "โรงเรียนพระปริยัติธรรมวัดสุทัศนเทพวราราม", "district": "พระนคร", "snapDistanceMeters": 9.5, "school_type": "รร.สังกัด กทม."}}, {"type": "Feature", "geometry": {"type": "Point", "coordinates": [100.80129523916577, 13.780643294855043]}, "properties": {"id": 57153, "name": "โรงเรียนวัดทิพพาวาส", "district": "ลาดกระบัง", "snapDistanceMeters": 16.11, "school_type": "รร.สังกัด กทม."}}, {"type": "Feature", "geometry": {"type": "Point", "coordinates": [100.51916143899051, 13.751445751257586]}, "properties": {"id": 136349, "name": "โรงเรียนพระปริยัติธรรมวัดบรมนิวาส", "district": "ปทุมวัน", "snapDistanceMeters": 23.77, "school_type": "รร.สังกัด กทม."}}, {"type": "Feature", "geometry": {"type": "Point", "coordinates": [100.6220060989344, 13.702254759073146]}, "properties": {"id": 76786, "name": "โรงเรียนวัดราษฎร์ศรัทธาธรรม", "district": "พระโขนง", "snapDistanceMeters": 46.48, "school_type": "รร.สังกัด กทม."}}, {"type": "Feature", "geometry": {"type": "Point", "coordinates": [100.6218376348628, 13.703394776963055]}, "properties": {"id": 77416, "name": "โรงเรียนมูลนิธิวัดราษฎร์ศรัทธาธรรมสงเคราะห์", "district": "พระโขนง", "snapDistanceMeters": 34.19, "school_type": "รร.สังกัด กทม."}}, {"type": "Feature", "geometry": {"type": "Point", "coordinates": [100.50760197827047, 13.76405957721886]}, "properties": {"id": 76872, "name": "โรงเรียนมัธยมวัดมกุฏกษัตริย์", "district": "พระนคร", "snapDistanceMeters": 18.91, "school_type": "รร.สังกัด กทม."}}, {"type": "Feature", "geometry": {"type": "Point", "coordinates": [100.49467478159978, 13.743909716730924]}, "properties": {"id": 77130, "name": "โรงเรียนวัดราชบพิธ", "district": "พระนคร", "snapDistanceMeters": 26.94, "school_type": "รร.สังกัด กทม."}}, {"type": "Feature", "geometry": {"type": "Point", "coordinates": [100.68962629703206, 13.722114508529843]}, "properties": {"id": 45652, "name": "โรงเรียนวัดกระทุ่มเสือปลา", "district": "ประเวศ", "snapDistanceMeters": 19.27, "school_type": "รร.สังกัด กทม."}}, {"type": "Feature", "geometry": {"type": "Point", "coordinates": [100.50663439070102, 13.734131761074421]}, "properties": {"id": 1284, "name": "โรงเรียนวัดทองธรรมชาติ", "district": "คลองสาน", "snapDistanceMeters": 17.35, "school_type": "รร.สังกัด กทม."}}, {"type": "Feature", "geometry": {"type": "Point", "coordinates": [100.47391414347328, 13.754325200764006]}, "properties": {"id": 45182, "name": "โรงเรียนวัดยางสุทธาราม", "district": "บางกอกน้อย", "snapDistanceMeters": 21.67, "school_type": "รร.สังกัด กทม."}}, {"type": "Feature", "geometry": {"type": "Point", "coordinates": [100.47283321256094, 13.733543678553824]}, "properties": {"id": 44845, "name": "โรงเรียนวัดท่าพระ", "district": "บางกอกใหญ่", "snapDistanceMeters": 13.47, "school_type": "รร.สังกัด กทม."}}, {"type": "Feature", "geometry": {"type": "Point", "coordinates": [100.33884430472267, 13.675506670419644]}, "properties": {"id": 45042, "name": "โรงเรียนมัธยมวัดหนองแขม", "district": "หนองแขม", "snapDistanceMeters": 47.96, "school_type": "รร.สังกัด กทม."}}, {"type": "Feature", "geometry": {"type": "Point", "coordinates": [100.90616921411537, 13.887298881535711]}, "properties": {"id": 44257, "name": "โรงเรียนวัดใหม่เจริญราษฎร์", "district": "หนองจอก", "snapDistanceMeters": 15.74, "school_type": "รร.สังกัด กทม."}}, {"type": "Feature", "geometry": {"type": "Point", "coordinates": [100.50990164885576, 13.744769849651634]}, "properties": {"id": 1274, "name": "โรงเรียนวัดคณิกาผล", "district": "ป้อมปราบศัตรูพ่าย", "snapDistanceMeters": 18.08, "school_type": "รร.สังกัด กทม."}}, {"type": "Feature", "geometry": {"type": "Point", "coordinates": [100.4957417233471, 13.737722340438605]}, "properties": {"id": 44453, "name": "โรงเรียนวัดประยุรวงศ์", "district": "ธนบุรี", "snapDistanceMeters": 15.96, "school_type": "รร.สังกัด กทม."}}, {"type": "Feature", "geometry": {"type": "Point", "coordinates": [100.49751062674692, 13.734141503277412]}, "properties": {"id": 940, "name": "โรงเรียนพระปริยัติธรรมวัดอนงคาราม", "district": "คลองสาน", "snapDistanceMeters": 16.97, "school_type": "รร.สังกัด กทม."}}, {"type": "Feature", "geometry": {"type": "Point", "coordinates": [100.54056311881246, 13.672422766116716]}, "properties": {"id": 44333, "name": "โรงเรียนวัดด่าน (หวอดทรัพย์คงเที่ยงอนุสรณ์)", "district": "ยานนาวา", "snapDistanceMeters": 22.47, "school_type": "รร.สังกัด กทม."}}, {"type": "Feature", "geometry": {"type": "Point", "coordinates": [100.56204209705834, 13.854224995451409]}, "properties": {"id": 45526, "name": "โรงเรียนวัดเทวสุนทร", "district": "จตุจักร", "snapDistanceMeters": 43.7, "school_type": "รร.สังกัด กทม."}}, {"type": "Feature", "geometry": {"type": "Point", "coordinates": [100.73794472464017, 13.777219155972139]}, "properties": {"id": 1386, "name": "โรงเรียนวัดปากบึง", "district": "ลาดกระบัง", "snapDistanceMeters": 36.68, "school_type": "รร.สังกัด กทม."}}, {"type": "Feature", "geometry": {"type": "Point", "coordinates": [100.88813758956154, 13.756386454123788]}, "properties": {"id": 1261, "name": "โรงเรียนวัดลำต้อยติ่ง", "district": "หนองจอก", "snapDistanceMeters": 21.63, "school_type": "รร.สังกัด กทม."}}, {"type": "Feature", "geometry": {"type": "Point", "coordinates": [100.68088716500814, 13.681877524303404]}, "properties": {"id": 49800, "name": "โรงเรียนวัดทุ่งลานนา", "district": "ประเวศ", "snapDistanceMeters": 14.74, "school_type": "รร.สังกัด กทม."}}, {"type": "Feature", "geometry": {"type": "Point", "coordinates": [100.61794238957721, 13.849907289452311]}, "properties": {"id": 34845, "name": "โรงเรียนวัดไตรรัตนาราม (ชื่นชูใจราษฎร์อุทิศ)", "district": "บางเขน", "snapDistanceMeters": 29.79, "school_type": "รร.สังกัด กทม."}}, {"type": "Feature", "geometry": {"type": "Point", "coordinates": [100.58653530636393, 13.719653227208264]}, "properties": {"id": 35159, "name": "โรงเรียนวัดธาตุทอง", "district": "วัฒนา", "snapDistanceMeters": 14.73, "school_type": "รร.สังกัด กทม."}}, {"type": "Feature", "geometry": {"type": "Point", "coordinates": [100.80403578221595, 13.850324051460593]}, "properties": {"id": 34870, "name": "โรงเรียนวัดทรัพย์สโมสร", "district": "หนองจอก", "snapDistanceMeters": 60.52, "school_type": "รร.สังกัด กทม."}}, {"type": "Feature", "geometry": {"type": "Point", "coordinates": [100.63080908130819, 13.713511316212166]}, "properties": {"id": 35273, "name": "โรงเรียนมูลนิธิวัดปากบ่อ", "district": "สวนหลวง", "snapDistanceMeters": 20.62, "school_type": "รร.สังกัด กทม."}}, {"type": "Feature", "geometry": {"type": "Point", "coordinates": [100.851097663298, 13.699349232703069]}, "properties": {"id": 35277, "name": "โรงเรียนวัดราชโกษา", "district": "ลาดกระบัง", "snapDistanceMeters": 6.16, "school_type": "รร.สังกัด กทม."}}, {"type": "Feature", "geometry": {"type": "Point", "coordinates": [100.67353826233459, 13.853889558683978]}, "properties": {"id": 35182, "name": "โรงเรียนวัดคู้บอน", "district": "คลองสามวา", "snapDistanceMeters": 36.86, "school_type": "รร.สังกัด กทม."}}, {"type": "Feature", "geometry": {"type": "Point", "coordinates": [100.5704362401549, 13.73103642044003]}, "properties": {"id": 35190, "name": "โรงเรียนนวดแผนโบราณวัดโพธิ์", "district": "วัฒนา", "snapDistanceMeters": 16.64, "school_type": "รร.สังกัด กทม."}}, {"type": "Feature", "geometry": {"type": "Point", "coordinates": [100.62514040076016, 13.886462501802296]}, "properties": {"id": 34904, "name": "โรงเรียนวัดราษฎร์นิยมธรรม (พิบูลสงคราม)", "district": "สายไหม", "snapDistanceMeters": 43.33, "school_type": "รร.สังกัด กทม."}}, {"type": "Feature", "geometry": {"type": "Point", "coordinates": [100.63968588452408, 13.837860076440384]}, "properties": {"id": 34659, "name": "โรงเรียนวัดนวลจันทร์", "district": "บึงกุ่ม", "snapDistanceMeters": 22.92, "school_type": "รร.สังกัด กทม."}}, {"type": "Feature", "geometry": {"type": "Point", "coordinates": [100.44222720764598, 13.77418634402367]}, "properties": {"id": 33059, "name": "โรงเรียนวัดทอง (อุดมศิลปวิทยาคาร)", "district": "ตลิ่งชัน", "snapDistanceMeters": 27.61, "school_type": "รร.สังกัด กทม."}}, {"type": "Feature", "geometry": {"type": "Point", "coordinates": [100.5747540913473, 13.746667663264983]}, "properties": {"id": 33414, "name": "โรงเรียนวัดใหม่ช่องลม", "district": "ห้วยขวาง", "snapDistanceMeters": 32.77, "school_type": "รร.สังกัด กทม."}}, {"type": "Feature", "geometry": {"type": "Point", "coordinates": [100.78681738797376, 13.800644934739712]}, "properties": {"id": 33261, "name": "โรงเรียนวัดทองสัมฤทธิ์", "district": "มีนบุรี", "snapDistanceMeters": 50.01, "school_type": "รร.สังกัด กทม."}}, {"type": "Feature", "geometry": {"type": "Point", "coordinates": [100.60810195999194, 13.71411458252721]}, "properties": {"id": 33663, "name": "โรงเรียนวัดมหาบุศย์ (พิทักษ์ถาวรคุณ)", "district": "สวนหลวง", "snapDistanceMeters": 35.56, "school_type": "รร.สังกัด กทม."}}, {"type": "Feature", "geometry": {"type": "Point", "coordinates": [100.61511029041232, 13.94904606099537]}, "properties": {"id": 33270, "name": "โรงเรียนพหลโยธิน (พ่วงเจริญอุปถัมภ์) กรุงเทพมหานคร", "district": "ดอนเมือง", "snapDistanceMeters": 74.24, "school_type": "รร.สังกัด กทม."}}, {"type": "Feature", "geometry": {"type": "Point", "coordinates": [100.7524797183226, 13.917109529015999]}, "properties": {"id": 26767, "name": "โรงเรียนพระปริยัติธรรมวัดลำกะดาน", "district": "คลองสามวา", "snapDistanceMeters": 11.56, "school_type": "รร.สังกัด กทม."}}, {"type": "Feature", "geometry": {"type": "Point", "coordinates": [100.7904548401665, 13.918904524261832]}, "properties": {"id": 26780, "name": "อาคารบ้านพักโรงเรียนวัดศรีสุก", "district": "คลองสามวา", "snapDistanceMeters": 35.53, "school_type": "รร.สังกัด กทม."}}, {"type": "Feature", "geometry": {"type": "Point", "coordinates": [100.50471789867377, 13.775119428851216]}, "properties": {"id": 25544, "name": "โรงเรียนวัดราชาธิวาส", "district": "ดุสิต", "snapDistanceMeters": 21.73, "school_type": "รร.สังกัด กทม."}}, {"type": "Feature", "geometry": {"type": "Point", "coordinates": [100.81301438357232, 13.791532214520052]}, "properties": {"id": 169676, "name": "โรงเรียนวัดอู่ตะเภา", "district": "หนองจอก", "snapDistanceMeters": 31.28, "school_type": "รร.สังกัด กทม."}}, {"type": "Feature", "geometry": {"type": "Point", "coordinates": [100.80719428440462, 13.888897614117592]}, "properties": {"id": 25418, "name": "โรงเรียนวัดสามง่าม", "district": "หนองจอก", "snapDistanceMeters": 23.35, "school_type": "รร.สังกัด กทม."}}, {"type": "Feature", "geometry": {"type": "Point", "coordinates": [100.80016241670154, 13.862103024923588]}, "properties": {"id": 25360, "name": "โรงเรียนนานาชาติเกาหลีกรุงเทพมหานคร", "district": "หนองจอก", "snapDistanceMeters": 30.52, "school_type": "รร.สังกัด กทม."}}, {"type": "Feature", "geometry": {"type": "Point", "coordinates": [100.449740228711, 13.757474119045073]}, "properties": {"id": 168374, "name": "โรงเรียนวัดประสาท", "district": "ตลิ่งชัน", "snapDistanceMeters": 30.61, "school_type": "รร.สังกัด กทม."}}, {"type": "Feature", "geometry": {"type": "Point", "coordinates": [100.53793679250832, 13.747390115921004]}, "properties": {"id": 163893, "name": "สหกรณ์โรงเรียนวัดปทุมวนาราม", "district": "ปทุมวัน", "snapDistanceMeters": 37.11, "school_type": "รร.สังกัด กทม."}}, {"type": "Feature", "geometry": {"type": "Point", "coordinates": [100.4906889472364, 13.755477591485844]}, "properties": {"id": 101723, "name": "โรงเรียนวัดมหาธาตุ", "district": "พระนคร", "snapDistanceMeters": 40.14, "school_type": "รร.สังกัด กทม."}}, {"type": "Feature", "geometry": {"type": "Point", "coordinates": [100.51588831389361, 13.78079691804657]}, "properties": {"id": 100176, "name": "โรงเรียนวัดสวัสดิ์วารีสีมาราม", "district": "ดุสิต", "snapDistanceMeters": 8.74, "school_type": "รร.สังกัด กทม."}}, {"type": "Feature", "geometry": {"type": "Point", "coordinates": [100.49086912575063, 13.704364189830782]}, "properties": {"id": 100178, "name": "โรงเรียนวัดบางน้ำชน", "district": "ธนบุรี", "snapDistanceMeters": 24.72, "school_type": "รร.สังกัด กทม."}}, {"type": "Feature", "geometry": {"type": "Point", "coordinates": [100.48605049375043, 13.726323527389452]}, "properties": {"id": 100997, "name": "โรงเรียนวัดเวฬุราชิณ", "district": "ธนบุรี", "snapDistanceMeters": 18.05, "school_type": "รร.สังกัด กทม."}}, {"type": "Feature", "geometry": {"type": "Point", "coordinates": [100.68261643830068, 13.892312980558412]}, "properties": {"id": 187517, "name": "โรงเรียนวัดโคกจ้าหล่า", "district": "สายไหม", "snapDistanceMeters": 14.64, "school_type": "รร.สังกัด กทม."}}, {"type": "Feature", "geometry": {"type": "Point", "coordinates": [100.513301444077, 13.801490138260327]}, "properties": {"id": 101075, "name": "โรงเรียนวัดฉัตรแก้วจงกลณี", "district": "บางพลัด", "snapDistanceMeters": 15.52, "school_type": "รร.สังกัด กทม."}}, {"type": "Feature", "geometry": {"type": "Point", "coordinates": [100.79555870309657, 13.740307419207065]}, "properties": {"id": 101125, "name": "โรงเรียนวัดสุทธาโภชน์", "district": "ลาดกระบัง", "snapDistanceMeters": 21.28, "school_type": "รร.สังกัด กทม."}}, {"type": "Feature", "geometry": {"type": "Point", "coordinates": [100.4750726456783, 13.650877359791934]}, "properties": {"id": 100476, "name": "มูลนิธิโรงเรียนวัดพุทธบูชา", "district": "ทุ่งครุ", "snapDistanceMeters": 19.48, "school_type": "รร.สังกัด กทม."}}, {"type": "Feature", "geometry": {"type": "Point", "coordinates": [100.4750726456783, 13.650877359791934]}, "properties": {"id": 100477, "name": "สมาคมผู้ปกครองและครูโรงเรียนวัดพุทธบูชา", "district": "ทุ่งครุ", "snapDistanceMeters": 24.65, "school_type": "รร.สังกัด กทม."}}, {"type": "Feature", "geometry": {"type": "Point", "coordinates": [100.60408624644921, 13.847281942640253]}, "properties": {"id": 182818, "name": "โรงเรียนวัดลาดปลาเค้า", "district": "ลาดพร้าว", "snapDistanceMeters": 41.61, "school_type": "รร.สังกัด กทม."}}, {"type": "Feature", "geometry": {"type": "Point", "coordinates": [100.54787642720254, 13.79535177482888]}, "properties": {"id": 101988, "name": "โรงเรียนพระปริยัติธรรมวัดไผ่ตัน", "district": "พญาไท", "snapDistanceMeters": 18.11, "school_type": "รร.สังกัด กทม."}}, {"type": "Feature", "geometry": {"type": "Point", "coordinates": [100.50142320470295, 13.748867616618885]}, "properties": {"id": 102552, "name": "โรงเรียนวัดสุทัศน์", "district": "พระนคร", "snapDistanceMeters": 18.34, "school_type": "รร.สังกัด กทม."}}, {"type": "Feature", "geometry": {"type": "Point", "coordinates": [100.79831707529503, 13.722911743170807]}, "properties": {"id": 100386, "name": "โรงเรียนวัดพลมานีย์ (วิมลชินวัตรอุปถัมภ์)", "district": "ลาดกระบัง", "snapDistanceMeters": 39.92, "school_type": "รร.สังกัด กทม."}}, {"type": "Feature", "geometry": {"type": "Point", "coordinates": [100.47306818528612, 13.753840540860693]}, "properties": {"id": 188549, "name": "ศูนย์สุขภาพชุมชนโรงเรียนวัดยางสุทธาราม", "district": "บางกอกน้อย", "snapDistanceMeters": 22.57, "school_type": "รร.สังกัด กทม."}}, {"type": "Feature", "geometry": {"type": "Point", "coordinates": [100.54805708350392, 13.796333062912444]}, "properties": {"id": 101923, "name": "โรงเรียนวัดไผ่ตัน", "district": "พญาไท", "snapDistanceMeters": 15.6, "school_type": "รร.สังกัด กทม."}}, {"type": "Feature", "geometry": {"type": "Point", "coordinates": [100.5077240563236, 13.708124601007654]}, "properties": {"id": 100136, "name": "โรงเรียนศูนย์ฝึกอาชีพกรุงเทพมหานคร", "district": "บางคอแหลม", "snapDistanceMeters": 142.08, "school_type": "รร.สังกัด กทม."}}, {"type": "Feature", "geometry": {"type": "Point", "coordinates": [100.49943541859906, 13.743057247602472]}, "properties": {"id": 101370, "name": "โรงเรียนวัดราชบูรณะ", "district": "พระนคร", "snapDistanceMeters": 13.6, "school_type": "รร.สังกัด กทม."}}, {"type": "Feature", "geometry": {"type": "Point", "coordinates": [100.76823821143913, 13.727586181417365]}, "properties": {"id": 100445, "name": "โรงเรียนวัดปลูกศรัทธา", "district": "ลาดกระบัง", "snapDistanceMeters": 14.5, "school_type": "รร.สังกัด กทม."}}, {"type": "Feature", "geometry": {"type": "Point", "coordinates": [100.46104488151457, 13.76247074666264]}, "properties": {"id": 101144, "name": "โรงเรียนวัดมะลิ", "district": "บางกอกน้อย", "snapDistanceMeters": 27.04, "school_type": "รร.สังกัด กทม."}}, {"type": "Feature", "geometry": {"type": "Point", "coordinates": [100.4750726456783, 13.650877359791934]}, "properties": {"id": 100474, "name": "โรงเรียนวัดพุทธบูชา", "district": "ทุ่งครุ", "snapDistanceMeters": 37.95, "school_type": "รร.สังกัด กทม."}}, {"type": "Feature", "geometry": {"type": "Point", "coordinates": [100.4750726456783, 13.650877359791934]}, "properties": {"id": 100475, "name": "สมาคมศิษย์เก่าโรงเรียนวัดพุทธบูชา", "district": "ทุ่งครุ", "snapDistanceMeters": 19.61, "school_type": "รร.สังกัด กทม."}}, {"type": "Feature", "geometry": {"type": "Point", "coordinates": [100.51996282069332, 13.808896373965286]}, "properties": {"id": 100205, "name": "โรงเรียนวัดบางโพโอมาวาส", "district": "บางซื่อ", "snapDistanceMeters": 21.78, "school_type": "รร.สังกัด กทม."}}, {"type": "Feature", "geometry": {"type": "Point", "coordinates": [100.47798938376853, 13.668300578249031]}, "properties": {"id": 100117, "name": "โรงเรียนวัดโพธิ์ทอง (ขวัญโรจน์ราษฎร์รังสฤษฎ์)", "district": "จอมทอง", "snapDistanceMeters": 21.84, "school_type": "รร.สังกัด กทม."}}, {"type": "Feature", "geometry": {"type": "Point", "coordinates": [100.48054808419607, 13.61385758439658]}, "properties": {"id": 190389, "name": "โรงเรียนปริยัติธรรมวัดบัวผัน", "district": "บางขุนเทียน", "snapDistanceMeters": 67.16, "school_type": "รร.สังกัด กทม."}}, {"type": "Feature", "geometry": {"type": "Point", "coordinates": [100.45370720247999, 13.759321232695298]}, "properties": {"id": 189886, "name": "มูลนิธิโรงเรียนวัดรัชฎาธิฐาน", "district": "ตลิ่งชัน", "snapDistanceMeters": 23.02, "school_type": "รร.สังกัด กทม."}}, {"type": "Feature", "geometry": {"type": "Point", "coordinates": [100.53009856737627, 13.81551307918421]}, "properties": {"id": 188820, "name": "มูลนิธิโรงเรียนวัดเวตวันธรรมาวาส", "district": "บางซื่อ", "snapDistanceMeters": 23.51, "school_type": "รร.สังกัด กทม."}}, {"type": "Feature", "geometry": {"type": "Point", "coordinates": [100.66249510995718, 13.885063140763746]}, "properties": {"id": 162792, "name": "ศูนย์สุขภาพชุมชนโรงเรียนวัดพรพระร่วงประสิทธิ์", "district": "สายไหม", "snapDistanceMeters": 34.96, "school_type": "รร.สังกัด กทม."}}, {"type": "Feature", "geometry": {"type": "Point", "coordinates": [100.4867403475823, 13.740097473605775]}, "properties": {"id": 53101, "name": "โรงเรียนวัดหงส์รัตนาราม", "district": "บางกอกใหญ่", "snapDistanceMeters": 27.5, "school_type": "รร.สังกัด กทม."}}, {"type": "Feature", "geometry": {"type": "Point", "coordinates": [100.51103702676058, 13.736940042081988]}, "properties": {"id": 53403, "name": "โรงเรียนพุทธมามกะผู้เยาว์วัดปทุมคงคา", "district": "สัมพันธวงค์", "snapDistanceMeters": 14.66, "school_type": "รร.สังกัด กทม."}}, {"type": "Feature", "geometry": {"type": "Point", "coordinates": [100.36758336227567, 13.730197774820565]}, "properties": {"id": 52316, "name": "โรงเรียนวัดพรหมสุวรรณสามัคคี", "district": "บางแค", "snapDistanceMeters": 18.83, "school_type": "รร.สังกัด กทม."}}, {"type": "Feature", "geometry": {"type": "Point", "coordinates": [100.48886416285234, 13.740903711461234]}, "properties": {"id": 52918, "name": "โรงเรียนปริยัติธรรมวัดโมลีโลกยารามราชวรวิหาร", "district": "บางกอกใหญ่", "snapDistanceMeters": 26.79, "school_type": "รร.สังกัด กทม."}}, {"type": "Feature", "geometry": {"type": "Point", "coordinates": [100.50970488902632, 13.738334148192672]}, "properties": {"id": 53067, "name": "โรงเรียนวัดสัมพันธวงศ์", "district": "สัมพันธวงค์", "snapDistanceMeters": 17.15, "school_type": "รร.สังกัด กทม."}}, {"type": "Feature", "geometry": {"type": "Point", "coordinates": [100.86349628780418, 13.913625272052489]}, "properties": {"id": 182923, "name": "โรงเรียนวัดพระยาปลา", "district": "หนองจอก", "snapDistanceMeters": 50.79, "school_type": "รร.สังกัด กทม."}}, {"type": "Feature", "geometry": {"type": "Point", "coordinates": [100.60139913336899, 13.921440514015538]}, "properties": {"id": 182973, "name": "กิจกรรมสหกรณ์โรงเรียนวัดดอนเมือง (ทหารอากาศอุทิศ)", "district": "ดอนเมือง", "snapDistanceMeters": 33.56, "school_type": "รร.สังกัด กทม."}}, {"type": "Feature", "geometry": {"type": "Point", "coordinates": [100.60107738384188, 13.921469494095428]}, "properties": {"id": 182974, "name": "โรงเรียนวัดดอนเมือง (ทหารอากาศอุทิศ)", "district": "ดอนเมือง", "snapDistanceMeters": 26.38, "school_type": "รร.สังกัด กทม."}}, {"type": "Feature", "geometry": {"type": "Point", "coordinates": [100.48572994740655, 13.73182034633552]}, "properties": {"id": 52922, "name": "โรงเรียนวัดสังข์กระจาย (แจ่มวิชาสอน)", "district": "บางกอกใหญ่", "snapDistanceMeters": 20.5, "school_type": "รร.สังกัด กทม."}}, {"type": "Feature", "geometry": {"type": "Point", "coordinates": [100.49693250399523, 13.700849272437436]}, "properties": {"id": 54085, "name": "โรงเรียนวัดลาดบัวขาว", "district": "บางคอแหลม", "snapDistanceMeters": 14.71, "school_type": "รร.สังกัด กทม."}}, {"type": "Feature", "geometry": {"type": "Point", "coordinates": [100.33836185471519, 13.675457310054323]}, "properties": {"id": 53177, "name": "โรงเรียนพระปริยัติธรรมวัดหนองแขม", "district": "หนองแขม", "snapDistanceMeters": 39.01, "school_type": "รร.สังกัด กทม."}}, {"type": "Feature", "geometry": {"type": "Point", "coordinates": [100.54367621863648, 13.760643325387818]}, "properties": {"id": 209834, "name": "ลานกีฬากรุงเทพมหานครโรงเรียนวัดทัศนารุณสุนทริการาม", "district": "ราขเทวี", "snapDistanceMeters": 33.61, "school_type": "รร.สังกัด กทม."}}, {"type": "Feature", "geometry": {"type": "Point", "coordinates": [100.47704407973391, 13.612396414782685]}, "properties": {"id": 52401, "name": "โรงเรียนวัดบัวผัน (รุ่ง-ประสงค์ จันทร์คำอุปถัมภ์)", "district": "บางขุนเทียน", "snapDistanceMeters": 43.47, "school_type": "รร.สังกัด กทม."}}, {"type": "Feature", "geometry": {"type": "Point", "coordinates": [100.45918326985856, 13.745653171002951]}, "properties": {"id": 170531, "name": "โรงเรียนอุบลรัตนราชกัญญาราชวิทยาลัย กรุงเทพมหานคร", "district": "ตลิ่งชัน", "snapDistanceMeters": 25.64, "school_type": "รร.สังกัด กทม."}}, {"type": "Feature", "geometry": {"type": "Point", "coordinates": [100.61238869876594, 13.772040748041201]}, "properties": {"id": 190239, "name": "โรงเรียนสอนวัดสายตาและประกอบแว่น", "district": "วังทองหลาง", "snapDistanceMeters": 28.8, "school_type": "รร.สังกัด กทม."}}, {"type": "Feature", "geometry": {"type": "Point", "coordinates": [100.49467478159978, 13.743909716730924]}, "properties": {"id": 189459, "name": "ราชบพิธสมาคมสมาคมผู้ปกครองและครูโรงเรียนวัดราชบพิธ", "district": "พระนคร", "snapDistanceMeters": 34.65, "school_type": "รร.สังกัด กทม."}}, {"type": "Feature", "geometry": {"type": "Point", "coordinates": [100.53009856737627, 13.81551307918421]}, "properties": {"id": 189959, "name": "สมาคมผู้ปกครองและครูโรงเรียนวัดเวตวันธรรมาวาส", "district": "บางซื่อ", "snapDistanceMeters": 23.51, "school_type": "รร.สังกัด กทม."}}, {"type": "Feature", "geometry": {"type": "Point", "coordinates": [100.52141668363575, 13.82847689552302]}, "properties": {"id": 188323, "name": "ศูนย์สุขภาพชุมชนชุมชนโรงเรียนวัดเลียบราษฎร์บำรุง", "district": "บางซื่อ", "snapDistanceMeters": 33.17, "school_type": "รร.สังกัด กทม."}}, {"type": "Feature", "geometry": {"type": "Point", "coordinates": [100.5231633340825, 13.747901703873726]}, "properties": {"id": 169975, "name": "โรงเรียนวัดชัยมงคล", "district": "ปทุมวัน", "snapDistanceMeters": 36.49, "school_type": "รร.สังกัด กทม."}}, {"type": "Feature", "geometry": {"type": "Point", "coordinates": [100.43986852059305, 13.711856703222418]}, "properties": {"id": 190236, "name": "มูลนิธิอาจารย์กุหลาบและนายสุชัย ยอดโพธิ์ทอง 2 โรงเรียนวัดรางบัว", "district": "ภาษีเจริญ", "snapDistanceMeters": 40.11, "school_type": "รร.สังกัด กทม."}}, {"type": "Feature", "geometry": {"type": "Point", "coordinates": [100.60107738384188, 13.921469494095428]}, "properties": {"id": 189680, "name": "มูลนิธิช่วยเหลือนักเรียนขาดแคลนโรงเรียนวัดดอนเมือง", "district": "ดอนเมือง", "snapDistanceMeters": 21.77, "school_type": "รร.สังกัด กทม."}}, {"type": "Feature", "geometry": {"type": "Point", "coordinates": [100.44708151224528, 13.68457597663424]}, "properties": {"id": 168341, "name": "โรงเรียนมัธยมวัดสิงห์", "district": "จอมทอง", "snapDistanceMeters": 17.86, "school_type": "รร.สังกัด กทม."}}, {"type": "Feature", "geometry": {"type": "Point", "coordinates": [100.4842220931328, 13.745907622239086]}, "properties": {"id": 168670, "name": "โรงเรียนวัดนาคกลาง", "district": "บางกอกใหญ่", "snapDistanceMeters": 11.22, "school_type": "รร.สังกัด กทม."}}, {"type": "Feature", "geometry": {"type": "Point", "coordinates": [100.48335776679158, 13.745398716736995]}, "properties": {"id": 168673, "name": "โรงเรียนพระปริยัติธรรมวัดนาคกลาง", "district": "บางกอกใหญ่", "snapDistanceMeters": 34.89, "school_type": "รร.สังกัด กทม."}}, {"type": "Feature", "geometry": {"type": "Point", "coordinates": [100.43286379520566, 13.733587488254164]}, "properties": {"id": 208239, "name": "มูลนิธิโรงเรียนวัดไชยฉิมพลี", "district": "ภาษีเจริญ", "snapDistanceMeters": 46.88, "school_type": "รร.สังกัด กทม."}}, {"type": "Feature", "geometry": {"type": "Point", "coordinates": [100.50166326058437, 13.690194291432388]}, "properties": {"id": 72131, "name": "โรงเรียนวัดจันทร์นอก", "district": "บางคอแหลม", "snapDistanceMeters": 25.36, "school_type": "รร.สังกัด กทม."}}, {"type": "Feature", "geometry": {"type": "Point", "coordinates": [100.62502190879086, 13.79550101284964]}, "properties": {"id": 71469, "name": "โรงเรียนวัดบึงทองหลาง", "district": "บางกะปิ", "snapDistanceMeters": 43.07, "school_type": "รร.สังกัด กทม."}}, {"type": "Feature", "geometry": {"type": "Point", "coordinates": [100.51112935016455, 13.760043495254013]}, "properties": {"id": 71259, "name": "โรงเรียนพุทธศาสนาวันอาทิตย์วัดโสมนัสวิหาร", "district": "ป้อมปราบศัตรูพ่าย", "snapDistanceMeters": 54.8, "school_type": "รร.สังกัด กทม."}}, {"type": "Feature", "geometry": {"type": "Point", "coordinates": [100.4547201956174, 13.712581742995592]}, "properties": {"id": 71271, "name": "มูลนิธิสงวนเมืองทองเพื่อการศึกษาโรงเรียนวัดโคนอน", "district": "ภาษีเจริญ", "snapDistanceMeters": 37.68, "school_type": "รร.สังกัด กทม."}}, {"type": "Feature", "geometry": {"type": "Point", "coordinates": [100.7736660023888, 13.871857296015323]}, "properties": {"id": 72468, "name": "โรงเรียนวัดสุขใจ", "district": "คลองสามวา", "snapDistanceMeters": 13.84, "school_type": "รร.สังกัด กทม."}}, {"type": "Feature", "geometry": {"type": "Point", "coordinates": [100.74199324580604, 13.819850559669977]}, "properties": {"id": 71129, "name": "โรงเรียนวัดแสนสุข", "district": "มีนบุรี", "snapDistanceMeters": 48.53, "school_type": "รร.สังกัด กทม."}}, {"type": "Feature", "geometry": {"type": "Point", "coordinates": [100.7081890146488, 13.800087442079938]}, "properties": {"id": 72198, "name": "โรงเรียนวัดบำเพ็ญเหนือ", "district": "มีนบุรี", "snapDistanceMeters": 51.59, "school_type": "รร.สังกัด กทม."}}, {"type": "Feature", "geometry": {"type": "Point", "coordinates": [100.51056373022809, 13.761806660300739]}, "properties": {"id": 71641, "name": "โรงเรียนวัดโสมนัส", "district": "ป้อมปราบศัตรูพ่าย", "snapDistanceMeters": 23.71, "school_type": "รร.สังกัด กทม."}}, {"type": "Feature", "geometry": {"type": "Point", "coordinates": [100.48790647361812, 13.683491201974304]}, "properties": {"id": 71415, "name": "โรงเรียนวัดโพธิ์แก้ว (กระวลราษฎร์วิทยา)", "district": "จอมทอง", "snapDistanceMeters": 27.05, "school_type": "รร.สังกัด กทม."}}, {"type": "Feature", "geometry": {"type": "Point", "coordinates": [100.58666233051498, 13.721666455195717]}, "properties": {"id": 70688, "name": "โรงเรียนพระปริยัติธรรมวัดธาตุทอง", "district": "วัฒนา", "snapDistanceMeters": 33.79, "school_type": "รร.สังกัด กทม."}}, {"type": "Feature", "geometry": {"type": "Point", "coordinates": [100.5015654021746, 13.758108435669406]}, "properties": {"id": 237793, "name": "โรงอาหารโรงเรียนวัดบวรนิเวศ", "district": "พระนคร", "snapDistanceMeters": 52.84, "school_type": "รร.สังกัด กทม."}}, {"type": "Feature", "geometry": {"type": "Point", "coordinates": [100.43269842111636, 13.74172448925716]}, "properties": {"id": 140358, "name": "มูลนิธิส่งเสริมการศึกษาโรงเรียนวัดพิกุล", "district": "ตลิ่งชัน", "snapDistanceMeters": 40.39, "school_type": "รร.สังกัด กทม."}}, {"type": "Feature", "geometry": {"type": "Point", "coordinates": [100.4951267944953, 13.780079997814891]}, "properties": {"id": 140691, "name": "มูลนิธิโรงเรียนวัดเปาโรหิตย์", "district": "บางพลัด", "snapDistanceMeters": 8.93, "school_type": "รร.สังกัด กทม."}}, {"type": "Feature", "geometry": {"type": "Point", "coordinates": [100.48607824133074, 13.75187993644873]}, "properties": {"id": 139947, "name": "มูลนิธิโรงเรียนสตรีวัดระฆัง", "district": "บางกอกน้อย", "snapDistanceMeters": 17.79, "school_type": "รร.สังกัด กทม."}}, {"type": "Feature", "geometry": {"type": "Point", "coordinates": [100.48446543465211, 13.78177602121573]}, "properties": {"id": 9156, "name": "โรงเรียนวัดรวก", "district": "บางพลัด", "snapDistanceMeters": 25.25, "school_type": "รร.สังกัด กทม."}}, {"type": "Feature", "geometry": {"type": "Point", "coordinates": [100.62544380585813, 13.794156166621848]}, "properties": {"id": 221113, "name": "สมาคมศิษย์เก่า โรงเรียนมัธยมวัดบึงทองหลาง", "district": "บางกะปิ", "snapDistanceMeters": 32.63, "school_type": "รร.สังกัด กทม."}}, {"type": "Feature", "geometry": {"type": "Point", "coordinates": [100.43986852059305, 13.711856703222418]}, "properties": {"id": 140330, "name": "มูลนิธิครูผู้ปกครองและนักเรียนเก่าโรงเรียนวัดรางบัว", "district": "ภาษีเจริญ", "snapDistanceMeters": 40.11, "school_type": "รร.สังกัด กทม."}}, {"type": "Feature", "geometry": {"type": "Point", "coordinates": [100.45628480245327, 13.779460523090776]}, "properties": {"id": 215638, "name": "มูลนิธิช่วยการศึกษาโรงเรียนวัดตลิ่งชัน", "district": "ตลิ่งชัน", "snapDistanceMeters": 15.39, "school_type": "รร.สังกัด กทม."}}, {"type": "Feature", "geometry": {"type": "Point", "coordinates": [100.50295195052738, 13.786471006707192]}, "properties": {"id": 9831, "name": "โรงเรียนวัดเทพากร (เลี่ยมมาตุทิศ)", "district": "บางพลัด", "snapDistanceMeters": 7.2, "school_type": "รร.สังกัด กทม."}}, {"type": "Feature", "geometry": {"type": "Point", "coordinates": [100.52980365463627, 13.83254928797692]}, "properties": {"id": 7832, "name": "โรงเรียนวัดทองสุทธาราม", "district": "บางซื่อ", "snapDistanceMeters": 32.98, "school_type": "รร.สังกัด กทม."}}, {"type": "Feature", "geometry": {"type": "Point", "coordinates": [100.51903512641083, 13.799699435151778]}, "properties": {"id": 7906, "name": "โรงเรียนสอนเด็กก่อนเกณฑ์วัดแก้วฟ้าจุฬามณี", "district": "ดุสิต", "snapDistanceMeters": 25.61, "school_type": "รร.สังกัด กทม."}}, {"type": "Feature", "geometry": {"type": "Point", "coordinates": [100.49114066815135, 13.740737429025263]}, "properties": {"id": 7919, "name": "โรงเรียนวัดกัลยาณมิตร", "district": "ธนบุรี", "snapDistanceMeters": 26.07, "school_type": "รร.สังกัด กทม."}}, {"type": "Feature", "geometry": {"type": "Point", "coordinates": [100.49114066815135, 13.740737429025263]}, "properties": {"id": 7921, "name": "ชุมชนโรงเรียนวัดกัลยาณ์", "district": "ธนบุรี", "snapDistanceMeters": 36.28, "school_type": "รร.สังกัด กทม."}}, {"type": "Feature", "geometry": {"type": "Point", "coordinates": [100.52476856042883, 13.78961668199468]}, "properties": {"id": 8451, "name": "โรงเรียนวัดประชาระบือธรรม", "district": "ดุสิต", "snapDistanceMeters": 23.48, "school_type": "รร.สังกัด กทม."}}, {"type": "Feature", "geometry": {"type": "Point", "coordinates": [100.51561923672807, 13.721727784843715]}, "properties": {"id": 9099, "name": "โรงเรียนวัดสวนพลู", "district": "บางรัก", "snapDistanceMeters": 36.37, "school_type": "รร.สังกัด กทม."}}, {"type": "Feature", "geometry": {"type": "Point", "coordinates": [100.4947479440846, 13.737028150177139]}, "properties": {"id": 8005, "name": "โรงเรียนวัดประยุรวงศาวาส", "district": "ธนบุรี", "snapDistanceMeters": 12.13, "school_type": "รร.สังกัด กทม."}}, {"type": "Feature", "geometry": {"type": "Point", "coordinates": [100.90616921411537, 13.887298881535711]}, "properties": {"id": 216157, "name": "มูลนิธิร่วมน้ำใจโรงเรียนวัดใหม่ประชาราษฎร์", "district": "หนองจอก", "snapDistanceMeters": 27.41, "school_type": "รร.สังกัด กทม."}}, {"type": "Feature", "geometry": {"type": "Point", "coordinates": [100.49354700980827, 13.768887292826488]}, "properties": {"id": 216220, "name": "มูลนิธิเพื่อการศึกษา (ปานคฤหเดช) โรงเรียนวัดศิริไอยสวรรค์", "district": "บางพลัด", "snapDistanceMeters": 29.12, "school_type": "รร.สังกัด กทม."}}, {"type": "Feature", "geometry": {"type": "Point", "coordinates": [100.58531034783422, 13.720584712016851]}, "properties": {"id": 215736, "name": "สมาคมผู้ปกครองและครูโรงเรียนมัธยมวัดธาตุทอง", "district": "วัฒนา", "snapDistanceMeters": 29.51, "school_type": "รร.สังกัด กทม."}}, {"type": "Feature", "geometry": {"type": "Point", "coordinates": [100.66490458257736, 13.676318335096642]}, "properties": {"id": 141212, "name": "มูลนิธิโรงเรียนวัดดอกไม้ (วัดตะกลำ)", "district": "ประเวศ", "snapDistanceMeters": 55.41, "school_type": "รร.สังกัด กทม."}}, {"type": "Feature", "geometry": {"type": "Point", "coordinates": [100.44669844457523, 13.678479356909863]}, "properties": {"id": 216872, "name": "มูลนิธิโรงเรียนวัดกำแพง", "district": "บางขุนเทียน", "snapDistanceMeters": 26.39, "school_type": "รร.สังกัด กทม."}}, {"type": "Feature", "geometry": {"type": "Point", "coordinates": [100.51911859268536, 13.818559410446717]}, "properties": {"id": 9467, "name": "โรงเรียนวัดประชาศรัทธาธรรม (เสาหิน)", "district": "บางซื่อ", "snapDistanceMeters": 18.81, "school_type": "รร.สังกัด กทม."}}, {"type": "Feature", "geometry": {"type": "Point", "coordinates": [100.77672200584655, 13.765365261846448]}, "properties": {"id": 219415, "name": "มูลนิธิน้ำใจชาวลีเวอร์สู่โรงเรียนวัดบึงบัว", "district": "ลาดกระบัง", "snapDistanceMeters": 14.03, "school_type": "รร.สังกัด กทม."}}, {"type": "Feature", "geometry": {"type": "Point", "coordinates": [100.53323652975384, 13.798653856842579]}, "properties": {"id": 9971, "name": "โรงเรียนวัดธรรมาภิรตาราม", "district": "ดุสิต", "snapDistanceMeters": 23.49, "school_type": "รร.สังกัด กทม."}}, {"type": "Feature", "geometry": {"type": "Point", "coordinates": [100.52987517499224, 13.816391053691195]}, "properties": {"id": 9754, "name": "โรงเรียนวัดเวตวันธรรมาวาส (ประถม)", "district": "บางซื่อ", "snapDistanceMeters": 33.57, "school_type": "รร.สังกัด กทม."}}, {"type": "Feature", "geometry": {"type": "Point", "coordinates": [100.5296135414427, 13.816238263921772]}, "properties": {"id": 9756, "name": "โรงเรียนพระปริยัติธรรมแผนกสามัญศึกษาวัดเวตวันธรรมาวาส", "district": "บางซื่อ", "snapDistanceMeters": 22.5, "school_type": "รร.สังกัด กทม."}}, {"type": "Feature", "geometry": {"type": "Point", "coordinates": [100.49436920908435, 13.776506943885655]}, "properties": {"id": 9538, "name": "โรงเรียนวัดบวรมงคล", "district": "บางพลัด", "snapDistanceMeters": 15.95, "school_type": "รร.สังกัด กทม."}}, {"type": "Feature", "geometry": {"type": "Point", "coordinates": [100.65201903617182, 13.766775418761856]}, "properties": {"id": 9609, "name": "โรงเรียนพระปริยัติธรรมวัดศรีบุญเรือง", "district": "บางกะปิ", "snapDistanceMeters": 18.76, "school_type": "รร.สังกัด กทม."}}, {"type": "Feature", "geometry": {"type": "Point", "coordinates": [100.88948366391374, 13.904806489203342]}, "properties": {"id": 141771, "name": "มูลนิธิโรงเรียนวัดแสนเกษม", "district": "หนองจอก", "snapDistanceMeters": 51.16, "school_type": "รร.สังกัด กทม."}}, {"type": "Feature", "geometry": {"type": "Point", "coordinates": [100.48607824133074, 13.75187993644873]}, "properties": {"id": 140899, "name": "สมาคมผู้ปกครองและครูโรงเรียนสตรีวัดระฆัง", "district": "บางกอกน้อย", "snapDistanceMeters": 17.79, "school_type": "รร.สังกัด กทม."}}, {"type": "Feature", "geometry": {"type": "Point", "coordinates": [100.47283321256094, 13.733543678553824]}, "properties": {"id": 141140, "name": "มูลนิธิโรงเรียนวัดท่าพระ", "district": "บางกอกใหญ่", "snapDistanceMeters": 17.48, "school_type": "รร.สังกัด กทม."}}, {"type": "Feature", "geometry": {"type": "Point", "coordinates": [100.49693250399523, 13.700849272437436]}, "properties": {"id": 220316, "name": "มูลนิธิเพื่อส่งเสริมการศึกษาโรงเรียนเทศบาลวัดลาดบัวขาว", "district": "บางคอแหลม", "snapDistanceMeters": 15.3, "school_type": "รร.สังกัด กทม."}}, {"type": "Feature", "geometry": {"type": "Point", "coordinates": [100.50455585734095, 13.780333189766504]}, "properties": {"id": 242725, "name": "มูลนิธิเพื่อการศึกษาโรงเรียนวัดราชผาติการาม", "district": "ดุสิต", "snapDistanceMeters": 26.22, "school_type": "รร.สังกัด กทม."}}, {"type": "Feature", "geometry": {"type": "Point", "coordinates": [100.48743752835944, 13.734474276349601]}, "properties": {"id": 294341, "name": "มูลนิธิโรงเรียนวัดประดิษฐาราม", "district": "ธนบุรี", "snapDistanceMeters": 9.73, "school_type": "รร.สังกัด กทม."}}, {"type": "Feature", "geometry": {"type": "Point", "coordinates": [100.66490458257736, 13.676318335096642]}, "properties": {"id": 121146, "name": "โรงเรียนวัดตะกล่ำ", "district": "ประเวศ", "snapDistanceMeters": 59.62, "school_type": "รร.สังกัด กทม."}}, {"type": "Feature", "geometry": {"type": "Point", "coordinates": [100.43986852059305, 13.711856703222418]}, "properties": {"id": 241854, "name": "มูลนิธิวิไลชาตรีเรืองสอนโรงเรียนวัดรางบัว", "district": "ภาษีเจริญ", "snapDistanceMeters": 40.11, "school_type": "รร.สังกัด กทม."}}, {"type": "Feature", "geometry": {"type": "Point", "coordinates": [100.50295195052738, 13.786471006707192]}, "properties": {"id": 242392, "name": "มูลนิธิโรงเรียนวัดเทพากร", "district": "บางพลัด", "snapDistanceMeters": 15.19, "school_type": "รร.สังกัด กทม."}}, {"type": "Feature", "geometry": {"type": "Point", "coordinates": [100.49553763221296, 13.682219900811594]}, "properties": {"id": 241845, "name": "สมาคมศิษย์เก่าโรงเรียนประชาบาลวัดบางปะกอก", "district": "ราษฎร์บูรณะ", "snapDistanceMeters": 20.69, "school_type": "รร.สังกัด กทม."}}, {"type": "Feature", "geometry": {"type": "Point", "coordinates": [100.46705017573515, 13.794314940574008]}, "properties": {"id": 241875, "name": "มูลนิธิโรงเรียนวัดชัยพฤกษมาลา", "district": "ตลิ่งชัน", "snapDistanceMeters": 27.61, "school_type": "รร.สังกัด กทม."}}, {"type": "Feature", "geometry": {"type": "Point", "coordinates": [100.50577884583106, 13.74741271016837]}, "properties": {"id": 242751, "name": "มูลนิธิเพื่อการศึกษาโรงเรียนวัดพระพิเรนทร์", "district": "ป้อมปราบศัตรูพ่าย", "snapDistanceMeters": 23.46, "school_type": "รร.สังกัด กทม."}}, {"type": "Feature", "geometry": {"type": "Point", "coordinates": [100.44923127926437, 13.619722264654714]}, "properties": {"id": 8990, "name": "โรงเรียนวัดหัวกระบือ", "district": "บางขุนเทียน", "snapDistanceMeters": 22.03, "school_type": "รร.สังกัด กทม."}}, {"type": "Feature", "geometry": {"type": "Point", "coordinates": [100.58906836156918, 13.704527875032637]}, "properties": {"id": 242690, "name": "ศูนย์สุขภาพชุมชนข้างโรงเรียนวัดสะพานและชุมชนสวนไทร", "district": "คลองเตย", "snapDistanceMeters": 8.97, "school_type": "รร.สังกัด กทม."}}, {"type": "Feature", "geometry": {"type": "Point", "coordinates": [100.59252281971602, 13.876717105444538]}, "properties": {"id": 242290, "name": "สมาคมศิษย์เก่าโรงเรียนวัดพระศรีมหาธาตุ", "district": "บางเขน", "snapDistanceMeters": 57.31, "school_type": "รร.สังกัด กทม."}}, {"type": "Feature", "geometry": {"type": "Point", "coordinates": [100.50632099296227, 13.790633410437827]}, "properties": {"id": 9621, "name": "โรงเรียนวัดอาวุธวิกสิตาราม", "district": "บางพลัด", "snapDistanceMeters": 24.5, "school_type": "รร.สังกัด กทม."}}, {"type": "Feature", "geometry": {"type": "Point", "coordinates": [100.4906889472364, 13.755477591485844]}, "properties": {"id": 242129, "name": "มูลนิธิเพื่อการศึกษาโรงเรียนวัดมหาธาตุ", "district": "พระนคร", "snapDistanceMeters": 34.79, "school_type": "รร.สังกัด กทม."}}, {"type": "Feature", "geometry": {"type": "Point", "coordinates": [100.46051968275248, 13.705817656328437]}, "properties": {"id": 141080, "name": "มูลนิธิส่งเสริมการศึกษาโรงเรียนวัดศาลาครืน", "district": "จอมทอง", "snapDistanceMeters": 43.18, "school_type": "รร.สังกัด กทม."}}, {"type": "Feature", "geometry": {"type": "Point", "coordinates": [100.44716144926095, 13.651650285641942]}, "properties": {"id": 216577, "name": "ศูนย์สุขภาพชุมชนโรงเรียนวัดท่าข้าม", "district": "บางขุนเทียน", "snapDistanceMeters": 77.51, "school_type": "รร.สังกัด กทม."}}, {"type": "Feature", "geometry": {"type": "Point", "coordinates": [100.4665102068804, 13.703093995784318]}, "properties": {"id": 141372, "name": "มูลนิธิโรงเรียนวัดนางนอง", "district": "จอมทอง", "snapDistanceMeters": 24.02, "school_type": "รร.สังกัด กทม."}}, {"type": "Feature", "geometry": {"type": "Point", "coordinates": [100.63374181890451, 13.908329167975113]}, "properties": {"id": 141572, "name": "มูลนิธิสงเคราะห์เยาวชนโรงเรียนวัดเกาะสุวรรณาราม", "district": "สายไหม", "snapDistanceMeters": 13.48, "school_type": "รร.สังกัด กทม."}}, {"type": "Feature", "geometry": {"type": "Point", "coordinates": [100.51859895574601, 13.690002049397236]}, "properties": {"id": 141691, "name": "มูลนิธิสงเคราะห์นักเรียนขาดแคลนโรงเรียนวัดไทร", "district": "บางคอแหลม", "snapDistanceMeters": 18.57, "school_type": "รร.สังกัด กทม."}}, {"type": "Feature", "geometry": {"type": "Point", "coordinates": [100.42834721085292, 13.741644217963424]}, "properties": {"id": 141283, "name": "มูลนิธิโรงเรียนวัดตะล่อม", "district": "ภาษีเจริญ", "snapDistanceMeters": 42.39, "school_type": "รร.สังกัด กทม."}}, {"type": "Feature", "geometry": {"type": "Point", "coordinates": [100.51210902786879, 13.712417368458006]}, "properties": {"id": 141342, "name": "สมาคมผู้ปกครองและครูโรงเรียนวัดสุทธิวราราม", "district": "สาทร", "snapDistanceMeters": 20.37, "school_type": "รร.สังกัด กทม."}}, {"type": "Feature", "geometry": {"type": "Point", "coordinates": [100.4651108045004, 13.696621851809741]}, "properties": {"id": 294207, "name": "มูลนิธิโรงเรียนวัดบางขุนเทียนนอก", "district": "จอมทอง", "snapDistanceMeters": 40.25, "school_type": "รร.สังกัด กทม."}}, {"type": "Feature", "geometry": {"type": "Point", "coordinates": [100.46565073176461, 13.70482838227865]}, "properties": {"id": 293970, "name": "มูลนิธิอุปภัมถ์โรงเรียนวัดหนัง", "district": "จอมทอง", "snapDistanceMeters": 38.81, "school_type": "รร.สังกัด กทม."}}, {"type": "Feature", "geometry": {"type": "Point", "coordinates": [100.4906889472364, 13.755477591485844]}, "properties": {"id": 293684, "name": "โรงเรียนผู้ใหญ่วัดมหาธาตุ", "district": "พระนคร", "snapDistanceMeters": 34.79, "school_type": "รร.สังกัด กทม."}}, {"type": "Feature", "geometry": {"type": "Point", "coordinates": [100.46521761002668, 13.784998667366946]}, "properties": {"id": 293443, "name": "มูลนิธิเพื่อการศึกษาโรงเรียนวัดไก่เตี้ย", "district": "ตลิ่งชัน", "snapDistanceMeters": 50.58, "school_type": "รร.สังกัด กทม."}}, {"type": "Feature", "geometry": {"type": "Point", "coordinates": [100.5012652642016, 13.764926393157968]}, "properties": {"id": 1620, "name": "โรงเรียนวัดใหม่อมตรส", "district": "พระนคร", "snapDistanceMeters": 21.44, "school_type": "รร.สังกัด กทม."}}, {"type": "Feature", "geometry": {"type": "Point", "coordinates": [100.4947479440846, 13.737028150177139]}, "properties": {"id": 293476, "name": "สมาคมผู้ปกครองและครูโรงเรียนวัดประยุรวงศาวาส", "district": "ธนบุรี", "snapDistanceMeters": 18.17, "school_type": "รร.สังกัด กทม."}}, {"type": "Feature", "geometry": {"type": "Point", "coordinates": [100.80129523916577, 13.780643294855043]}, "properties": {"id": 295062, "name": "มูลนิธิช่วยการศึกษาโรงเรียนวัดทิพพาวาส", "district": "ลาดกระบัง", "snapDistanceMeters": 29.58, "school_type": "รร.สังกัด กทม."}}, {"type": "Feature", "geometry": {"type": "Point", "coordinates": [100.80129523916577, 13.780643294855043]}, "properties": {"id": 295063, "name": "ทุนนิธิส่งเสริมคุณธรรมจริยธรรมนักเรียนโรงเรียนวัดทิพพาวาส", "district": "ลาดกระบัง", "snapDistanceMeters": 29.58, "school_type": "รร.สังกัด กทม."}}, {"type": "Feature", "geometry": {"type": "Point", "coordinates": [100.50192197602797, 13.797279484153227]}, "properties": {"id": 294330, "name": "มูลนิธิเพื่อการศึกษาโรงเรียนวัดสามัคคีสุทธาวาส", "district": "บางพลัด", "snapDistanceMeters": 27.34, "school_type": "รร.สังกัด กทม."}}, {"type": "Feature", "geometry": {"type": "Point", "coordinates": [100.45893162526488, 13.694578683737099]}, "properties": {"id": 294511, "name": "มูลนิธิเพื่อการศึกษาโรงเรียนวัดบางประทุนนอก", "district": "จอมทอง", "snapDistanceMeters": 54.25, "school_type": "รร.สังกัด กทม."}}, {"type": "Feature", "geometry": {"type": "Point", "coordinates": [100.72012854019346, 13.72600669674367]}, "properties": {"id": 161555, "name": "มูลนิธิเพื่อการศึกษาโรงเรียนวัดลานบุญ", "district": "ลาดกระบัง", "snapDistanceMeters": 39.66, "school_type": "รร.สังกัด กทม."}}, {"type": "Feature", "geometry": {"type": "Point", "coordinates": [100.49423729987704, 13.746850760115562]}, "properties": {"id": 121309, "name": "โรงเรียนแพทย์แผนโบราณวัดพระเชตุพน", "district": "พระนคร", "snapDistanceMeters": 31.22, "school_type": "รร.สังกัด กทม."}}, {"type": "Feature", "geometry": {"type": "Point", "coordinates": [100.6304250397863, 13.653514962768297]}, "properties": {"id": 117210, "name": "โรงเรียนพระปริยัติธรรมวัดผ่องพลอยวิริยาราม", "district": "บางนา", "snapDistanceMeters": 28.26, "school_type": "รร.สังกัด กทม."}}, {"type": "Feature", "geometry": {"type": "Point", "coordinates": [100.46894171449968, 13.767012256014317]}, "properties": {"id": 296516, "name": "สำนักงานมูลนิธิเพื่อการศึกษาโรงเรียนวัดบางขุนนนท์", "district": "บางกอกน้อย", "snapDistanceMeters": 12.69, "school_type": "รร.สังกัด กทม."}}, {"type": "Feature", "geometry": {"type": "Point", "coordinates": [100.35490589590708, 13.74901192966179]}, "properties": {"id": 294168, "name": "มูลนิธิโรงเรียนวัดศาลาแดง", "district": "บางแค", "snapDistanceMeters": 54.55, "school_type": "รร.สังกัด กทม."}}, {"type": "Feature", "geometry": {"type": "Point", "coordinates": [100.52352029743898, 13.700948406612385]}, "properties": {"id": 293935, "name": "มูลนิธิเพื่อการศึกษาโรงเรียนวัดไผ่เงินโชตนาราม", "district": "บางคอแหลม", "snapDistanceMeters": 29.1, "school_type": "รร.สังกัด กทม."}}, {"type": "Feature", "geometry": {"type": "Point", "coordinates": [100.62544380585813, 13.794156166621848]}, "properties": {"id": 324384, "name": "สมาคมผู้ปกครองและครูโรงเรียนมัธยมวัดบึงทองหลาง", "district": "บางกะปิ", "snapDistanceMeters": 32.63, "school_type": "รร.สังกัด กทม."}}, {"type": "Feature", "geometry": {"type": "Point", "coordinates": [100.45657721405597, 13.722157875315954]}, "properties": {"id": 176338, "name": "มูลนิธิโรงเรียนวัดประดู่ (พ่วงอุทิศ)", "district": "ภาษีเจริญ", "snapDistanceMeters": 27.82, "school_type": "รร.สังกัด กทม."}}, {"type": "Feature", "geometry": {"type": "Point", "coordinates": [100.49175102919598, 13.745440203554022]}, "properties": {"id": 296778, "name": "กองทุนส่งเสริมการศึกษาโรงเรียนวัดพระเชตุพน", "district": "พระนคร", "snapDistanceMeters": 24.92, "school_type": "รร.สังกัด กทม."}}, {"type": "Feature", "geometry": {"type": "Point", "coordinates": [100.52141668363575, 13.82847689552302]}, "properties": {"id": 244350, "name": "มูลนิธิเพื่อการศึกษาโรงเรียนวัดเลียบราษฎร์บำรุง", "district": "บางซื่อ", "snapDistanceMeters": 33.17, "school_type": "รร.สังกัด กทม."}}, {"type": "Feature", "geometry": {"type": "Point", "coordinates": [100.46734451958932, 13.74331997928234]}, "properties": {"id": 244380, "name": "มูลนิธิเพื่อการศึกษาโรงเรียนวัดบางเสาธง", "district": "บางกอกน้อย", "snapDistanceMeters": 21.13, "school_type": "รร.สังกัด กทม."}}, {"type": "Feature", "geometry": {"type": "Point", "coordinates": [100.4632674284901, 13.702045835156104]}, "properties": {"id": 245140, "name": "สมาคมผู้ปกครองและครูโรงเรียนวัดราชโอรส", "district": "จอมทอง", "snapDistanceMeters": 20.14, "school_type": "รร.สังกัด กทม."}}]}