{"type": "FeatureCollection", "features": [{"type": "Feature", "geometry": {"type": "Point", "coordinates": [100.56023559788017, 13.737125684757702]}, "properties": {"id": 1133, "name": "สถานีรถไฟฟ้าบีทีเอสอโศก", "district": "คลองเตย", "snapDistanceMeters": 15.87}}, {"type": "Feature", "geometry": {"type": "Point", "coordinates": [100.56363968013137, 13.74994866887714]}, "properties": {"id": 1082, "name": "สถานีรถไฟฟ้าเอ็มอาร์ทีเพชรบุรี ประตู 1", "district": "ห้วยขวาง", "snapDistanceMeters": 48.11}}, {"type": "Feature", "geometry": {"type": "Point", "coordinates": [100.4577028508843, 13.72184952338123]}, "properties": {"id": 92930, "name": "สถานีรถไฟฟ้าบีทีเอสบางหว้า ประตู 1", "district": "ภาษีเจริญ", "snapDistanceMeters": 7.86}}, {"type": "Feature", "geometry": {"type": "Point", "coordinates": [100.46811797441077, 13.713527884828128]}, "properties": {"id": 92934, "name": "สถานีรถไฟฟ้าบีทีเอสวุฒากาศ ประตู 1", "district": "จอมทอง", "snapDistanceMeters": 17.95}}, {"type": "Feature", "geometry": {"type": "Point", "coordinates": [100.54308888283094, 13.744085424919284]}, "properties": {"id": 90970, "name": "สถานีรถไฟฟ้าบีทีเอสชิดลม", "district": "ปทุมวัน", "snapDistanceMeters": 2.94}}, {"type": "Feature", "geometry": {"type": "Point", "coordinates": [100.53440652675896, 13.745583157934197]}, "properties": {"id": 91087, "name": "สถานีรถไฟฟ้าบีทีเอสสยาม", "district": "ปทุมวัน", "snapDistanceMeters": 16.51}}, {"type": "Feature", "geometry": {"type": "Point", "coordinates": [100.49467478159978, 13.743909716730924]}, "properties": {"id": 15466, "name": "สถานีรถไฟฟ้าเอ็มอาร์ทีสนามไชย", "district": "พระนคร", "snapDistanceMeters": 3.52}}, {"type": "Feature", "geometry": {"type": "Point", "coordinates": [100.5750304860269, 13.799491056988915]}, "properties": {"id": 35878, "name": "สถานีรถไฟฟ้าเอ็มอาร์ทีรัชดาภิเษก ประตู 3", "district": "ห้วยขวาง", "snapDistanceMeters": 19.52}}, {"type": "Feature", "geometry": {"type": "Point", "coordinates": [100.54463734978127, 13.779711067362221]}, "properties": {"id": 78061, "name": "สถานีรถไฟฟ้าบีทีเอสอารีย์", "district": "พญาไท", "snapDistanceMeters": 4.31}}, {"type": "Feature", "geometry": {"type": "Point", "coordinates": [100.56532076924229, 13.757688539902757]}, "properties": {"id": 56663, "name": "สถานีรถไฟฟ้าเอ็มอาร์ทีพระรามเก้า ประตู 1", "district": "ดินแดง", "snapDistanceMeters": 23.3}}, {"type": "Feature", "geometry": {"type": "Point", "coordinates": [100.57356958300382, 13.779175072986048]}, "properties": {"id": 32150, "name": "สถานีรถไฟฟ้าเอ็มอาร์ทีห้วยขวาง ประตู 4", "district": "ดินแดง", "snapDistanceMeters": 13.24}}, {"type": "Feature", "geometry": {"type": "Point", "coordinates": [100.54782097854091, 13.79766316100428]}, "properties": {"id": 128301, "name": "สถานีรถไฟฟ้าเอ็มอาร์ทีกำแพงเพชร ประตู 3", "district": "จตุจักร", "snapDistanceMeters": 32.11}}, {"type": "Feature", "geometry": {"type": "Point", "coordinates": [100.55288955239419, 13.802250049679415]}, "properties": {"id": 128176, "name": "สถานีรถไฟฟ้าเอ็มอาร์ทีสวนจตุจักร ประตู 1", "district": "จตุจักร", "snapDistanceMeters": 21.21}}, {"type": "Feature", "geometry": {"type": "Point", "coordinates": [100.57402008534439, 13.788672346126512]}, "properties": {"id": 31219, "name": "สถานีรถไฟฟ้าเอ็มอาร์ทีสุทธิสาร ประตู 4", "district": "ดินแดง", "snapDistanceMeters": 17.69}}, {"type": "Feature", "geometry": {"type": "Point", "coordinates": [100.52939038084641, 13.723670869189025]}, "properties": {"id": 23276, "name": "สถานีรถไฟฟ้าบีทีเอสช่องนนทรี", "district": "บางรัก", "snapDistanceMeters": 24.9}}, {"type": "Feature", "geometry": {"type": "Point", "coordinates": [100.51619921768288, 13.738729392081382]}, "properties": {"id": 65027, "name": "สถานีรถไฟฟ้าเอ็มอาร์ทีหัวลำโพง ประตู 2", "district": "ปทุมวัน", "snapDistanceMeters": 15.59}}, {"type": "Feature", "geometry": {"type": "Point", "coordinates": [100.5606299264694, 13.750961160474697]}, "properties": {"id": 46738, "name": "สถานีรถไฟฟ้าเออาร์แอลมักกะสัน", "district": "ราขเทวี", "snapDistanceMeters": 41.48}}, {"type": "Feature", "geometry": {"type": "Point", "coordinates": [100.55922428893346, 13.72194283451589]}, "properties": {"id": 64023, "name": "สถานีรถไฟฟ้าเอ็มอาร์ทีศูนย์การประชุมแห่งชาติสิริกิติ์ ประตู 2", "district": "คลองเตย", "snapDistanceMeters": 23.57}}, {"type": "Feature", "geometry": {"type": "Point", "coordinates": [100.55410459814078, 13.722241782476948]}, "properties": {"id": 514, "name": "สถานีรถไฟฟ้าเอ็มอาร์ทีคลองเตย ประตู 2", "district": "คลองเตย", "snapDistanceMeters": 29.85}}, {"type": "Feature", "geometry": {"type": "Point", "coordinates": [100.57127490395935, 13.76715038806838]}, "properties": {"id": 74597, "name": "สถานีรถไฟฟ้าเอ็มอาร์ทีศูนย์วัฒนธรรมแห่งประเทศไทย ประตู 1", "district": "ห้วยขวาง", "snapDistanceMeters": 16.87}}, {"type": "Feature", "geometry": {"type": "Point", "coordinates": [100.4865004157365, 13.719352793692313]}, "properties": {"id": 135692, "name": "สถานีรถไฟฟ้าบีทีเอสโพธิ์นิมิตร", "district": "ธนบุรี", "snapDistanceMeters": 12.15}}, {"type": "Feature", "geometry": {"type": "Point", "coordinates": [100.54908383107336, 13.743033208613234]}, "properties": {"id": 89828, "name": "สถานีรถไฟฟ้าบีทีเอสเพลินจิต", "district": "ปทุมวัน", "snapDistanceMeters": 10.23}}, {"type": "Feature", "geometry": {"type": "Point", "coordinates": [100.54474510362432, 13.726284389711669]}, "properties": {"id": 89975, "name": "สถานีรถไฟฟ้าเอ็มอาร์ทีลุมพินี ประตู 3", "district": "ปทุมวัน", "snapDistanceMeters": 38.45}}, {"type": "Feature", "geometry": {"type": "Point", "coordinates": [100.47730460088539, 13.714487273330564]}, "properties": {"id": 41621, "name": "สถานีรถไฟฟ้าบีทีเอสตลาดพลู ประตู 2", "district": "ธนบุรี", "snapDistanceMeters": 6.3}}, {"type": "Feature", "geometry": {"type": "Point", "coordinates": [100.5295760922674, 13.732200943917007]}, "properties": {"id": 57048, "name": "สถานีรถไฟฟ้าเอ็มอาร์ทีสามย่าน ประตู 1", "district": "บางรัก", "snapDistanceMeters": 23.28}}, {"type": "Feature", "geometry": {"type": "Point", "coordinates": [100.69064702428616, 13.733242168118453]}, "properties": {"id": 41546, "name": "สถานีรถไฟฟ้าเออาร์แอลบ้านทับช้าง", "district": "ประเวศ", "snapDistanceMeters": 44.85}}, {"type": "Feature", "geometry": {"type": "Point", "coordinates": [100.53019752659561, 13.731594485459246]}, "properties": {"id": 76753, "name": "ลานจอดรถสถานีรถไฟฟ้าสามย่าน", "district": "บางรัก", "snapDistanceMeters": 28.87}}, {"type": "Feature", "geometry": {"type": "Point", "coordinates": [100.5309071357956, 13.806073215229567]}, "properties": {"id": 137775, "name": "สถานีรถไฟฟ้าเอ็มอาร์ทีเตาปูน", "district": "บางซื่อ", "snapDistanceMeters": 14.15}}, {"type": "Feature", "geometry": {"type": "Point", "coordinates": [100.53242722029822, 13.81957219620304]}, "properties": {"id": 137776, "name": "สถานีรถไฟฟ้าเอ็มอาร์ทีบางซ่อน", "district": "บางซื่อ", "snapDistanceMeters": 13.28}}, {"type": "Feature", "geometry": {"type": "Point", "coordinates": [100.52730591277145, 13.829251200486503]}, "properties": {"id": 137777, "name": "สถานีรถไฟฟ้าเอ็มอาร์ทีวงศ์สว่าง", "district": "บางซื่อ", "snapDistanceMeters": 38.26}}, {"type": "Feature", "geometry": {"type": "Point", "coordinates": [100.53389662990116, 13.757024491434665]}, "properties": {"id": 45374, "name": "สถานีรถไฟฟ้าบีทีเอสพญาไท", "district": "ราขเทวี", "snapDistanceMeters": 9.73}}, {"type": "Feature", "geometry": {"type": "Point", "coordinates": [100.53946118280861, 13.73948113977899]}, "properties": {"id": 45956, "name": "สถานีรถไฟฟ้าบีทีเอสราชดำริ", "district": "ปทุมวัน", "snapDistanceMeters": 3.41}}, {"type": "Feature", "geometry": {"type": "Point", "coordinates": [100.56231147542408, 13.812489780933142]}, "properties": {"id": 34259, "name": "สถานีรถไฟฟ้าเอ็มอาร์ทีพหลโยธิน ประตู 5", "district": "จตุจักร", "snapDistanceMeters": 12.81}}, {"type": "Feature", "geometry": {"type": "Point", "coordinates": [100.53816956467203, 13.7288956409062]}, "properties": {"id": 25452, "name": "สถานีรถไฟฟ้าเอ็มอาร์ทีสีลม ประตู 1", "district": "ปทุมวัน", "snapDistanceMeters": 60.6}}, {"type": "Feature", "geometry": {"type": "Point", "coordinates": [100.56975535014426, 13.730431021626185]}, "properties": {"id": 169981, "name": "สถานีรถไฟฟ้าบีทีเอสพร้อมพงษ์", "district": "คลองเตย", "snapDistanceMeters": 8.41}}, {"type": "Feature", "geometry": {"type": "Point", "coordinates": [100.57896912590972, 13.723938189947532]}, "properties": {"id": 169983, "name": "สถานีรถไฟฟ้าบีทีเอสทองหล่อ", "district": "คลองเตย", "snapDistanceMeters": 59.13}}, {"type": "Feature", "geometry": {"type": "Point", "coordinates": [100.540059743787, 13.803428281994501]}, "properties": {"id": 163450, "name": "ที่จอดรถสถานีรถไฟฟ้าไต้ดินบางซื่อ", "district": "จตุจักร", "snapDistanceMeters": 79.51}}, {"type": "Feature", "geometry": {"type": "Point", "coordinates": [100.57412534645445, 13.805554790672593]}, "properties": {"id": 101124, "name": "สถานีรถไฟฟ้าเอ็มอาร์ทีลาดพร้าว ประตู 1", "district": "จตุจักร", "snapDistanceMeters": 19.26}}, {"type": "Feature", "geometry": {"type": "Point", "coordinates": [100.54974583925902, 13.793881236727566]}, "properties": {"id": 101996, "name": "สถานีรถไฟฟ้าบีทีเอสสะพานควาย", "district": "พญาไท", "snapDistanceMeters": 2.76}}, {"type": "Feature", "geometry": {"type": "Point", "coordinates": [100.54205335629953, 13.772527690954735]}, "properties": {"id": 102260, "name": "สถานีรถไฟฟ้าบีทีเอสสนามเป้า", "district": "พญาไท", "snapDistanceMeters": 14.09}}, {"type": "Feature", "geometry": {"type": "Point", "coordinates": [100.52945403913766, 13.74644715104537]}, "properties": {"id": 53860, "name": "สถานีรถไฟฟ้าบีทีเอสสนามกีฬาแห่งชาติ", "district": "ปทุมวัน", "snapDistanceMeters": 42.94}}, {"type": "Feature", "geometry": {"type": "Point", "coordinates": [100.58497392128562, 13.719514975822372]}, "properties": {"id": 53516, "name": "สถานีรถไฟฟ้าบีทีเอสเอกมัย", "district": "คลองเตย", "snapDistanceMeters": 18.87}}, {"type": "Feature", "geometry": {"type": "Point", "coordinates": [100.56167528836613, 13.738498365797906]}, "properties": {"id": 53522, "name": "สถานีรถไฟฟ้าเอ็มอาร์ทีสุขุมวิท ประตู 1", "district": "วัฒนา", "snapDistanceMeters": 23.22}}, {"type": "Feature", "geometry": {"type": "Point", "coordinates": [100.50243656622877, 13.720688716802638]}, "properties": {"id": 168898, "name": "สถานีรถไฟฟ้าบีทีเอสกรุงธนบุรี", "district": "คลองสาน", "snapDistanceMeters": 29.1}}, {"type": "Feature", "geometry": {"type": "Point", "coordinates": [100.53686654924866, 13.762358612673937]}, "properties": {"id": 170541, "name": "สถานีรถไฟฟ้าบีทีเอสอนุสาวรีย์ชัยสมรภูมิ", "district": "ราขเทวี", "snapDistanceMeters": 46.48}}, {"type": "Feature", "geometry": {"type": "Point", "coordinates": [100.60057984378162, 13.706544501989603]}, "properties": {"id": 8833, "name": "สถานีรถไฟฟ้าบีทีเอสอ่อนนุช", "district": "คลองเตย", "snapDistanceMeters": 80.8}}, {"type": "Feature", "geometry": {"type": "Point", "coordinates": [100.53886609280366, 13.802861823249593]}, "properties": {"id": 10044, "name": "สถานีรถไฟฟ้าเอ็มอาร์ทีบางซื่อ ประตู 1", "district": "บางซื่อ", "snapDistanceMeters": 18.48}}, {"type": "Feature", "geometry": {"type": "Point", "coordinates": [100.51424229492554, 13.718984198888242]}, "properties": {"id": 8728, "name": "สถานีรถไฟฟ้าบีทีเอสสะพานตากสิน", "district": "สาทร", "snapDistanceMeters": 19.25}}, {"type": "Feature", "geometry": {"type": "Point", "coordinates": [100.56017174949726, 13.722922071112631]}, "properties": {"id": 174953, "name": "ที่จอดรถเฉพาะผู้ใช้บริการจอดรถรายเดือน สถานีรถไฟฟ้าเอ็มอาร์ทีศูนย์การประชุมฯ", "district": "คลองเตย", "snapDistanceMeters": 12.36}}, {"type": "Feature", "geometry": {"type": "Point", "coordinates": [100.56205015243926, 13.816630077809108]}, "properties": {"id": 343349, "name": "สถานีรถไฟฟ้าบีทีเอสห้าแยกลาดพร้าว", "district": "จตุจักร", "snapDistanceMeters": 7.23}}, {"type": "Feature", "geometry": {"type": "Point", "coordinates": [100.47345647349154, 13.763476782055758]}, "properties": {"id": 317259, "name": "สถานีรถไฟฟ้าเอ็มอาร์ทีบางขุนนนท์", "district": "บางกอกน้อย", "snapDistanceMeters": 12.45}}, {"type": "Feature", "geometry": {"type": "Point", "coordinates": [100.46934325645911, 13.755725098705813]}, "properties": {"id": 317260, "name": "สถานีรถไฟฟ้าเอ็มอาร์ทีไฟฉาย", "district": "บางกอกน้อย", "snapDistanceMeters": 1.6}}, {"type": "Feature", "geometry": {"type": "Point", "coordinates": [100.47074516812825, 13.740034634745344]}, "properties": {"id": 317261, "name": "สถานีรถไฟฟ้าเอ็มอาร์ทีจรัญฯ 13", "district": "บางกอกใหญ่", "snapDistanceMeters": 5.93}}, {"type": "Feature", "geometry": {"type": "Point", "coordinates": [100.52085460053519, 13.806407120294516]}, "properties": {"id": 317254, "name": "สถานีรถไฟฟ้าเอ็มอาร์ทีบางโพ", "district": "บางซื่อ", "snapDistanceMeters": 20.2}}, {"type": "Feature", "geometry": {"type": "Point", "coordinates": [100.50980797396147, 13.798989777462305]}, "properties": {"id": 317255, "name": "สถานีรถไฟฟ้าเอ็มอาร์ทีบางอ้อ", "district": "บางพลัด", "snapDistanceMeters": 4.98}}, {"type": "Feature", "geometry": {"type": "Point", "coordinates": [100.50499013223985, 13.792530713998502]}, "properties": {"id": 317256, "name": "สถานีรถไฟฟ้าเอ็มอาร์ทีบางพลัด", "district": "บางพลัด", "snapDistanceMeters": 8.41}}, {"type": "Feature", "geometry": {"type": "Point", "coordinates": [100.49335239123373, 13.783860716046428]}, "properties": {"id": 317257, "name": "สถานีรถไฟฟ้าเอ็มอาร์ทีสิรินธร", "district": "บางพลัด", "snapDistanceMeters": 23.43}}, {"type": "Feature", "geometry": {"type": "Point", "coordinates": [100.48542815148741, 13.777589530801201]}, "properties": {"id": 317258, "name": "สถานีรถไฟฟ้าเอ็มอาร์ทีบางยี่ขัน", "district": "บางพลัด", "snapDistanceMeters": 13.69}}, {"type": "Feature", "geometry": {"type": "Point", "coordinates": [100.53050404211253, 13.806676527344457]}, "properties": {"id": 354144, "name": "สถานีรถไฟฟ้าเอ็มอาร์ทีเตาปูน ลิฟต์ประตู 2", "district": "บางซื่อ", "snapDistanceMeters": 21.16}}, {"type": "Feature", "geometry": {"type": "Point", "coordinates": [100.53066803111956, 13.805926732695795]}, "properties": {"id": 354145, "name": "สถานีรถไฟฟ้าเอ็มอาร์ทีเตาปูน ลิฟต์ประตู 1", "district": "บางซื่อ", "snapDistanceMeters": 16.23}}, {"type": "Feature", "geometry": {"type": "Point", "coordinates": [100.48526857193716, 13.738223410285164]}, "properties": {"id": 354420, "name": "สถานีรถไฟฟ้าเอ็มอาร์ทีอิสรภาพ ประตู 2", "district": "บางกอกใหญ่", "snapDistanceMeters": 20.14}}, {"type": "Feature", "geometry": {"type": "Point", "coordinates": [100.48512077939597, 13.73845342442678]}, "properties": {"id": 354421, "name": "สถานีรถไฟฟ้าเอ็มอาร์ทีอิสรภาพ ลิฟต์ประตู 1", "district": "บางกอกใหญ่", "snapDistanceMeters": 14.62}}, {"type": "Feature", "geometry": {"type": "Point", "coordinates": [100.48525275208009, 13.738248031422431]}, "properties": {"id": 354422, "name": "สถานีรถไฟฟ้าเอ็มอาร์ทีอิสรภาพ ลิฟต์ประตู 2", "district": "บางกอกใหญ่", "snapDistanceMeters": 16.1}}, {"type": "Feature", "geometry": {"type": "Point", "coordinates": [100.51041455791729, 13.741910316226411]}, "properties": {"id": 357589, "name": "สถานีรถไฟฟ้าเอ็มอาร์ทีวัดมังกร ประตู 1", "district": "สัมพันธวงค์", "snapDistanceMeters": 16.25}}, {"type": "Feature", "geometry": {"type": "Point", "coordinates": [100.576857127776, 13.841852649287176]}, "properties": {"id": 357592, "name": "สถานีรถไฟฟ้าบีทีเอสมหาวิทยาลัยเกษตรศาสตร์ ประตู 1", "district": "จตุจักร", "snapDistanceMeters": 22.03}}, {"type": "Feature", "geometry": {"type": "Point", "coordinates": [100.46499369495581, 13.724671458960941]}, "properties": {"id": 357303, "name": "สถานีรถไฟฟ้าเอ็มอาร์ทีบางไผ่ ลิฟต์ประตู 3", "district": "ภาษีเจริญ", "snapDistanceMeters": 39.15}}, {"type": "Feature", "geometry": {"type": "Point", "coordinates": [100.45624523366193, 13.720065358923085]}, "properties": {"id": 357304, "name": "สถานีรถไฟฟ้าเอ็มอาร์ทีบางหว้า ประตู 1", "district": "ภาษีเจริญ", "snapDistanceMeters": 48.5}}, {"type": "Feature", "geometry": {"type": "Point", "coordinates": [100.45628149757627, 13.719993388856318]}, "properties": {"id": 357306, "name": "สถานีรถไฟฟ้าเอ็มอาร์ทีบางหว้า ลิฟต์ประตู 1", "district": "ภาษีเจริญ", "snapDistanceMeters": 19.89}}, {"type": "Feature", "geometry": {"type": "Point", "coordinates": [100.5698173740759, 13.829875579492322]}, "properties": {"id": 357875, "name": "สถานีรถไฟฟ้าบีทีเอสรัชโยธิน ลิฟต์ประตู 3", "district": "จตุจักร", "snapDistanceMeters": 21.6}}, {"type": "Feature", "geometry": {"type": "Point", "coordinates": [100.57008754329564, 13.830335513536848]}, "properties": {"id": 357876, "name": "สถานีรถไฟฟ้าบีทีเอสรัชโยธิน ประตู 3", "district": "จตุจักร", "snapDistanceMeters": 16.34}}, {"type": "Feature", "geometry": {"type": "Point", "coordinates": [100.57008754329564, 13.830335513536848]}, "properties": {"id": 357877, "name": "สถานีรถไฟฟ้าบีทีเอสรัชโยธิน ลิฟต์ประตู 4", "district": "จตุจักร", "snapDistanceMeters": 15.08}}, {"type": "Feature", "geometry": {"type": "Point", "coordinates": [100.56205015243926, 13.816630077809108]}, "properties": {"id": 357023, "name": "สถานีรถไฟฟ้าบีทีเอสห้าแยกลาดพร้าว ลิฟต์ประตู 3", "district": "จตุจักร", "snapDistanceMeters": 46.03}}, {"type": "Feature", "geometry": {"type": "Point", "coordinates": [100.56216933069734, 13.81656729456668]}, "properties": {"id": 357024, "name": "สถานีรถไฟฟ้าบีทีเอสห้าแยกลาดพร้าว ลิฟต์ประตู 2", "district": "จตุจักร", "snapDistanceMeters": 9.48}}, {"type": "Feature", "geometry": {"type": "Point", "coordinates": [100.5736659365375, 13.836437889104968]}, "properties": {"id": 357025, "name": "สถานีรถไฟฟ้าบีทีเอสเสนานิคม ประตู 1", "district": "จตุจักร", "snapDistanceMeters": 18.59}}, {"type": "Feature", "geometry": {"type": "Point", "coordinates": [100.5737975864054, 13.836662610429597]}, "properties": {"id": 357027, "name": "สถานีรถไฟฟ้าบีทีเอสเสนานิคม ลิฟต์ประตู 4", "district": "จตุจักร", "snapDistanceMeters": 23.14}}, {"type": "Feature", "geometry": {"type": "Point", "coordinates": [100.42203743636996, 13.711986651912126]}, "properties": {"id": 357029, "name": "สถานีรถไฟฟ้าเอ็มอาร์ทีบางแค ประตู 1", "district": "บางแค", "snapDistanceMeters": 24.48}}, {"type": "Feature", "geometry": {"type": "Point", "coordinates": [100.42203009926723, 13.711884593186195]}, "properties": {"id": 357296, "name": "สถานีรถไฟฟ้าเอ็มอาร์ทีบางแค ลิฟต์ประตู 4", "district": "บางแค", "snapDistanceMeters": 15.22}}, {"type": "Feature", "geometry": {"type": "Point", "coordinates": [100.42203743636996, 13.711986651912126]}, "properties": {"id": 357297, "name": "สถานีรถไฟฟ้าเอ็มอาร์ทีบางแค ลิฟต์ประตู 1", "district": "บางแค", "snapDistanceMeters": 11.42}}, {"type": "Feature", "geometry": {"type": "Point", "coordinates": [100.46538277703748, 13.724599089528512]}, "properties": {"id": 357298, "name": "สถานีรถไฟฟ้าเอ็มอาร์ทีบางไผ่ ประตู 1", "district": "ภาษีเจริญ", "snapDistanceMeters": 28.77}}, {"type": "Feature", "geometry": {"type": "Point", "coordinates": [100.55575067882829, 13.740315849687578]}, "properties": {"id": 194052, "name": "สถานีรถไฟฟ้าบีทีเอสนานา ประตู 4", "district": "คลองเตย", "snapDistanceMeters": 17.71}}, {"type": "Feature", "geometry": {"type": "Point", "coordinates": [100.49467478159978, 13.743909716730924]}, "properties": {"id": 356734, "name": "สถานีรถไฟฟ้าเอ็มอาร์ทีสนามไชย ลิฟต์ประตู 3", "district": "พระนคร", "snapDistanceMeters": 15.07}}, {"type": "Feature", "geometry": {"type": "Point", "coordinates": [100.49458001452228, 13.744530891856373]}, "properties": {"id": 356735, "name": "สถานีรถไฟฟ้าเอ็มอาร์ทีสนามไชย ลิฟต์ประตู 1", "district": "พระนคร", "snapDistanceMeters": 14.61}}, {"type": "Feature", "geometry": {"type": "Point", "coordinates": [100.50303846164769, 13.746958797019742]}, "properties": {"id": 356736, "name": "สถานีรถไฟฟ้าเอ็มอาร์ทีสามยอด ประตู 1", "district": "พระนคร", "snapDistanceMeters": 17.63}}, {"type": "Feature", "geometry": {"type": "Point", "coordinates": [100.40943275313762, 13.711034861384368]}, "properties": {"id": 357017, "name": "สถานีรถไฟฟ้าเอ็มอาร์ทีหลักสอง ประตู 1", "district": "บางแค", "snapDistanceMeters": 9.8}}, {"type": "Feature", "geometry": {"type": "Point", "coordinates": [100.40948494113186, 13.710868418355272]}, "properties": {"id": 357021, "name": "สถานีรถไฟฟ้าเอ็มอาร์ทีหลักสอง ลิฟต์ประตู 1", "district": "บางแค", "snapDistanceMeters": 38.99}}, {"type": "Feature", "geometry": {"type": "Point", "coordinates": [100.4095203257696, 13.710701294615793]}, "properties": {"id": 357022, "name": "สถานีรถไฟฟ้าเอ็มอาร์ทีหลักสอง ลิฟต์ประตู 2", "district": "บางแค", "snapDistanceMeters": 33.39}}, {"type": "Feature", "geometry": {"type": "Point", "coordinates": [100.46538277703748, 13.724599089528512]}, "properties": {"id": 357302, "name": "สถานีรถไฟฟ้าเอ็มอาร์ทีบางไผ่ ลิฟต์ประตู 1", "district": "ภาษีเจริญ", "snapDistanceMeters": 8.0}}, {"type": "Feature", "geometry": {"type": "Point", "coordinates": [100.58169085889267, 13.850092880035536]}, "properties": {"id": 357624, "name": "สถานีรถไฟฟ้าบีทีเอสกรมป่าไม้", "district": "จตุจักร", "snapDistanceMeters": 17.32}}, {"type": "Feature", "geometry": {"type": "Point", "coordinates": [100.58554239730569, 13.856088221056831]}, "properties": {"id": 357625, "name": "สถานีรถไฟฟ้าบีทีเอสบางบัว", "district": "จตุจักร", "snapDistanceMeters": 35.11}}, {"type": "Feature", "geometry": {"type": "Point", "coordinates": [100.5917863428744, 13.867242419463764]}, "properties": {"id": 357626, "name": "สถานีรถไฟฟ้าบีทีเอสกรมทหารราบที่ 11", "district": "บางเขน", "snapDistanceMeters": 45.82}}, {"type": "Feature", "geometry": {"type": "Point", "coordinates": [100.59669140612884, 13.87554575524954]}, "properties": {"id": 357627, "name": "สถานีรถไฟฟ้าบีทีเอสวัดพระศรีมหาธาตุ", "district": "บางเขน", "snapDistanceMeters": 28.46}}, {"type": "Feature", "geometry": {"type": "Point", "coordinates": [100.52001407521047, 13.806402845726858]}, "properties": {"id": 356164, "name": "สถานีรถไฟฟ้าเอ็มอาร์ทีบางโพ ลิฟต์ประตู 1 เอ", "district": "บางซื่อ", "snapDistanceMeters": 11.42}}, {"type": "Feature", "geometry": {"type": "Point", "coordinates": [100.52085460053519, 13.806407120294516]}, "properties": {"id": 356165, "name": "สถานีรถไฟฟ้าเอ็มอาร์ทีบางโพ ลิฟต์ประตู 1 บี", "district": "บางซื่อ", "snapDistanceMeters": 27.57}}, {"type": "Feature", "geometry": {"type": "Point", "coordinates": [100.53094657901585, 13.806367026489749]}, "properties": {"id": 356166, "name": "สถานีรถไฟฟ้าเอ็มอาร์ทีเตาปูน ลิฟต์ประตู 3", "district": "บางซื่อ", "snapDistanceMeters": 22.23}}, {"type": "Feature", "geometry": {"type": "Point", "coordinates": [100.44527716919994, 13.715467445467697]}, "properties": {"id": 356449, "name": "สถานีรถไฟฟ้าเอ็มอาร์ทีเพชรเกษม 48 ประตู 1", "district": "ภาษีเจริญ", "snapDistanceMeters": 14.82}}, {"type": "Feature", "geometry": {"type": "Point", "coordinates": [100.44566192013492, 13.715594791681994]}, "properties": {"id": 356722, "name": "สถานีรถไฟฟ้าเอ็มอาร์ทีเพชรเกษม 48 ลิฟต์ประตู 3", "district": "ภาษีเจริญ", "snapDistanceMeters": 20.86}}, {"type": "Feature", "geometry": {"type": "Point", "coordinates": [100.56603821748156, 13.823425777550803]}, "properties": {"id": 356723, "name": "สถานีรถไฟฟ้าบีทีเอสพหลโยธิน 24 ประตู 1", "district": "จตุจักร", "snapDistanceMeters": 27.41}}, {"type": "Feature", "geometry": {"type": "Point", "coordinates": [100.5665063491524, 13.824223851399664]}, "properties": {"id": 356726, "name": "สถานีรถไฟฟ้าบีทีเอสพหลโยธิน 24 ลิฟต์ประตู 4", "district": "จตุจักร", "snapDistanceMeters": 18.99}}, {"type": "Feature", "geometry": {"type": "Point", "coordinates": [100.56636208486584, 13.823977908937144]}, "properties": {"id": 356728, "name": "สถานีรถไฟฟ้าบีทีเอสพหลโยธิน 24 ลิฟต์ประตู 1", "district": "จตุจักร", "snapDistanceMeters": 18.3}}, {"type": "Feature", "geometry": {"type": "Point", "coordinates": [100.55312630079003, 13.802312432107067]}, "properties": {"id": 193719, "name": "สถานีรถไฟฟ้าบีทีเอสหมอชิต ประตู 1", "district": "จตุจักร", "snapDistanceMeters": 23.21}}, {"type": "Feature", "geometry": {"type": "Point", "coordinates": [100.48486726025547, 13.776927572357769]}, "properties": {"id": 356155, "name": "สถานีรถไฟฟ้าเอ็มอาร์ทีบางยี่ขัน ลิฟต์ประตู 1", "district": "บางพลัด", "snapDistanceMeters": 16.55}}, {"type": "Feature", "geometry": {"type": "Point", "coordinates": [100.48543697464005, 13.777599944321766]}, "properties": {"id": 356156, "name": "สถานีรถไฟฟ้าเอ็มอาร์ทีบางยี่ขัน ลิฟต์ประตู 3", "district": "บางพลัด", "snapDistanceMeters": 23.99}}, {"type": "Feature", "geometry": {"type": "Point", "coordinates": [100.50950194460175, 13.798464527135813]}, "properties": {"id": 356437, "name": "สถานีรถไฟฟ้าเอ็มอาร์ทีบางอ้อ ลิฟต์ประตู 1", "district": "บางพลัด", "snapDistanceMeters": 9.53}}, {"type": "Feature", "geometry": {"type": "Point", "coordinates": [100.50944426349899, 13.79850645520186]}, "properties": {"id": 356438, "name": "สถานีรถไฟฟ้าเอ็มอาร์ทีบางอ้อ ลิฟต์ประตู 2", "district": "บางพลัด", "snapDistanceMeters": 13.65}}, {"type": "Feature", "geometry": {"type": "Point", "coordinates": [100.43516549922842, 13.712949862831286]}, "properties": {"id": 356439, "name": "สถานีรถไฟฟ้าเอ็มอาร์ทีภาษีเจริญ ประตู 1", "district": "ภาษีเจริญ", "snapDistanceMeters": 20.83}}, {"type": "Feature", "geometry": {"type": "Point", "coordinates": [100.43516549922842, 13.712949862831286]}, "properties": {"id": 356443, "name": "สถานีรถไฟฟ้าเอ็มอาร์ทีภาษีเจริญ ลิฟต์ประตู 1", "district": "ภาษีเจริญ", "snapDistanceMeters": 42.53}}, {"type": "Feature", "geometry": {"type": "Point", "coordinates": [100.43394757339745, 13.71285074904071]}, "properties": {"id": 356444, "name": "สถานีรถไฟฟ้าเอ็มอาร์ทีภาษีเจริญ ลิฟต์ประตู 3", "district": "ภาษีเจริญ", "snapDistanceMeters": 13.01}}, {"type": "Feature", "geometry": {"type": "Point", "coordinates": [100.5606299264694, 13.750961160474697]}, "properties": {"id": 354180, "name": "ที่จอดรถสถานีรถไฟฟ้าเออาร์แอลมักกะสัน", "district": "ราขเทวี", "snapDistanceMeters": 45.91}}, {"type": "Feature", "geometry": {"type": "Point", "coordinates": [100.60207602332338, 13.661804077412226]}, "properties": {"id": 193414, "name": "สถานีรถไฟฟ้าบีทีเอสแบริ่ง ประตู 1", "district": "บางนา", "snapDistanceMeters": 12.44}}, {"type": "Feature", "geometry": {"type": "Point", "coordinates": [100.47401565682229, 13.729745497409748]}, "properties": {"id": 316256, "name": "สถานีรถไฟฟ้าเอ็มอาร์ทีท่าพระ", "district": "บางกอกใหญ่", "snapDistanceMeters": 4.54}}, {"type": "Feature", "geometry": {"type": "Point", "coordinates": [100.4939876934775, 13.78436540403519]}, "properties": {"id": 354417, "name": "สถานีรถไฟฟ้าเอ็มอาร์ทีสิรินธร ลิฟต์ประตู 3 เอ", "district": "บางพลัด", "snapDistanceMeters": 5.92}}, {"type": "Feature", "geometry": {"type": "Point", "coordinates": [100.49396855609665, 13.784150551263256]}, "properties": {"id": 354418, "name": "สถานีรถไฟฟ้าเอ็มอาร์ทีสิรินธร ลิฟต์ประตู 1", "district": "บางพลัด", "snapDistanceMeters": 9.43}}, {"type": "Feature", "geometry": {"type": "Point", "coordinates": [100.5104203964073, 13.741784468554416]}, "properties": {"id": 354997, "name": "สถานีรถไฟฟ้าเอ็มอาร์ทีวัดมังกร ประตู", "district": "สัมพันธวงค์", "snapDistanceMeters": 12.57}}, {"type": "Feature", "geometry": {"type": "Point", "coordinates": [100.574037753449, 13.78900808291807]}, "properties": {"id": 354431, "name": "ลานจอดรถสถานีรถไฟฟ้าเอ็มอาร์ทีสุทธิสาร", "district": "ดินแดง", "snapDistanceMeters": 13.42}}, {"type": "Feature", "geometry": {"type": "Point", "coordinates": [100.573252235397, 13.835894218238439]}, "properties": {"id": 354707, "name": "สถานีรถไฟฟ้าบีทีเอสเสนานิคม ลิฟต์ประตู 1", "district": "จตุจักร", "snapDistanceMeters": 11.04}}, {"type": "Feature", "geometry": {"type": "Point", "coordinates": [100.46903768981741, 13.755348814193896]}, "properties": {"id": 354991, "name": "สถานีรถไฟฟ้าเอ็มอาร์ทีไฟฉาย ลิฟต์ประตู 2", "district": "บางกอกน้อย", "snapDistanceMeters": 25.45}}, {"type": "Feature", "geometry": {"type": "Point", "coordinates": [100.46930316947719, 13.756134108536468]}, "properties": {"id": 354992, "name": "สถานีรถไฟฟ้าเอ็มอาร์ทีไฟฉาย ลิฟต์ประตู 4", "district": "บางกอกน้อย", "snapDistanceMeters": 31.5}}, {"type": "Feature", "geometry": {"type": "Point", "coordinates": [100.47061705859836, 13.739752769418967]}, "properties": {"id": 355838, "name": "สถานีรถไฟฟ้าเอ็มอาร์ทีจรัญฯ 13 ลิฟต์ประตู 1", "district": "บางกอกใหญ่", "snapDistanceMeters": 14.25}}, {"type": "Feature", "geometry": {"type": "Point", "coordinates": [100.47072616440144, 13.740395847361299]}, "properties": {"id": 355839, "name": "สถานีรถไฟฟ้าเอ็มอาร์ทีจรัญฯ 13 ลิฟต์ประตู 3", "district": "บางกอกใหญ่", "snapDistanceMeters": 29.66}}, {"type": "Feature", "geometry": {"type": "Point", "coordinates": [100.47465020818126, 13.729670653709624]}, "properties": {"id": 355845, "name": "สถานีรถไฟฟ้าเอ็มอาร์ทีท่าพระ ลิฟต์ประตู 1", "district": "บางกอกใหญ่", "snapDistanceMeters": 14.39}}, {"type": "Feature", "geometry": {"type": "Point", "coordinates": [100.47353573910151, 13.729148336698591]}, "properties": {"id": 355846, "name": "สถานีรถไฟฟ้าเอ็มอาร์ทีท่าพระ ลิฟต์ประตู 3", "district": "บางกอกใหญ่", "snapDistanceMeters": 34.99}}, {"type": "Feature", "geometry": {"type": "Point", "coordinates": [100.4735922747179, 13.730576319250824]}, "properties": {"id": 355847, "name": "สถานีรถไฟฟ้าเอ็มอาร์ทีท่าพระ ลิฟต์ประตู 4", "district": "บางกอกใหญ่", "snapDistanceMeters": 42.59}}, {"type": "Feature", "geometry": {"type": "Point", "coordinates": [100.62208105247208, 13.918019015750854]}, "properties": {"id": 356057, "name": "สถานีรถไฟฟ้าบีทีเอสพิพิธภัณฑ์กองทัพอากาศ", "district": "ดอนเมือง", "snapDistanceMeters": 42.47}}, {"type": "Feature", "geometry": {"type": "Point", "coordinates": [100.62580562379134, 13.92492908402452]}, "properties": {"id": 356058, "name": "สถานีรถไฟฟ้าบีทีเอสแยก คปอ.", "district": "ดอนเมือง", "snapDistanceMeters": 3.3}}, {"type": "Feature", "geometry": {"type": "Point", "coordinates": [100.61737645527828, 13.91064221519488]}, "properties": {"id": 356059, "name": "สถานีรถไฟฟ้าบีทีเอสโรงพยาบาลภูมิพลอดุลยเดช", "district": "ดอนเมือง", "snapDistanceMeters": 2.83}}, {"type": "Feature", "geometry": {"type": "Point", "coordinates": [100.60948614528792, 13.896216273890147]}, "properties": {"id": 356060, "name": "สถานีรถไฟฟ้าบีทีเอสสะพานใหม่", "district": "บางเขน", "snapDistanceMeters": 59.79}}, {"type": "Feature", "geometry": {"type": "Point", "coordinates": [100.60095778417102, 13.882794714756969]}, "properties": {"id": 356061, "name": "สถานีรถไฟฟ้าบีทีเอสพหลโยธิน 59", "district": "บางเขน", "snapDistanceMeters": 43.31}}, {"type": "Feature", "geometry": {"type": "Point", "coordinates": [100.60410526385436, 13.888136489504557]}, "properties": {"id": 356062, "name": "สถานีรถไฟฟ้าบีทีเอสสายหยุด", "district": "บางเขน", "snapDistanceMeters": 27.92}}, {"type": "Feature", "geometry": {"type": "Point", "coordinates": [100.44527716919994, 13.715467445467697]}, "properties": {"id": 356721, "name": "สถานีรถไฟฟ้าเอ็มอาร์ทีเพชรเกษม 48 ลิฟต์ประตู 1", "district": "ภาษีเจริญ", "snapDistanceMeters": 29.05}}, {"type": "Feature", "geometry": {"type": "Point", "coordinates": [100.57733835189232, 13.842674999787068]}, "properties": {"id": 357871, "name": "สถานีรถไฟฟ้าบีทีเอสมหาวิทยาลัยเกษตรศาสตร์ ลิฟต์ประตู 4", "district": "จตุจักร", "snapDistanceMeters": 16.04}}, {"type": "Feature", "geometry": {"type": "Point", "coordinates": [100.57731185810717, 13.842629740935443]}, "properties": {"id": 357873, "name": "สถานีรถไฟฟ้าบีทีเอสมหาวิทยาลัยเกษตรศาสตร์ ลิฟต์ประตู 3", "district": "จตุจักร", "snapDistanceMeters": 27.06}}, {"type": "Feature", "geometry": {"type": "Point", "coordinates": [100.64372414568909, 13.738207194765074]}, "properties": {"id": 357274, "name": "ลานจอดรถสถานีรถไฟฟ้าเออาร์แอลหัวหมาก", "district": "สวนหลวง", "snapDistanceMeters": 16.62}}, {"type": "Feature", "geometry": {"type": "Point", "coordinates": [100.5215176125168, 13.71938714180171]}, "properties": {"id": 10151, "name": "สถานีรถไฟฟ้าบีทีเอสสุรศักดิ์", "district": "สาทร", "snapDistanceMeters": 9.28}}, {"type": "Feature", "geometry": {"type": "Point", "coordinates": [100.50462209574268, 13.792036758739734]}, "properties": {"id": 353824, "name": "สถานีรถไฟฟ้าเอ็มอาร์ทีบางพลัด ลิฟต์ประตู 1", "district": "บางพลัด", "snapDistanceMeters": 40.56}}, {"type": "Feature", "geometry": {"type": "Point", "coordinates": [100.47307898023985, 13.762957754255353]}, "properties": {"id": 353818, "name": "สถานีรถไฟฟ้าเอ็มอาร์ทีบางขุนนนท์ ลิฟต์ประตู 1", "district": "บางกอกน้อย", "snapDistanceMeters": 28.15}}, {"type": "Feature", "geometry": {"type": "Point", "coordinates": [100.47303845965558, 13.762987468064146]}, "properties": {"id": 353819, "name": "สถานีรถไฟฟ้าเอ็มอาร์ทีบางขุนนนท์ ลิฟต์ประตู 2", "district": "บางกอกน้อย", "snapDistanceMeters": 28.03}}, {"type": "Feature", "geometry": {"type": "Point", "coordinates": [100.49583370946658, 13.721293486366]}, "properties": {"id": 193586, "name": "สถานีรถไฟฟ้าบีทีเอสวงเวียนใหญ่ ประตู 3", "district": "คลองสาน", "snapDistanceMeters": 15.49}}, {"type": "Feature", "geometry": {"type": "Point", "coordinates": [100.60906016195278, 13.678840289991786]}, "properties": {"id": 193590, "name": "สถานีรถไฟฟ้าบีทีเอสอุดมสุข ประตู 4", "district": "บางนา", "snapDistanceMeters": 46.96}}, {"type": "Feature", "geometry": {"type": "Point", "coordinates": [100.5339643964301, 13.757008917958801]}, "properties": {"id": 192931, "name": "สถานีรถไฟฟ้าเออาร์แอลพญาไท ประตู 2", "district": "ราขเทวี", "snapDistanceMeters": 76.78}}, {"type": "Feature", "geometry": {"type": "Point", "coordinates": [100.54217418203932, 13.755134478015496]}, "properties": {"id": 192933, "name": "สถานีรถไฟฟ้าเออาร์แอลราชปรารภ ประตู", "district": "ราขเทวี", "snapDistanceMeters": 13.79}}, {"type": "Feature", "geometry": {"type": "Point", "coordinates": [100.59950162760215, 13.742834737975866]}, "properties": {"id": 192936, "name": "สถานีรถไฟฟ้าเออาร์แอลรามคำแหง ประตู", "district": "สวนหลวง", "snapDistanceMeters": 34.74}}, {"type": "Feature", "geometry": {"type": "Point", "coordinates": [100.64527322245195, 13.738180524788945]}, "properties": {"id": 192937, "name": "สถานีรถไฟฟ้าเออาร์แอลหัวหมาก ประตู", "district": "สวนหลวง", "snapDistanceMeters": 33.98}}, {"type": "Feature", "geometry": {"type": "Point", "coordinates": [100.69064702428616, 13.733242168118453]}, "properties": {"id": 192938, "name": "สถานีรถไฟฟ้าเออาร์แอลบ้านทับช้าง ประตู", "district": "ประเวศ", "snapDistanceMeters": 55.88}}, {"type": "Feature", "geometry": {"type": "Point", "coordinates": [100.74917784973722, 13.728058402743201]}, "properties": {"id": 192939, "name": "สถานีรถไฟฟ้าเออาร์แอลลาดกระบัง ประตู", "district": "ลาดกระบัง", "snapDistanceMeters": 43.74}}, {"type": "Feature", "geometry": {"type": "Point", "coordinates": [100.50526866007506, 13.792783786006634]}, "properties": {"id": 357252, "name": "สถานีรถไฟฟ้าเอ็มอาร์ทีบางพลัด ลิฟต์ประตู 3", "district": "บางพลัด", "snapDistanceMeters": 20.83}}, {"type": "Feature", "geometry": {"type": "Point", "coordinates": [100.56608821695666, 13.760424974821811]}, "properties": {"id": 356990, "name": "ลานจอดรถสถานีรถไฟฟ้าพระราม 9 (รัชดาภิเษกซอย 2)", "district": "ห้วยขวาง", "snapDistanceMeters": 30.78}}, {"type": "Feature", "geometry": {"type": "Point", "coordinates": [100.53509490163697, 13.7288306532847]}, "properties": {"id": 193805, "name": "สถานีรถไฟฟ้าบีทีเอสศาลาแดง ประตู 5", "district": "บางรัก", "snapDistanceMeters": 9.87}}, {"type": "Feature", "geometry": {"type": "Point", "coordinates": [100.60450485807682, 13.667726971408547]}, "properties": {"id": 193424, "name": "สถานีรถไฟฟ้าบีทีเอสบางนา ประตู 4", "district": "บางนา", "snapDistanceMeters": 31.35}}, {"type": "Feature", "geometry": {"type": "Point", "coordinates": [100.6057560878088, 13.695968717834363]}, "properties": {"id": 193431, "name": "สถานีรถไฟฟ้าบีทีเอสบางจาก ประตู 4", "district": "พระโขนง", "snapDistanceMeters": 28.76}}, {"type": "Feature", "geometry": {"type": "Point", "coordinates": [100.59106838751197, 13.715535640194567]}, "properties": {"id": 194124, "name": "สถานีรถไฟฟ้าบีทีเอสพระโขนง ประตู 1", "district": "คลองเตย", "snapDistanceMeters": 9.0}}, {"type": "Feature", "geometry": {"type": "Point", "coordinates": [100.60933305917379, 13.688648237078935]}, "properties": {"id": 193495, "name": "สถานีรถไฟฟ้าบีทีเอสปุณณวิถี ประตู 3", "district": "พระโขนง", "snapDistanceMeters": 12.44}}, {"type": "Feature", "geometry": {"type": "Point", "coordinates": [100.53145800755652, 13.75159516880183]}, "properties": {"id": 193882, "name": "สถานีรถไฟฟ้าบีทีเอสราชเทวี ประตู 1", "district": "ราขเทวี", "snapDistanceMeters": 16.19}}, {"type": "Feature", "geometry": {"type": "Point", "coordinates": [100.50903338467548, 13.726783863221957]}, "properties": {"id": 337287, "name": "สถานีรถไฟฟ้าบีทีเอสเจริญนคร", "district": "คลองสาน", "snapDistanceMeters": 29.88}}, {"type": "Feature", "geometry": {"type": "Point", "coordinates": [100.50796401679064, 13.730337376146021]}, "properties": {"id": 337288, "name": "สถานีรถไฟฟ้าบีทีเอสคลองสาน", "district": "คลองสาน", "snapDistanceMeters": 35.34}}, {"type": "Feature", "geometry": {"type": "Point", "coordinates": [100.5267839421063, 13.720703471304088]}, "properties": {"id": 380918, "name": "สถานีรถไฟฟ้าบีทีเอสเซนต์หลุยส์", "district": "สาทร", "snapDistanceMeters": 13.13}}, {"type": "Feature", "geometry": {"type": "Point", "coordinates": [100.74957425229623, 13.728253825718056]}, "properties": {"id": 106765, "name": "ที่จอดรถสถานีรถไฟฟ้าลาดกระบัง", "district": "ลาดกระบัง", "snapDistanceMeters": 55.37}}, {"type": "Feature", "geometry": {"type": "Point", "coordinates": [100.64510905456152, 13.738094462248553]}, "properties": {"id": 124273, "name": "สถานีรถไฟฟ้าเออาร์แอลหัวหมาก", "district": "สวนหลวง", "snapDistanceMeters": 24.39}}, {"type": "Feature", "geometry": {"type": "Point", "coordinates": [100.60096548070895, 13.742670266584495]}, "properties": {"id": 124275, "name": "สถานีรถไฟฟ้าเออาร์แอลรามคำแหง", "district": "สวนหลวง", "snapDistanceMeters": 33.92}}, {"type": "Feature", "geometry": {"type": "Point", "coordinates": [100.54217418203932, 13.755134478015496]}, "properties": {"id": 124271, "name": "สถานีรถไฟฟ้าเออาร์แอลราชปรารภ", "district": "ราขเทวี", "snapDistanceMeters": 20.13}}, {"type": "Feature", "geometry": {"type": "Point", "coordinates": [100.74823807743847, 13.7273469544105]}, "properties": {"id": 124272, "name": "สถานีรถไฟฟ้าเออาร์แอลลาดกระบัง", "district": "ลาดกระบัง", "snapDistanceMeters": 35.13}}, {"type": "Feature", "geometry": {"type": "Point", "coordinates": [100.55527097130843, 13.804610074815235]}, "properties": {"id": 125537, "name": "ที่จอดรถสถานีรถไฟฟ้าหมอชิต", "district": "จตุจักร", "snapDistanceMeters": 9.52}}, {"type": "Feature", "geometry": {"type": "Point", "coordinates": [100.47730460088539, 13.714487273330564]}, "properties": {"id": 261024, "name": "จุดจอดแล้วจรสถานีบีทีเอสตลาดพลู", "district": "ธนบุรี", "snapDistanceMeters": 41.4}}, {"type": "Feature", "geometry": {"type": "Point", "coordinates": [100.54474510362432, 13.726284389711669]}, "properties": {"id": 261312, "name": "จุดจอดรถจักรยานสถานีรถไฟฟ้าเอ็มอาร์ทีลุมพินี ประตู 3", "district": "ปทุมวัน", "snapDistanceMeters": 34.22}}, {"type": "Feature", "geometry": {"type": "Point", "coordinates": [100.56363968013137, 13.74994866887714]}, "properties": {"id": 261605, "name": "ลานจอดรถสถานีรถไฟฟ้าเพชรบุรี", "district": "ห้วยขวาง", "snapDistanceMeters": 41.44}}, {"type": "Feature", "geometry": {"type": "Point", "coordinates": [100.5713936232777, 13.766828198034291]}, "properties": {"id": 261607, "name": "ลานจอดรถสถานีรถไฟฟ้าศูนย์วัฒนธรรมแห่งประเทศไทย ประตู 1", "district": "ห้วยขวาง", "snapDistanceMeters": 5.09}}, {"type": "Feature", "geometry": {"type": "Point", "coordinates": [100.57551424851479, 13.79790252444718]}, "properties": {"id": 261608, "name": "ลานจอดรถสถานีรถไฟฟ้ารัชดาภิเษก", "district": "ห้วยขวาง", "snapDistanceMeters": 63.48}}, {"type": "Feature", "geometry": {"type": "Point", "coordinates": [100.53375980142327, 13.756780257374492]}, "properties": {"id": 256432, "name": "วินสถานีรถไฟฟ้าพญาไท", "district": "ราขเทวี", "snapDistanceMeters": 24.74}}]}